     2.11           OBSERVATION DATA    M (MIXED)           RINEX VERSION / TYPE
HEADER CHANGED BY EPN CB ON 2021-12-28                      COMMENT
TO BE CONFORM WITH THE INFORMATION IN                       COMMENT
ftp://epncb.oma.be/pub/station/log/npaz.log                 COMMENT
                                                            COMMENT
GPSNet 2.70 3641                        21-Dec-21 00:59:45  PGM / RUN BY / DATE
gfzrnx-1.13-7761    FILE MERGE          20211222 033032 UTC COMMENT
NPAZ                                                        MARKER NAME
12110M001                                                   MARKER NUMBER
                    Republicki Geodetski Zavod              OBSERVER / AGENCY
5703R51185          TRIMBLE NETR9       Nav 5.37            REC # / TYPE / VERS
1440905738          TRM115000.00    TZGD                    ANT # / TYPE
        0.0000        0.0000        0.0000                  ANTENNA: DELTA H/E/N
  4365991.2580  1634053.0450  4339210.5010                  APPROX POSITION XYZ
     6    C1    L1    L2    P2    S1    S2                  # / TYPES OF OBSERV
Sasa Lazic. GNSS admin nacionalne mreze Republike Srbije    COMMENT
     0                                                      RCV CLOCK OFFS APPL
     1     1     0                                          WAVELENGTH FACT L1/2
    50                                                      # OF SATELLITES
   G01   340   340   332   332   340   332                  PRN / # OF OBS
   G02   574   574   556   556   574   556                  PRN / # OF OBS
   G03   290   290   278   278   290   278                  PRN / # OF OBS
   G04   242   242   240   240   242   240                  PRN / # OF OBS
   G05   606   606   605   605   606   605                  PRN / # OF OBS
   G06   376   376   372   372   376   372                  PRN / # OF OBS
   G07   453   453   453   453   453   453                  PRN / # OF OBS
   G08   681   681   679   679   681   679                  PRN / # OF OBS
   G09   342   342   342   342   342   342                  PRN / # OF OBS
   G10   565   565   551   551   565   551                  PRN / # OF OBS
   G12   543   543   542   542   543   542                  PRN / # OF OBS
   G13   642   642   599   599   642   599                  PRN / # OF OBS
   G14   702   702   692   692   702   692                  PRN / # OF OBS
   G15   673   673   658   658   673   658                  PRN / # OF OBS
   G16   458   458   405   405   458   405                  PRN / # OF OBS
   G17   555   555   545   545   555   545                  PRN / # OF OBS
   G18   400   400   390   390   400   390                  PRN / # OF OBS
   G19   477   477   458   458   477   458                  PRN / # OF OBS
   G20   624   624   583   583   624   583                  PRN / # OF OBS
   G21   462   462   420   420   462   420                  PRN / # OF OBS
   G23   673   673   665   665   673   665                  PRN / # OF OBS
   G24   557   557   542   542   557   542                  PRN / # OF OBS
   G25   360   360   360   360   360   360                  PRN / # OF OBS
   G26   454   454   453   453   454   453                  PRN / # OF OBS
   G29   360   360   360   360   360   360                  PRN / # OF OBS
   G30   581   581   581   581   581   581                  PRN / # OF OBS
   G31   447   447   440   440   447   440                  PRN / # OF OBS
   G32   632   632   619   619   632   619                  PRN / # OF OBS
   R01   225   225   120   120   225   120                  PRN / # OF OBS
   R02   460   460   433   433   460   433                  PRN / # OF OBS
   R03   503   503   421   421   503   421                  PRN / # OF OBS
   R04   688   688   373   373   688   373                  PRN / # OF OBS
   R05   678   678   645   645   678   645                  PRN / # OF OBS
   R06   607   607               607                        PRN / # OF OBS
   R07   437   437   182   182   437   182                  PRN / # OF OBS
   R08   403   403   226   226   403   226                  PRN / # OF OBS
   R09   436   436   407   407   436   407                  PRN / # OF OBS
   R10   418   418               418                        PRN / # OF OBS
   R12   739   739   645   645   739   645                  PRN / # OF OBS
   R13   564   564   457   457   564   457                  PRN / # OF OBS
   R14   493   493   450   450   493   450                  PRN / # OF OBS
   R15   552   552   522   522   552   522                  PRN / # OF OBS
   R17   429   429   241   241   429   241                  PRN / # OF OBS
   R18   438   438   425   425   438   425                  PRN / # OF OBS
   R19   443   443   303   303   443   303                  PRN / # OF OBS
   R20   544   544   516   516   544   516                  PRN / # OF OBS
   R21   572   572   473   473   572   473                  PRN / # OF OBS
   R22   547   547               547                        PRN / # OF OBS
   R23   499   499               499                        PRN / # OF OBS
   R24   333   333   295   295   333   295                  PRN / # OF OBS
    30.000                                                  INTERVAL
  2021    12    21     0     0    0.0000000     GPS         TIME OF FIRST OBS
  2021    12    21    23    59   30.0000000     GPS         TIME OF LAST OBS
                                                            END OF HEADER
 21 12 21 00 00 00.0000000  0 17G08G10G15G16G18G21G23G26G32R04R05R06
                                R10R12R19R20R21
  22288985.512   117129399.04806  91269672.41646  22288987.972          44.000  
        27.000  
  20683381.444   108691921.07007  84695007.69448  20683383.604          51.000  
        47.000  
  24419047.378   128322969.19804  99991930.81746  24419047.458          39.000  
        27.000  
  21735706.216   114221907.77506  89004081.93546  21735705.916          46.000  
        30.000  
  23144121.006   121623214.66206  94771344.59546  23144121.426          43.000  
        23.000  
  24135239.160   126831531.88505  98829771.35842  24135239.520          40.000  
        14.000  
  21233917.920   111585011.35207  86949362.76947  21233918.860          48.000  
        32.000  
  23711016.542   124602232.03105  97092647.80746  23711020.642          41.000  
        30.000  
  25086887.354   131832485.69203 102726611.82046  25086890.374          37.000  
        22.000  
  21615964.936   115752520.41807  90029726.13246  21615960.316          48.000  
        22.000  
  20273187.068   108371811.72107  84289192.12547  20273183.508          50.000  
        35.000  
  23169328.288   123635984.72500                                        32.000  
                
  22884259.628   121985970.86906                                        43.000  
                
  23679514.044   126491706.09205  98382440.60646  23679510.464          42.000  
        26.000  
  23250776.648   124375967.25400                                        32.000  
                
  19893415.108   106379034.79405  82739249.56147  19893413.188          40.000  
        33.000  
  21772650.456   116509861.22706  90618770.57846  21772647.896          46.000  
        22.000  
 21 12 21 00 00 30.0000000  0 17G08G10G15G16G18G21G23G26G32R04R05R06
                                R10R12R19R20R21
  22273618.192   117048642.67706  91206745.37646  22273620.492          45.000  
        27.000  
  20679832.284   108673270.42707  84680474.73748  20679834.464          51.000  
        47.000  
  24428574.718   128373032.12605 100030940.88146  24428574.158          40.000  
        26.000  
  21748622.436   114289784.86106  89056973.16346  21748622.736          46.000  
        30.000  
  23159990.646   121706608.75906  94836327.00246  23159990.946          43.000  
        22.000  
  24121222.480   126757874.84305  98772376.29745  24121222.660          40.000  
        17.000  
  21243754.540   111636702.47207  86989641.56447  21243755.220          48.000  
        33.000  
  23730924.382   124706843.12805  97174162.95546  23730927.462          41.000  
        30.000  
  25068865.594   131737775.26304 102652811.50846  25068867.574          38.000  
        24.000  
  21628749.716   115820985.39407  90082976.65346  21628746.496          48.000  
        22.000  
  20263702.068   108321110.70607  84249758.00647  20263698.768          50.000  
        34.000  
  23144036.268   123501011.94300                                        32.000  

  22905715.968   122100341.64505                                        42.000  
                
  23665462.924   126416648.11306  98324062.16346  23665459.604          43.000  
        25.000  
  23266753.448   124461433.23101                                        33.000  
                
  19895900.968   106392328.16604  82749588.85847  19895899.328          39.000  
        33.000  
  21758080.616   116431896.04406  90558129.99946  21758077.536          47.000  
        22.000  
 21 12 21 00 01 00.0000000  0 17G08G10G15G16G18G21G23G26G32R04R05R06
                                R10R12R19R20R21
  22258291.592   116968101.00506  91143985.65846  22258293.952          45.000  
        28.000  
  20676385.824   108655160.14807  84666362.83248  20676388.284          50.000  
        47.000  
  24438202.398   128423629.67305 100070367.57346  24438202.538          40.000  
        26.000  
  21761627.596   114358125.44606  89110225.56946  21761626.996          46.000  
        30.000  
  23175875.566   121790085.45405  94901373.75146  23175876.106          42.000  
        23.000  
  24107230.500   126684347.19105  98715082.06645  24107230.140          40.000  
        16.000  
  21253682.140   111688871.18507  87030292.51546  21253682.180          48.000  
        31.000  
  23750847.042   124811543.19405  97255747.39946  23750850.902          40.000  
        30.000  
  25050830.074   131642998.12604 102578959.20646  25050832.574          38.000  
        24.000  
  21641662.556   115890135.80307  90136764.30546  21641659.096          48.000  
        23.000  
  20254360.648   108271176.98007  84210920.68647  20254357.548          50.000  
        34.000  
  23118758.488   123366131.03601                                        33.000  
                
  22927212.048   122214931.25906                                        43.000  
                
  23651523.244   126342184.04306  98266145.63346  23651520.104          44.000  
        25.000  
  23282753.248   124547012.93301                                        33.000  

  19898443.908   106405916.95705  82760157.90847  19898440.188          40.000  
        33.000  
  21743531.356   116354039.26806  90497574.77146  21743528.556          47.000  
        22.000  
 21 12 21 00 01 30.0000000  0 17G08G10G15G16G18G21G23G26G32R04R05R06
                                R10R12R19R20R21
  22243005.512   116887774.85606  91081393.84746  22243007.772          45.000  
        28.000  
  20673042.624   108637589.67107  84652671.55948  20673044.744          51.000  
        47.000  
  24447931.978   128474759.72304 100110209.18146  24447932.158          39.000  
        26.000  
  21774719.636   114426926.44906  89163836.69746  21774719.136          44.000  
        29.000  
  23191776.306   121873643.29306  94966483.73046  23191776.426          43.000  
        22.000  
  24093263.180   126610948.44505  98657888.25245  24093263.420          40.000  
        16.000  
  21263699.660   111741514.77506  87071313.48646  21263699.420          47.000  
        31.000  
  23770787.402   124916328.91904  97337398.61546  23770791.162          39.000  
        30.000  
  25032781.174   131548156.33603 102505056.50446  25032784.874          37.000  
        23.000  
  21654702.896   115959967.55107                                        48.000  

  20245163.688   108222012.76107  84172681.86047  20245159.668          49.000  
        33.000  
  23093500.568   123231345.64001                                        33.000  

  22948749.508   122329735.14106                                        43.000  

  23637694.064   126268316.33706  98208692.98146  23637691.984          43.000  
        28.000  
  23298773.508   124632704.86802                                        34.000  
                
  19901040.368   106419800.92205  82770956.55247  19901037.068          41.000  
        34.000  
  21729001.916   116276290.90506  90437108.80846  21728999.756          47.000  
        23.000  
 21 12 21 00 02 00.0000000  0 17G08G10G15G16G18G21G23G26G32R04R05R06
                                R10R12R19R20R21
  22227761.732   116807667.26006  91018972.35146  22227764.492          46.000  
        29.000  
  20669802.184   108620559.53107  84639401.34148  20669803.924          51.000  
        47.000  
  24457762.618   128526421.26405 100150464.92346  24457762.958          40.000  
        27.000  
  21787899.996   114496186.35006  89217805.42546  21787899.176          47.000  
        29.000  
  23207691.366   121957282.15406  95031656.88146  23207692.146          43.000  
        23.000  
  24079319.720   126537679.18505  98600795.32245  24079320.140          40.000  
        16.000  
  21273806.540   111794631.74006  87112703.32746  21273806.720          47.000  
        30.000  
  23790743.262   125021198.19704  97419114.91746  23790747.442          39.000  
        30.000  
  25014723.094   131453253.08803 102431105.94946  25014724.554          37.000  
        24.000  
  21667870.836   116030478.31607                                        48.000  

  20236110.168   108173620.72007  84135043.62247  20236107.168          50.000  
        34.000  
  23068261.588   123096660.23502                                        34.000  
                
  22970326.148   122444748.78506                                        43.000  

  23623978.484   126195048.64305  98151707.00546  23623976.304          41.000  
        26.000  
  23314814.328   124718510.02602                                        34.000  

  19903690.948   106433981.16304  82781985.63247  19903688.668          39.000  
        33.000  
  21714493.216   116198652.54706  90376723.39946  21714490.996          46.000  
        21.000  
 21 12 21 00 02 30.0000000  0 17G08G10G15G16G18G21G23G26G32R04R05R06
                                R10R12R19R20R21
  22212559.572   116727779.30506  90956722.00446  22212562.032          46.000  
        28.000  
  20666663.824   108604069.61307  84626552.05448  20666666.084          51.000  
        47.000  
  24467695.218   128578612.24305 100191133.20846  24467695.118          40.000  
        27.000  
  21801166.716   114565902.45206  89272129.67046  21801165.256          47.000  
        29.000  
  23223622.866   122041000.99605  95096892.32246  23223623.686          42.000  
        22.000  
  24065402.560   126464539.28605  98543803.16545  24065401.800          41.000  
        17.000  
  21284004.480   111848219.78106  87154460.25046  21284004.420          47.000  
        30.000  
  23810714.882   125126148.13604  97500894.07946  23810718.302          39.000  
        29.000  
  24996651.534   131358291.00304 102357109.53546  24996653.654          38.000  
        24.000  
  21681163.956   116101664.63806                                        47.000  
                
  20227202.928   108126003.34707  84098007.90447  20227199.588          51.000  
        35.000  
  23043040.388   122962078.58002                                        34.000  

  22991940.408   122559967.40806                                        43.000  

  23610375.924   126122384.05006  98095190.08446  23610372.444          43.000  
        23.000  
  23330874.808   124804428.05702                                        34.000  

  19906398.728   106448457.38505  82793244.90947  19906395.788          40.000  
        34.000  
  21700005.556   116121124.68806  90316417.97146  21700003.496          47.000  
        23.000  
 21 12 21 00 03 00.0000000  0 17G08G10G15G16G18G21G23G26G32R04R05R06
                                R10R12R19R20R21
  22197399.952   116648113.64006  90894644.87146  22197401.592          46.000  
        28.000  
  20663628.424   108588120.27607  84614124.00148  20663630.804          50.000  
        47.000  
  24477725.738   128631331.02704 100232212.81946  24477726.778          39.000  
        28.000  
  21814519.456   114636072.42807  89326807.56746  21814519.236          48.000  
        29.000  
  23239569.666   122124799.43406  95162189.81046  23239570.666          43.000  
        22.000  
  24051508.980   126391529.44905  98486912.47545  24051508.920          40.000  
        15.000  
  21294291.518   111902277.13506  87196582.87447  21294291.638          47.000  
        32.000  
  23830700.902   125231176.37605  97582734.28246  23830704.782          41.000  
        31.000  
  24978570.294   131263273.05405 102283069.57046  24978572.934          40.000  
        25.000  
  21694583.496   116173523.39706                                        47.000  

  20218440.668   108079163.36407  84061576.81047  20218437.468          51.000  
        35.000  
  23017840.808   122827605.16902                                        34.000  

  23013593.588   122675386.82105                                        42.000  
                
  23596887.164   126050325.65406  98039144.64546  23596883.064          44.000  
        25.000  
  23346955.688   124890459.80502                                        34.000  

  19909160.768   106463230.69004  82804735.27047  19909158.528          39.000  
        33.000  
  21685539.056   116043708.54106  90256206.43246  21685535.116          47.000  
        23.000  
 21 12 21 00 03 30.0000000  0 17G08G10G15G16G18G21G23G26G32R04R05R06
                                R10R12R19R20R21
  22182282.434   116568671.86006  90832742.19146  22182285.294          47.000  
        28.000  
  20660696.264   108572711.12207  84602116.87848  20660698.444          52.000  
        47.000  
  24487858.438   128684576.35704 100273702.67746  24487859.218          39.000  
        27.000  
  21827958.176   114706693.62306  89381837.06346  21827958.096          46.000  
        29.000  
  23255531.046   122208676.36906  95227548.41846  23255531.426          43.000  
        22.000  
  24037640.540   126318649.26704  98430122.73345  24037639.580          39.000  
        17.000  
  21304667.498   111956801.38907  87239069.30546  21304667.478          48.000  
        31.000  
  23850702.082   125336279.83105  97664633.05546  23850705.562          42.000  
        30.000  
  24960479.374   131168201.57705 102208987.86946  24960481.234          40.000  
        24.000  
  21708127.596   116246051.28506                                        47.000  

  20209824.068   108033102.51907  84025751.71547  20209821.008          51.000  
        35.000  
  22992661.528   122693243.42402                                        34.000  

  23035280.408   122791003.05605                                        42.000  

  23583510.884   125978876.27205  97983572.86046  23583507.884          42.000  
        25.000  
  23363061.108   124976604.03002                                        34.000  

  19911979.688   106478301.42504  82816456.94547  19911976.388          39.000  
        33.000  
  21671092.256   115966404.39806                                        46.000  

 21 12 21 00 04 00.0000000  0 17G08G10G15G16G18G21G23G26G32R04R05R06
                                R10R12R19R20R21
  22167208.154   116489456.10806  90771015.63746  22167210.394          46.000  
        28.000  
  20657867.204   108557842.23007  84590530.74148  20657869.104          51.000  
        47.000  
  24498091.118   128738346.40804 100315601.44246  24498091.058          39.000  
        26.000  
  21841481.736   114777763.36106  89437216.06846  21841482.376          46.000  
        29.000  
  23271506.726   122292631.11205  95292967.68846  23271507.346          41.000  
        21.000  
  24023796.460   126245898.76104  98373434.05145  24023796.140          39.000  
        17.000  
  21315131.178   112011790.50507  87281917.97447  21315131.698          48.000  
        32.000  
  23870715.582   125441456.04005  97746588.52846  23870719.802          41.000  
        31.000  
  24942378.254   131073079.38705 102134866.68446  24942380.274          40.000  
        25.000  
  21721795.596   116319245.34306  90470514.18346  21721792.336          47.000  
        22.000  
  20201353.308   107987823.21407  83990534.50147  20201350.428          51.000  
        35.000  
  22967502.308   122558997.78602                                        34.000  

  23057006.828   122906810.67706                                        43.000  
                
  23570249.924   125908038.88205  97928477.12746  23570246.684          42.000  
        26.000  
  23379184.748   125062860.94902                                        34.000  

  19914853.148   106493669.62605  82828410.01047  19914850.548          40.000  
        34.000  
  21656667.576   115889213.40006                                        47.000  

 21 12 21 00 04 30.0000000  0 17G08G10G15G16G18G21G23G26G32R04R05R06
                                R10R12R19R20R21
  22152177.334   116410468.20306  90709466.62546  22152180.014          47.000  
        29.000  
  20655140.184   108543513.40107  84579365.42648  20655142.224          51.000  
        47.000  
  24508421.298   128792639.23505 100357907.51746  24508422.378          40.000  
        27.000  
  21855091.076   114849279.85306  89492943.20746  21855091.676          46.000  
        28.000  
  23287497.386   122376662.82105  95358446.91346  23287498.066          41.000  
        22.000  
  24009977.440   126173278.12305  98316846.55345  24009976.100          40.000  
        16.000  
  21325683.638   112067242.21806  87325127.07646  21325683.778          47.000  
        31.000  
  23890744.302   125546702.08505  97828598.41346  23890747.262          41.000  
        28.000  
  24924267.134   130977909.04704 102060708.00246  24924269.794          39.000  
        25.000  
  21735587.916   116393101.84306                                        47.000  

  20193029.928   107943327.51307  83955926.76347  20193026.328          50.000  
        35.000  
  22942367.048   122424871.95602                                        35.000  

  23078766.408   123022805.65705                                        41.000  
                
  23557104.944   125837816.41306  97873859.72846  23557101.124          44.000  
        28.000  
  23395330.044   125149230.17802                                        34.000  

  19917781.988   106509335.80004  82840594.80247  19917780.468          39.000  
        33.000  
  21642263.016   115812136.18706  90076096.62346  21642260.916          47.000  
        23.000  
 21 12 21 00 05 00.0000000  0 17G08G10G15G16G18G21G23G26G32R04R05R06
                                R10R12R19R20R21
  22137190.554   116331710.37706  90648096.89646  22137192.714          47.000  
        28.000  
  20652516.464   108529724.74507  84568621.03348  20652518.584          52.000  
        47.000  
  24518853.178   128847453.47304 100400619.93246  24518852.558          39.000  
        27.000  
  21868785.156   114921240.58006  89549016.48046  21868785.056          45.000  
        29.000  
  23303502.506   122460770.87805  95423985.64846  23303503.566          41.000  
        23.000  
  23996182.620   126100787.50705  98260360.39045  23996182.060          40.000  
        16.000  
  21336323.098   112123154.56806  87368695.13346  21336323.118          47.000  
        31.000  
  23910783.702   125652015.53905  97910660.85146  23910787.042          40.000  
        29.000  
  24906148.054   130882693.47704 101986514.03746  24906151.094          39.000  
        26.000  
  21749503.596   116467617.69906                                        47.000  

  20184852.668   107899617.63307  83921930.21247  20184849.308          50.000  
        35.000  
  22917256.048   122290869.97602                                        35.000  

  23100560.548   123138983.09605                                        42.000  

  23544074.964   125768211.77006  97819722.74846  23544071.084          44.000  
        26.000  
  23411499.644   125235712.14902                                        34.000  

  19920767.468   106525300.54005  82853011.82047  19920765.828          40.000  
        33.000  
  21627881.596   115735173.83006  90016237.01946  21627879.116          47.000  
        22.000  
 21 12 21 00 05 30.0000000  0 17G08G10G15G16G18G21G23G26G32R04R05R06
                                R10R12R19R20R21
  22122246.614   116253184.29506  90586907.75246  22122249.814          46.000  
        29.000  
  20649995.524   108516476.03607  84558297.36648  20649997.364          52.000  
        47.000  
  24529383.138   128902786.92004 100443736.92746  24529383.318          38.000  
        26.000  
  21882562.496   114993642.47506  89605433.52946  21882562.316          46.000  
        28.000  
  23319522.346   122544954.50405  95489583.24746  23319523.546          42.000  
        22.000  
  23982413.102   126028426.85905  98203975.51245  23982412.462          40.000  
        15.000  
  21347050.258   112179525.25206  87412620.34746  21347049.958          47.000  
        30.000  
  23930836.962   125757393.55405  97992773.59646  23930840.562          40.000  
        30.000  
  24888020.574   130787435.26304 101912286.87246  24888023.834          38.000  
        25.000  
  21763540.636   116542789.55306                                        46.000  

  20176823.548   107856695.91507  83888546.66847  20176819.828          51.000  
        33.000  
  22892167.568   122156995.90802                                        35.000  

  23122390.348   123255339.13106                                        43.000  
                
  23531160.924   125699228.06406  97766068.74646  23531156.784          43.000  
        23.000  
  23427686.184   125322306.53302                                        34.000  

  19923809.988   106541564.20604  82865661.34047  19923806.888          39.000  
        32.000  
  21613520.656   115658327.09907  89956468.35046  21613516.856          48.000  
        22.000  
 21 12 21 00 06 00.0000000  0 17G08G10G15G16G18G21G23G26G32R04R05R06
                                R10R12R19R20R21
  22107348.874   116174891.81306  90525900.64346  22107351.454          46.000  
        29.000  
  20647576.604   108503767.17407  84548394.37148  20647579.064          52.000  
        47.000  
  24540010.638   128958638.42503 100487257.57246  24540011.318          36.000  
        26.000  
  21896423.614   115066483.49906  89662192.77246  21896422.734          46.000  
        28.000  
  23335555.966   122629212.98305  95555239.16646  23335557.146          41.000  
        22.000  
  23968667.742   125956196.32304  98147691.99845  23968667.982          39.000  
        16.000  
  21357863.458   112236352.23106  87456901.12446  21357863.818          46.000  
        30.000  
  23950901.542   125862833.51304  98074934.60146  23950905.142          39.000  
        29.000  
  24869886.696   130692137.23305 101838028.67146  24869889.776          40.000  
        28.000  
  21777700.696   116618614.13306                                        46.000  

  20168942.068   107814564.50607  83855777.80547  20168938.068          51.000  
        34.000  
  22867103.828   122023253.75802                                        35.000  

  23144250.828   123371869.24305                                        40.000  
                
  23518362.264   125630867.98605  97712899.83446  23518359.644          41.000  
        25.000  
  23443894.864   125409013.29602                                        35.000  

  19926907.268   106558127.00504  82878543.51347  19926904.368          39.000  
        33.000  
  21599182.236   115581597.00107  89896789.39746  21599178.936          48.000  
        24.000  
 21 12 21 00 06 30.0000000  0 17G08G10G15G16G18G21G23G26G32R04R05R06
                                R10R12R19R20R21
  22092495.254   116096835.19206  90465077.29646  22092497.294          47.000  
        28.000  
  20645260.824   108491597.89707  84538911.82148  20645263.424          52.000  
        47.000  
  24550737.278   129015005.92702 100531180.29846  24550738.098          35.000  
        25.000  
  21910368.634   115139760.78306  89719291.94446  21910367.394          47.000  
        29.000  
  23351604.026   122713545.41705  95620952.74646  23351604.526          42.000  
        22.000  
  23954947.142   125884096.03305  98091509.97045  23954946.762          40.000  
        16.000  
  21368764.218   112293633.11306  87501535.57646  21368763.678          47.000  
        30.000  
  23970978.122   125968332.62504  98157141.68346  23970980.322          39.000  
        29.000  
  24851745.136   130596801.91704 101763741.44446  24851747.796          39.000  
        28.000  
  21791981.316   116695088.12206                                        46.000  

  20161209.368   107773224.93007  83823624.79547  20161205.008          51.000  
        34.000  
  22842065.448   121889647.56702                                        35.000  

  23166142.288   123488568.46505                                        42.000  

  23505682.924   125563134.57005  97660218.30046  23505679.744          42.000  
        27.000  
  23460124.664   125495832.03102                                        34.000  

  19930060.968   106574989.45705  82891658.76647  19930057.508          40.000  
        32.000  
  21584864.160   115504984.07406  89837197.57846  21584861.860          47.000  
        24.000  
 21 12 21 00 07 00.0000000  0 17G08G10G15G16G18G21G23G26G32R04R05R06
                                R10R12R19R20R21
  22077687.114   116019016.47506  90404439.32946  22077689.174          46.000  
        30.000  
  20643048.004   108479968.14807  84529849.68648  20643050.284          52.000  
        47.000  
  24561561.118   129071887.40303 100575503.53746  24561561.878          37.000  
        26.000  
  21924394.754   115213471.77006  89776729.06146  21924394.594          47.000  
        29.000  
  23367666.426   122797951.19805  95686723.45246  23367666.366          42.000  
        22.000  
  23941252.082   125812125.98405  98035429.45845  23941252.082          40.000  
        16.000  
  21379750.298   112351365.83906  87546522.12246  21379750.438          47.000  
        30.000  
  23991063.480   126073888.28404  98239392.84846  23991067.240          39.000  
        29.000  
  24833596.376   130501432.14104 101689427.35346  24833599.396          39.000  
        27.000  
  21806383.376   116772207.99306                                        46.000  

  20153624.048   107732679.84907  83792089.73447  20153620.288          52.000  
        35.000  
  22817052.608   121756181.23401                                        33.000  
                
  23188067.228   123605432.72905                                        42.000  

  23493121.804   125496030.65806  97608026.36346  23493117.764          43.000  
        24.000  
  23476374.744   125582763.16601                                        33.000  
                
  19933269.328   106592152.18204  82905007.55647  19933267.448          39.000  
        33.000  
  21570569.660   115428489.52706  89777701.86146  21570567.320          47.000  
        23.000  
 21 12 21 00 07 30.0000000  0 17G08G10G15G16G18G21G23G26G32R04R05R06
                                R10R12R19R20R21
  22062923.874   115941437.16406  90343987.92846  22062926.114          47.000  
        29.000  
  20640937.604   108468877.74307  84521207.81548  20640939.704          51.000  
        47.000  
  24572482.238   129129281.05104 100620225.86246  24572483.878          38.000  
        25.000  
  21938503.734   115287614.09306  89834502.29446  21938503.294          46.000  
        28.000  
  23383741.426   122882429.60505  95752550.75046  23383742.366          41.000  
        22.000  
  23927581.642   125740286.29305  97979450.54045  23927581.002          41.000  
        19.000  
  21390822.158   112409548.27606  87591859.07946  21390822.458          47.000  
        31.000  
  24011160.920   126179497.90705  98321686.04446  24011164.380          40.000  
        29.000  
  24815443.256   130406030.71905 101615088.59946  24815445.196          41.000  
        29.000  
  21820904.636   116849970.70506                                        46.000  

  20146187.868   107692931.10307  83761174.05147  20146184.708          51.000  
        35.000  
  22792068.968   121622859.04002                                        35.000  
                
  23210020.568   123722457.49105                                        42.000  

  23480676.924   125429558.85206  97556326.10446  23480674.484          43.000  
        24.000  
  23492649.064   125669806.17402                                        34.000  
                
  19936534.628   106609615.22704  82918589.91447  19936533.148          39.000  
        33.000  
  21556297.460   115352114.18406  89718303.80046  21556294.860          47.000  
        23.000  
 21 12 21 00 08 00.0000000  0 17G08G10G15G16G18G21G23G26G32R04R05R06
                                R10R12R19R20R21
  22048206.954   115864099.59006  90283724.88346  22048209.234          46.000  
        29.000  
  20638929.504   108458326.48807  84512986.06948  20638931.964          52.000  
        47.000  
  24583501.956   129187185.45904 100665346.19646  24583502.576          38.000  
        25.000  
  21952694.334   115362185.48006  89892609.86146  21952694.034          47.000  
        28.000  
  23399831.164   122966979.98405  95818434.15946  23399832.024          42.000  
        22.000  
  23913935.822   125668576.97805  97923573.18245  23913935.642          41.000  
        18.000  
  21401979.098   112468178.17006  87637544.70746  21401979.578          47.000  
        31.000  
  24031267.640   126285158.80305  98404019.18746  24031270.920          40.000  
        28.000  
  24797282.456   130310600.35704 101540727.28946  24797285.136          39.000  
        29.000  
  21835546.356   116928372.31406                                        47.000  

  20138901.168   107653980.56807  83730879.20947  20138898.268          51.000  
        35.000  
  22767113.672   121489684.98901                                        33.000  
                
  23232002.708   123839638.08905                                        42.000  

  23468352.024   125363721.99305  97505119.68146  23468349.504          42.000  
        24.000  
  23508940.044   125756960.94001                                        33.000  
                
  19939857.708   106627379.72404  82932406.73547  19939855.528          38.000  
        33.000  
  21542047.380   115275858.73707  89658992.01246  21542044.940          48.000  
        25.000  
 21 12 21 00 08 30.0000000  0 17G08G10G15G16G18G21G23G26G32R04R05R06
                                R10R12R19R20R21
  22033536.654   115787005.49806  90223651.57546  22033539.194          46.000  
        29.000  
  20637024.684   108448314.00907  84505184.14948  20637026.724          52.000  
        47.000  
  24594618.256   129245598.40204 100710862.80846  24594618.076          38.000  
        26.000  
  21966965.794   115437182.95006  89951049.42446  21966965.574          46.000  
        29.000  
  23415934.604   123051601.36005  95884372.89846  23415934.864          42.000  
        22.000  
  23900314.222   125596997.81704  97867797.22845  23900314.562          39.000  
        17.000  
  21413220.638   112527253.16106  87683577.17047  21413221.278          47.000  
        32.000  
  24051382.900   126390868.09505  98486390.08146  24051386.420          40.000  
        28.000  
  24779117.536   130215143.66805 101466345.46946  24779120.756          40.000  
        29.000  
  21850305.876   117007409.46807                                        48.000  
                
  20131764.088   107615829.71607  83701206.35547  20131761.488          50.000  
        35.000  
  22742183.812   121356662.87302                                        34.000  
                
  23254013.728   123956970.33105                                        41.000  

  23456147.564   125298522.75306  97454409.10946  23456143.724          43.000  
        22.000  
  23525252.764   125844227.31202                                        34.000  
                
  19943234.428   106645445.32204  82946457.75447  19943233.828          39.000  
        32.000  
  21527819.440   115199724.43006                                        47.000  
                
 21 12 21 00 09 00.0000000  0 17G08G10G15G16G18G21G23G26G32R04R05R06
                                R10R12R19R20R21
  22018912.394   115710157.09106  90163769.69846  22018914.354          47.000  
        29.000  
  20635221.464   108438840.22507  84497801.98448  20635223.904          52.000  
        47.000  
  24605830.476   129304518.12304 100756774.28046  24605829.956          38.000  
        24.000  
  21981317.614   115512603.99406  90009819.06846  21981317.574          45.000  
        28.000  
  23432050.684   123136293.34005  95950366.59246  23432051.344          42.000  
        21.000  
  23886718.962   125525549.39004  97812123.21645  23886717.902          39.000  
        18.000  
  21424546.278   112586771.26506  87729954.91746  21424547.298          47.000  
        30.000  
  24071507.680   126496623.37205  98568796.79246  24071510.920          40.000  
        28.000  
  24760948.156   130119663.67204 101391945.47546  24760951.256          39.000  
        28.000  
  21865183.436   117087078.76906                                        46.000  
                
  20124776.948   107578480.84307  83672157.24747  20124774.228          50.000  
        35.000  
  22717285.132   121223797.00601                                        33.000  
                
  23276052.728   124074449.07305                                        41.000  

  23444061.444   125233964.04706  97404196.81046  23444058.624          44.000  
        27.000  
  23541589.504   125931605.22301                                        33.000  
                
  19946671.408   106663812.90704  82960743.64547  19946668.108          39.000  
        32.000  
  21513614.780   115123712.04806  89540654.71746  21513612.500          47.000  
        23.000  
 21 12 21 00 09 30.0000000  0 17G08G10G15G16G18G21G23G26G32R04R05R06
                                R10R12R19R20R21
  22004336.114   115633556.41006  90104080.85946  22004338.834          46.000  
        30.000  
  20633521.144   108429904.69207  84490839.23948  20633523.604          51.000  
        48.000  
  24617138.696   129363942.64704 100803079.10746  24617137.996          38.000  
        23.000  
  21995749.794   115588446.13706  90068916.84246  21995749.374          46.000  
        28.000  
  23448180.144   123221054.93405  96016414.56845  23448180.724          41.000  
        20.000  
  23873146.522   125454231.35705  97756550.73645  23873146.342          40.000  
        18.000  
  21435956.178   112646730.00806  87776676.01446  21435956.358          47.000  
        30.000  
  24091639.740   126602421.77105  98651237.08946  24091644.600          40.000  
        30.000  
  24742775.516   130024162.76504 101317529.18746  24742777.656          39.000  
        29.000  
  21880178.436   117167376.78706                                        47.000  

  20117941.108   107541935.48807  83643733.11747  20117937.228          51.000  
        34.000  
  22692417.752   121091091.18002                                        34.000  
                
  23298117.588   124192070.78305                                        41.000  

  23432097.284   125170048.47605  97354484.74546  23432093.604          42.000  
        29.000  
  23557943.404   126019094.75001                                        33.000  

  19950162.608   106682482.92304  82975264.77847  19950159.148          39.000  
        32.000  
  21499432.940   115047822.28007  89481629.36946  21499430.080          48.000  
        22.000  
 21 12 21 00 10 00.0000000  0 17G08G10G15G16G18G21G23G26G32R04R05R06
                                R10R12R19R20R21
  21989806.774   115557205.54006  90044586.67446  21989809.054          46.000  
        28.000  
  20631922.944   108421507.15007  84484295.70648  20631925.644          51.000  
        48.000  
  24628542.196   129423870.05203 100849775.80046  24628542.056          36.000  
        23.000  
  22010261.994   115664706.79406  90128340.69846  22010261.874          46.000  
        28.000  
  23464322.924   123305885.56105  96082516.35746  23464323.784          40.000  
        21.000  
  23859600.202   125383043.70905  97701079.88345  23859599.882          40.000  
        17.000  
  21447449.158   112707127.24006  87823738.79346  21447449.598          46.000  
        30.000  
  24111781.740   126708260.65005  98733708.92046  24111784.840          41.000  
        29.000  
  24724598.196   129928643.89203 101243098.91246  24724601.196          37.000  
        28.000  
  21895289.696   117248299.98806                                        47.000  

  20111255.408   107506195.67807  83615935.49147  20111251.488          51.000  
        34.000  
  22667580.452   120958549.62002                                        34.000  

  23320210.148   124309830.67805                                        41.000  

  23420251.564   125106778.69606  97305274.96346  23420249.024          43.000  
        28.000  
  23574317.084   126106695.34800                                        31.000  
                
  19953708.868   106701455.33104  82990021.10047  19953707.908          39.000  
        32.000  
  21485275.260   114972056.24607  89422700.21746  21485271.140          48.000  
        24.000  
 21 12 21 00 10 30.0000000  0 17G08G10G15G16G18G21G23G26G32R04R05R06
                                R10R12R19R20R21
  21975325.514   115481105.99206  89985288.32546  21975327.894          47.000  
        29.000  
  20630427.604   108413647.49907  84478171.30748  20630429.884          52.000  
        48.000  
  24640040.336   129484298.65403 100896863.03446  24640040.856          37.000  
        22.000  
  22024852.754   115741382.77006  90188088.20546  22024852.034          45.000  
        29.000  
  23480479.204   123390784.65805  96148671.45545  23480479.404          40.000  
        19.000  
  23846078.562   125311987.03504  97645711.10145  23846078.202          39.000  
        18.000  
  21459025.798   112767960.89106  87871141.65146  21459025.878          47.000  
        30.000  
  24131928.480   126814137.58305  98816210.46946  24131931.840          40.000  
        29.000  
  24706419.836   129833109.98804 101168656.91746  24706421.376          38.000  
        27.000  
  21910517.756   117329844.92606                                        46.000  

  20104720.928   107471263.13107  83588765.73247  20104716.568          51.000  
        33.000  
  22642773.692   120826176.58502                                        34.000  

  23342326.028   124427724.47605                                        42.000  

  23408529.004   125044157.46106  97256569.57546  23408526.024          44.000  
        23.000  
  23590716.744   126194407.63701                                        33.000  
                
  19957314.348   106720731.07804  83005013.34847  19957312.708          38.000  
        32.000  
  21471137.920   114896415.20506  89363868.31746  21471136.520          46.000  
        24.000  
 21 12 21 00 11 00.0000000  0 17G08G10G15G16G18G21G23G26G32R04R05R06
                                R10R12R19R20R21
  21960893.154   115405260.08606  89926187.62146  21960895.114          46.000  
        28.000  
  20629034.624   108406325.18507  84472465.62048  20629036.384          52.000  
        48.000  
  24651634.456   129545226.35703 100944339.18846  24651634.996          36.000  
        22.000  
  22039522.494   115818472.33806  90248157.99946  22039522.454          46.000  
        28.000  
  23496647.084   123475751.41305  96214879.31245  23496647.564          40.000  
        20.000  
  23832582.002   125241060.83805  97590443.93545  23832581.962          40.000  
        18.000  
  21470684.538   112829228.41406  87918882.58746  21470684.538          46.000  
        30.000  
  24152083.020   126920049.74605  98898739.38246  24152087.580          40.000  
        29.000  
  24688237.576   129737563.61103 101094205.21946  24688239.676          37.000  
        27.000  
  21925861.616   117412007.89206                                        46.000  

  20098337.268   107437139.26907  83562224.95547  20098332.688          51.000  
        34.000  
  22617997.572   120693975.93302                                        34.000  

  23364468.488   124545747.50605                                        42.000  

  23396928.824   124982187.43606  97208370.61146  23396924.944          43.000  
        24.000  
  23607133.124   126282230.78500                                        30.000  
                
  19960974.988   106740310.49404  83020241.75147  19960973.648          38.000  
        32.000  
  21457027.040   114820899.62306  89305133.96746  21457024.620          47.000  
        23.000  
 21 12 21 00 11 30.0000000  0 17G08G10G15G16G18G21G23G26G32R04R05R06
                                R10R12R19R20R21
  21946508.334   115329670.14006  89867286.35946  21946510.554          47.000  
        30.000  
  20627742.904   108399539.93307  84467178.41148  20627745.264          51.000  
        48.000  
  24663323.136   129606651.18502 100992202.70246  24663323.316          34.000  
        21.000  
  22054270.274   115895972.73906  90308547.89546  22054270.074          46.000  
        28.000  
  23512828.724   123560785.10204  96281139.31646  23512829.104          39.000  
        21.000  
  23819109.402   125170265.23905  97535278.56245  23819109.462          40.000  
        16.000  
  21482424.978   112890927.69106  87966959.94746  21482425.618          47.000  
        30.000  
  24172243.020   127025994.42205  98981293.67746  24172246.960          40.000  
        29.000  
  24670053.476   129642007.62804 101019746.04246  24670056.236          39.000  
        28.000  
  21941319.416   117494785.20106                                        46.000  

  20092104.908   107403825.86907  83536314.52647  20092100.488          51.000  
        34.000  
  22593255.932   120561951.58902                                        35.000  

  23386632.584   124663895.78705                                        42.000  

  23385448.724   124920870.97605  97160680.06446  23385446.364          42.000  
        25.000  
  23623570.664   126370164.96400                                        32.000  

  19964694.948   106760194.00105  83035706.71347  19964692.068          40.000  
        33.000  
  21442939.740   114745510.85707  89246498.27446  21442936.040          48.000  
        22.000  
 21 12 21 00 12 00.0000000  0 17G08G10G15G16G18G21G23G26G32R04R05R06
                                R10R12R19R20R21
  21932173.154   115254337.82406  89808585.85146  21932175.854          46.000  
        29.000  
  20626554.204   108393291.49907  84462309.51148  20626556.064          52.000  
        48.000  
  24675105.816   129668571.30902 101040452.17246  24675106.316          34.000  
        21.000  
  22069095.694   115973881.24106  90369255.82146  22069095.694          45.000  
        29.000  
  23529022.304   123645885.28905  96347451.11445  23529023.804          40.000  
        20.000  
  23805663.142   125099600.45405  97480215.10745  23805661.722          41.000  
        17.000  
  21494248.138   112953056.61706  88015372.07946  21494248.498          46.000  
        29.000  
  24192410.260   127131969.26705  99063871.45846  24192413.620          41.000  
        27.000  
  24651868.496   129546444.95305 100945281.63246  24651871.056          40.000  
        28.000  
  21956891.936   117578173.62206                                        46.000  

  20086024.048   107371324.77307  83511035.91147  20086021.088          50.000  
        35.000  
  22568549.372   120430107.92802                                        34.000  

  23408819.764   124782164.10805                                        42.000  

  23374092.868   124860210.98505  97113500.05846  23374090.508          41.000  
        25.000  
  23640032.524   126458210.20800                                        32.000  

  19968468.648   106780382.12004  83051408.59847  19968466.948          39.000  
        32.000  
  21428873.880   114670249.73807  89187961.85746  21428871.720          49.000  
        24.000  
 21 12 21 00 12 30.0000000  0 17G08G10G15G16G18G21G23G26G32R04R05R06
                                R10R12R19R20R21
  21917886.914   115179264.86606  89750087.45646  21917889.674          47.000  
        28.000  
  20625467.164   108387579.42207  84457858.54248  20625468.944          52.000  
        48.000  
  24686983.096   129730971.50802 101089068.84546  24686984.336          35.000  
        21.000  
  22083998.194   116052194.77706  90430279.33146  22083997.994          46.000  
        28.000  
  23545229.144   123731051.10005  96413814.09445  23545229.784          41.000  
        19.000  
  23792239.902   125029066.65305  97425253.79245  23792240.022          40.000  
        18.000  
  21506152.118   113015612.72006  88064117.08646  21506152.378          47.000  
        30.000  
  24212580.920   127237971.46004  99146470.57346  24212585.140          39.000  
        26.000  
  24633682.736   129450878.34905 100870814.15046  24633685.216          41.000  
        29.000  
  21972577.636   117662169.25506                                        46.000  

  20080096.528   107339637.25307  83486390.07747  20080093.608          50.000  
        35.000  
  22543877.612   120298448.98503                                        36.000  
                
  23431026.564   124900548.94705                                        41.000  

  23362861.668   124800209.75306  97066832.42946  23362858.448          43.000  
        26.000  
  23656512.384   126546366.14100                                        30.000  

  19972301.488   106800875.34804  83067347.75147  19972299.108          39.000  
        32.000  
  21414833.820   114595117.28807  89129525.52446  21414831.880          49.000  
        24.000  
 21 12 21 00 13 00.0000000  0 17G08G10G15G16G18G21G23G26G32R04R05R06
                                R10R12R19R20R21
  21903650.994   115104453.98406  89691793.28746  21903653.694          47.000  
        28.000  
  20624482.104   108382403.25207  84453825.17548  20624484.024          52.000  
        48.000  
  24698953.196   129793875.88001 101138085.26146  24698953.756          33.000  
        21.000  
  22098977.094   116130910.57106  90491616.31746  22098977.554          46.000  
        28.000  
  23561448.164   123816281.87405  96480227.66445  23561448.644          41.000  
        20.000  
  23778843.322   124958663.79705  97370394.37545  23778843.562          40.000  
        16.000  
  21518137.058   113078593.78106  88113193.24546  21518136.938          47.000  
        29.000  
  24232757.860   127343998.39005  99229088.94846  24232761.080          40.000  
        27.000  
  24615496.076   129355310.50804 100796345.69746  24615499.496          39.000  
        28.000  
  21988376.376   117746768.57906                                        46.000  

  20074321.588   107308764.83407  83462378.22247  20074318.168          50.000  
        36.000  
  22519237.152   120166978.71002                                        34.000  
                
  23453257.304   125019045.52805                                        42.000  

  23351753.148   124740869.97406  97020679.27846  23351750.028          44.000  
        26.000  
  23673010.904   126634632.67100                                        31.000  

  19976191.328   106821673.87004  83083524.38147  19976188.768          38.000  
        33.000  
  21400818.240   114520114.60606  89071190.08546  21400815.240          47.000  
        22.000  
 21 12 21 00 13 30.0000000  0 17G08G10G15G16G18G21G23G26G32R04R05R06
                                R10R12R19R20R21
  21889464.934   115029906.59706  89633704.40846  21889467.574          47.000  
        28.000  
  20623598.784   108377762.67207  84450209.14948  20623600.904          52.000  
        48.000  
  24711017.116   129857269.48603 101187482.83746  24711017.956          36.000  
        23.000  
  22114032.834   116210026.58306  90553265.13946  22114032.794          46.000  
        29.000  
  23577678.844   123901577.04805  96546691.38945  23577679.824          40.000  
        20.000  
  23765470.222   124888392.02305  97315637.22045  23765471.102          40.000  
        18.000  
  21530202.438   113141997.54207  88162598.79046  21530201.718          48.000  
        30.000  
  24252938.440   127450047.45005  99311724.62646  24252941.640          40.000  
        28.000  
  24597311.436   129259744.32704 100721878.56346  24597313.816          39.000  
        27.000  
  22004285.976   117831968.17106                                        46.000  

  20068698.268   107278709.17007  83439001.61347  20068695.588          50.000  
        35.000  
  22494637.492   120035701.28603                                        36.000  
                
  23475506.624   125137649.53305                                        42.000  

  23340768.828   124682193.93805  96975042.35146  23340765.668          42.000  
        22.000  
  23689532.424   126723009.71500                                        32.000  

  19980138.048   106842778.57104  83099939.14247  19980135.888          38.000  
        32.000  
  21386827.180   114445242.55707  89012956.26746  21386823.740          48.000  
        23.000  
 21 12 21 00 14 00.0000000  0 17G08G10G15G16G18G21G23G26G32R04R05R06
                                R10R12R19R20R21
  21875329.856   114955624.92306  89575822.60346  21875332.396          46.000  
        29.000  
  20622817.484   108373657.04707  84447009.96748  20622819.904          51.000  
        48.000  
  24723174.556   129921149.99102 101237259.91146  24723174.296          34.000  
        22.000  
  22129163.454   116289539.89706  90615223.56046  22129163.694          46.000  
        28.000  
  23593922.384   123986935.80805  96613204.73145  23593923.284          41.000  
        20.000  
  23752124.282   124818251.18405  97260982.01845  23752123.162          41.000  
        18.000  
  21542347.858   113205821.55606  88212331.79646  21542347.518          46.000  
        30.000  
  24273122.180   127556115.95004  99394375.38946  24273125.280          39.000  
        26.000  
  24579126.078   129164182.47704 100647414.79046  24579128.618          39.000  
        27.000  
  22020308.656   117917764.07306                                        46.000  

  20063229.308   107249471.50207  83416261.22147  20063226.048          51.000  
        35.000  
  22470073.292   119904620.71402                                        34.000  
                
  23497777.044   125256356.51905                                        41.000  

  23329909.568   124624184.22206  96929923.69346  23329906.308          43.000  
        27.000  
  23706076.004   126811496.88100                                        31.000  

  19984142.148   106864189.55304  83116592.12047  19984139.748          39.000  
        32.000  
  21372859.760   114370502.02407  88954824.76046  21372857.200          48.000  
        25.000  
 21 12 21 00 14 30.0000000  0 17G08G10G15G16G18G21G23G26G32R04R05R06
                                R10R12R19R20R21
  21861244.996   114881611.15906  89518149.56046  21861247.956          46.000  
        28.000  
  20622137.864   108370086.14007  84444227.44248  20622140.484          51.000  
        48.000  
  24735421.176   129985516.06702 101287415.25245  24735422.376          34.000  
        19.000  
  22144370.034   116369448.04206  90677489.63746  22144369.534          46.000  
        28.000  
  23610177.524   124072357.72604  96679767.17645  23610178.684          39.000  
        20.000  
  23738800.782   124748241.46805  97206429.04245  23738801.322          41.000  
        17.000  
  21554572.578   113270063.72806  88262390.61946  21554572.778          46.000  
        30.000  
  24293310.918   127662201.38205  99477039.33846  24293314.078          41.000  
        28.000  
  24560942.998   129068628.00705 100572956.76046  24560945.078          40.000  
        28.000  
  22036440.176   118004152.82506                                        46.000  

  20057913.548   107221053.39007  83394158.25847  20057909.668          51.000  
        35.000  
  22445547.572   119773741.39703                                        36.000  
                
  23520063.764   125375162.15505                                        41.000  

  23319174.788   124566843.46706  96885325.36846  23319172.288          44.000  
        26.000  
  23722638.744   126900094.40601                                        33.000  
                
  19988203.528   106885907.16205  83133483.61047  19988201.828          40.000  
        33.000  
  21358917.540   114295894.62407  88896796.76446  21358914.200          48.000  
        23.000  
 21 12 21 00 15 00.0000000  0 17G08G10G15G16G18G21G23G26G32R04R05R06
                                R10R12R19R20R21
  21847212.836   114807866.35106  89460686.07746  21847214.416          47.000  
        29.000  
  20621559.944   108367049.01007  84441860.85848  20621562.484          52.000  
        48.000  
  24747762.236   130050364.48203 101337946.58146  24747762.656          36.000  
        21.000  
  22159650.134   116449747.51206  90740060.62346  22159650.194          46.000  
        27.000  
  23626445.084   124157841.68804  96746378.03745  23626445.364          39.000  
        20.000  
  23725503.722   124678362.41505  97151977.79945  23725503.102          41.000  
        17.000  
  21566876.278   113334721.33506  88312773.15446  21566876.878          46.000  
        28.000  
  24313499.718   127768300.74005  99559714.12146  24313503.318          40.000  
        27.000  
  24542761.478   128973083.27205 100498506.31146  24542763.778          40.000  
        28.000  
  22052683.316   118091130.31606                                        46.000  

  20052750.648   107193455.47407  83372693.22647  20052746.748          51.000  
        34.000  
  22421058.272   119643066.79702                                        35.000  
                
  23542368.064   125494061.68705                                        41.000  

  23308565.708   124510173.41306  96841248.60146  23308562.608          43.000  
        24.000  
  23739220.424   126988801.69100                                        31.000  
                
  19992322.368   106907931.82804  83150613.89547  19992319.528          39.000  
        32.000  
  21345000.280   114221420.62707  88838872.57546  21344997.480          48.000  
        23.000  
 21 12 21 00 15 30.0000000  0 17G08G10G15G16G18G21G23G26G32R04R05R06
                                R10R12R19R20R21
  21833230.456   114734393.65006  89403434.61446  21833232.756          46.000  
        28.000  
  20621083.804   108364545.58007  84439910.13248  20621085.944          51.000  
        48.000  
  24760194.216   130115693.93402 101388852.59146  24760194.336          35.000  
        22.000  
  22175004.974   116530436.10606  90802934.84346  22175004.794          46.000  
        28.000  
  23642723.784   124243387.47704  96813037.03945  23642724.404          39.000  
        20.000  
  23712231.082   124608614.59405  97097628.96745  23712231.162          41.000  
        17.000  
  21579259.538   113399792.41606  88363477.87846  21579259.538          47.000  
        31.000  
  24333691.898   127874411.77705  99642398.05846  24333694.978          40.000  
        27.000  
  24524582.618   128877551.48105 100424065.95446  24524584.698          40.000  
        29.000  
  22069033.796   118178693.10606                                        45.000  

  20047742.108   107166679.93907  83351867.81947  20047738.108          51.000  
        34.000  
  22396608.372   119512601.34602                                        35.000  

  23564690.884   125613051.04105                                        41.000  

  23298083.168   124454176.80706  96797695.68346  23298079.948          43.000  
        26.000  
  23755823.604   127077619.34601                                        33.000  
                
  19996496.988   106930264.14504  83167983.46847  19996495.488          38.000  
        32.000  
  21331108.600   114147081.44507  88781053.22046  21331105.200          49.000  
        23.000  
 21 12 21 00 16 00.0000000  0 17G08G10G15G16G18G21G23G26G32R04R05R06
                                R10R12R19R20R21
  21819301.516   114661194.80806  89346396.56146  21819303.776          46.000  
        29.000  
  20620708.524   108362575.27507  84438374.83448  20620710.924          50.000  
        48.000  
  24772717.276   130181502.49902 101440132.00845  24772717.316          34.000  
        20.000  
  22190432.512   116611510.91706  90866110.02246  22190432.412          46.000  
        28.000  
  23659014.624   124328994.43004  96879743.75545  23659015.244          39.000  
        19.000  
  23698983.222   124538997.80004  97043382.10245  23698983.042          39.000  
        18.000  
  21591720.696   113465274.58307  88414502.95146  21591719.736          48.000  
        30.000  
  24353885.898   127980531.87704  99725089.04746  24353890.238          39.000  
        26.000  
  24506405.918   128782035.42804 100349637.90146  24506408.798          38.000  
        29.000  
  22085493.476   118266837.68606                                        45.000  

  20042886.468   107140727.66807  83331682.73047  20042882.428          51.000  
        34.000  
  22372200.292   119382349.21303                                        36.000  
                
  23587029.204   125732126.30005                                        41.000  

  23287728.208   124398856.10406  96754668.49346  23287724.328          44.000  
        29.000  
  23772447.564   127166546.59500                                        32.000  
                
  20000733.828   106952904.89105  83185592.93647  20000729.968          40.000  
        32.000  
  21317240.760   114072878.21006  88723339.56846  21317238.160          47.000  
        23.000  
 21 12 21 00 16 30.0000000  0 17G08G10G15G16G18G21G23G26G32R04R05R06
                                R10R12R19R20R21
  21805423.696   114588271.96806  89289573.55946  21805427.056          45.000  
        29.000  
  20620435.324   108361137.64707  84437254.61748  20620437.264          52.000  
        48.000  
  24785330.616   130247787.88001 101491782.96245  24785330.636          33.000  
        20.000  
  22205933.832   116692969.91306  90929584.53346  22205933.692          45.000  
        27.000  
  23675315.944   124414661.95005  96946497.65145  23675317.204          40.000  
        19.000  
  23685761.462   124469512.28705  96989237.60145  23685760.442          41.000  
        19.000  
  21604258.716   113531165.67306  88465846.68046  21604258.596          47.000  
        29.000  
  24374080.658   128086658.46904  99807785.07346  24374085.278          38.000  
        26.000  
  24488233.678   128686538.07804 100275224.39246  24488235.578          39.000  
        29.000  
  22102062.916   118355560.22806                                        46.000  

  20038185.548   107115600.04807  83312139.02147  20038182.068          50.000  
        35.000  
  22347829.772   119252314.67803                                        36.000  

  23609382.124   125851283.00905                                        42.000  

  23277498.688   124344213.69006  96712168.85646  23277495.228          44.000  
        29.000  
  23789090.984   127255583.41502                                        34.000  
                
  20005024.648   106975854.24205  83203442.43247  20005022.008          40.000  
        33.000  
  21303400.860   113998811.94007  88665732.49646  21303397.860          49.000  
        25.000  
 21 12 21 00 17 00.0000000  0 17G08G10G15G16G18G21G23G26G32R04R05R06
                                R10R12R19R20R21
  21791600.716   114515626.83106  89232966.97946  21791602.816          47.000  
        29.000  
  20620262.844   108360231.92108  84436548.86648  20620264.924          53.000  
        48.000  
  24798034.016   130314547.31702 101543803.33546  24798034.616          35.000  
        21.000  
  22221507.532   116774809.84606  90993355.90846  22221507.352          46.000  
        28.000  
  23691629.502   124500389.30704  97013298.14345  23691630.522          39.000  
        18.000  
  23672562.864   124400158.00005  96935195.35145  23672563.284          40.000  
        16.000  
  21616874.896   113597463.11406  88517507.03046  21616874.636          47.000  
        30.000  
  24394276.678   128192788.87304  99890484.10146  24394280.478          38.000  
        25.000  
  24470065.238   128591062.05805 100200827.50646  24470068.018          40.000  
        30.000  
  22118739.656   118444856.79506                                        45.000  

  20033639.408   107091298.10507  83293237.52247  20033636.208          50.000  
        35.000  
  22323504.792   119122501.56903                                        36.000  

  23631750.164   125970516.36705                                        42.000  

  23267396.288   124290251.52806  96670198.28146  23267393.368          43.000  
        29.000  
  23805756.464   127344729.83100                                        32.000  
                
  20009371.888   106999112.92304  83221532.52547  20009371.728          39.000  
        33.000  
  21289585.020   113924883.78707  88608232.82546  21289582.360          48.000  
        23.000  
 21 12 21 00 17 30.0000000  0 17G08G10G15G16G18G21G23G26G32R04R05R06
                                R10R12R19R20R21
  21777829.696   114443261.40106  89176578.34346  21777832.756          46.000  
        29.000  
  20620191.644   108359857.63407  84436257.21448  20620193.604          52.000  
        48.000  
  24810828.456   130381778.82201 101596191.50345  24810828.036          33.000  
        20.000  
  22237152.852   116857027.96406  91057421.95546  22237153.112          45.000  
        27.000  
  23707954.782   124586175.85805  97080144.78245  23707954.882          40.000  
        18.000  
  23659390.064   124330934.83405  96881255.22245  23659389.884          40.000  
        18.000  
  21629567.636   113664164.69306  88569482.28446  21629567.876          47.000  
        30.000  
  24414472.518   128298920.47603  99973184.04146  24414476.918          37.000  
        25.000  
  24451901.478   128495610.36605 100126449.56046  24451903.638          41.000  
        29.000  
  22135520.456   118534723.73106                                        45.000  

  20029247.528   107067822.92707  83274979.06747  20029244.628          51.000  
        35.000  
  22299218.972   118992913.96203                                        36.000  

  23654132.664   126089822.01004                                        39.000  
                
  23257421.528   124236972.18905  96628758.84546  23257419.488          42.000  
        28.000  
  23822443.844   127433985.39301                                        33.000  
                
  20013779.928   107022680.77704  83239863.05147  20013778.728          38.000  
        34.000  
  21275795.060   113851094.73807  88550841.35346  21275792.460          49.000  
        22.000  
 21 12 21 00 18 00.0000000  0 16G08G10G16G18G21G23G26G32R04R05R06R10
                                R12R19R20R21
  21764112.656   114371178.17106  89120409.58446  21764115.136          46.000  
        29.000  
  20620221.064   108360014.14407  84436379.17948  20620223.644          52.000  
        48.000  
  22252870.892   116939621.66906  91121780.68446  22252870.372          46.000  
        27.000  
  23724289.882   124672021.01404  97147037.08745  23724290.602          39.000  
        19.000  
  23646242.744   124261842.97304  96827417.44745  23646242.084          39.000  
        18.000  
  21642336.856   113731267.98806  88621770.54646  21642337.576          47.000  
        29.000  
  24434669.838   128405050.72904 100055882.92746  24434672.858          39.000  
        28.000  
  24433742.318   128400185.66905 100052092.67846  24433745.058          41.000  
        30.000  
  22152409.096   118625157.22406                                        46.000  

  20025011.388   107045175.50107  83257364.42747  20025007.928          50.000  
        35.000  
  22274978.612   118863556.15303                                        36.000  

  23676524.144   126209196.27904                                        39.000  

  23247575.848   124184377.41706  96587851.77846  23247573.428          43.000  
        27.000  
  23839146.324   127523350.34201                                        33.000  

  20018245.528   107046558.77704  83258434.81747  20018243.368          39.000  
        32.000  
  21262032.440   113777445.96607  88493558.99646  21262030.320          49.000  
        23.000  
 21 12 21 00 18 30.0000000  0 17G08G10G15G16G18G21G23G26G32R04R05R06
                                R10R12R19R20R21
  21750450.516   114299378.81606  89064462.05946  21750452.916          46.000  
        31.000  
  20620352.024   108360700.88007  84436914.30248  20620354.204          52.000  
        48.000  
  24836683.436   130517652.75101 101702066.76145  24836683.196          33.000  
        18.000  
  22268658.152   117022588.08506  91186429.85046  22268658.132          46.000  
        27.000  
  23740637.522   124757924.22005  97213974.61745  23740637.622          41.000  
        20.000  
  23633120.504   124192882.44005  96773682.02045  23633119.564          41.000  
        18.000  
  21655182.216   113798770.68507  88674370.05146  21655182.696          48.000  
        30.000  
  24454865.338   128511177.01105 100138578.71946  24454867.998          40.000  
        26.000  
  24415589.358   128304790.97605  99977759.14946  24415591.758          41.000  
        29.000  
  22169401.636   118716153.45406                                        46.000  

  20020928.968   107023357.00207  83240394.49847  20020926.648          51.000  
        35.000  
  22250779.532   118734432.26103                                        36.000  

  23698931.924   126328634.38705                                        41.000  
                
  23237859.648   124132469.71306  96547479.34846  23237855.808          43.000  
        28.000  
  23855874.664   127612824.69701                                        33.000  

  20022769.428   107070747.18605  83277248.03847  20022766.748          40.000  
        33.000  
  21248296.560   113703938.67907  88436386.67846  21248293.500          48.000  
        22.000  
 21 12 21 00 19 00.0000000  0 17G08G10G15G16G18G21G23G26G32R04R05R06
                                R10R12R19R20R21
  21736841.156   114227865.65506  89008737.50846  21736843.956          45.000  
        30.000  
  20620583.624   108361917.20007  84437862.08148  20620585.704          50.000  
        48.000  
  24849744.816   130586288.55402 101755549.20145  24849744.256          34.000  
        19.000  
  22284516.352   117105924.41606  91251367.21146  22284516.392          46.000  
        27.000  
  23756994.462   124843884.82105  97280956.86245  23756995.862          40.000  
        20.000  
  23620022.024   124124053.62505  96720049.16945  23620021.664          41.000  
        18.000  
  21668103.356   113866670.40906  88727278.93846  21668103.856          47.000  
        30.000  
  24475058.478   128617296.77404 100221269.47046  24475062.138          38.000  
        25.000  
  24397443.418   128209429.14005  99903451.24746  24397445.918          42.000  
        30.000  
  22186499.352   118807708.62506                                        46.000  

  20017003.508   107002368.44807  83224070.08247  20017000.088          51.000  
        36.000  
  22226626.952   118605546.17103                                        37.000  

  23721349.484   126448132.55305                                        41.000  

  23228270.108   124081251.20306  96507642.74846  23228267.848          43.000  
        27.000  
  23872620.724   127702407.62902                                        34.000  
                
  20027350.748   107095246.83605  83296303.34247  20027348.768          40.000  
        33.000  
  21234586.160   113630573.83107  88379324.12646  21234583.780          49.000  
        24.000  
 21 12 21 00 19 30.0000000  0 17G08G10G15G16G18G21G23G26G32R04R05R06
                                R10R12R19R20R21
  21723288.076   114156640.41306  88953237.32346  21723290.856          46.000  
        31.000  
  20620916.084   108363662.42907  84439222.00848  20620917.724          52.000  
        48.000  
  24862894.896   130655387.98202 101809392.96345  24862893.396          34.000  
        18.000  
  22300444.572   117189627.71106  91316590.54446  22300444.712          46.000  
        26.000  
  23773363.442   124929902.20505  97347983.36345  23773364.122          40.000  
        20.000  
  23606949.204   124055356.30505  96666518.81045  23606948.764          41.000  
        19.000  
  21681099.116   113934964.83206  88780495.37146  21681099.596          47.000  
        30.000  
  24495250.938   128723407.43304 100303953.05146  24495254.878          38.000  
        27.000  
  24379302.738   128114102.93605  99829171.08646  24379305.138          41.000  
        29.000  
  22203699.452   118899818.85606                                        47.000  

  20013232.768   106982210.74107  83208391.86947  20013229.208          51.000  
        35.000  
  22202519.992   118476902.29303                                        36.000  

  23743777.404   126567686.01405                                        41.000  

  23218812.228   124030724.09606  96468343.88246  23218809.388          43.000  
        27.000  
  23889388.204   127792099.25402                                        35.000  

  20031988.588   107120057.90504  83315600.83847  20031988.648          39.000  
        33.000  
  21220903.200   113557352.64407  88322374.33146  21220900.140          49.000  
        24.000  
 21 12 21 00 20 00.0000000  0 17G08G10G15G16G18G21G23G26G32R04R05R06
                                R10R12R19R20R21
  21709789.476   114085705.44806  88897963.34546  21709791.776          45.000  
        31.000  
  20621348.324   108365935.92608  84440993.56648  20621350.264          53.000  
        48.000  
  24876131.876   130724948.74701 101863596.15445  24876130.996          33.000  
        20.000  
  22316442.312   117273694.79106  91382097.36446  22316442.232          45.000  
        26.000  
  23789741.862   125015975.80005  97415053.66845  23789743.362          40.000  
        19.000  
  23593901.304   123986790.22604  96613090.78045  23593901.324          39.000  
        19.000  
  21694169.336   114003651.56406  88834017.48846  21694169.976          46.000  
        30.000  
  24515439.618   128829506.40204 100386627.57346  24515444.218          38.000  
        26.000  
  24361169.518   128018815.33005  99754920.99046  24361172.538          41.000  
        29.000  
  22221003.312   118992480.29706                                        46.000  

  20009617.688   106962884.73807  83193360.54247  20009613.948          51.000  
        35.000  
  22178459.376   118348504.42503                                        37.000  

  23766215.144   126687290.55805                                        41.000  

  23209483.788   123980890.19906  96429584.21346  23209479.968          43.000  
        26.000  
  23906176.164   127881899.17901                                        33.000  
                
  20036688.048   107145180.96604  83335140.96547  20036687.068          39.000  
        33.000  
  21207247.420   113484276.11007  88265537.02746  21207243.620          49.000  
        23.000  
 21 12 21 00 20 30.0000000  0 17G08G10G15G16G18G21G23G26G32R04R05R06
                                R10R12R19R20R21
  21696346.536   114015062.46606  88842916.85346  21696349.416          46.000  
        30.000  
  20621881.464   108368737.01408  84443176.24148  20621883.304          53.000  
        48.000  
  24889455.454   130794969.69602 101918158.18445  24889454.974          34.000  
        19.000  
  22332508.632   117358123.47406  91447885.92946  22332508.352          45.000  
        27.000  
  23806131.942   125102105.07704  97482167.36645  23806133.282          39.000  
        19.000  
  23580879.424   123918355.54105  96559765.01145  23580878.144          41.000  
        19.000  
  21707314.356   114072728.29006  88887843.50646  21707314.896          47.000  
        28.000  
  24535627.758   128935591.16604 100469291.03846  24535631.178          39.000  
        27.000  
  24343045.278   127923569.17105  99680703.21346  24343048.858          42.000  
        31.000  
  22238408.992   119085689.27406                                        46.000  

  20006157.668   106944391.23107  83178976.71847  20006154.548          51.000  
        35.000  
  22154442.676   118220357.05603                                        36.000  

  23788661.864   126806942.30104                                        39.000  
                
  23200284.448   123931751.87906  96391365.49146  23200281.068          44.000  
        23.000  
  23922982.964   127971807.59602                                        34.000  
                
  20041444.868   107170616.04204  83354923.78247  20041443.048          39.000  
        33.000  
  21193618.180   113411345.70207  88208811.38746  21193615.640          49.000  
        25.000  
 21 12 21 00 21 00.0000000  0 17G08G10G15G16G18G21G23G26G32R04R05R06
                                R10R12R19R20R21
  21682960.136   113944713.58507  88788099.56446  21682962.256          48.000  
        31.000  
  20622514.704   108372064.87607  84445769.38648  20622516.844          52.000  
        48.000  
  24902865.434   130865441.04100 101973071.62345  24902866.854          32.000  
        18.000  
  22348642.912   117442911.20906  91513954.30046  22348642.812          46.000  
        26.000  
  23822533.062   125188289.26504  97549323.84045  23822533.542          39.000  
        20.000  
  23567880.744   123850052.05305  96506541.57545  23567880.584          40.000  
        19.000  
  21720533.556   114142192.46006  88941971.43546  21720533.716          47.000  
        31.000  
  24555811.478   129041659.00504 100551941.29946  24555815.898          38.000  
        27.000  
  24324929.258   127828367.24305  99606519.90146  24324931.658          42.000  
        31.000  
  22255917.692   119179441.87306                                        47.000  

  20002854.468   106926730.90307  83165240.91647  20002850.308          51.000  
        35.000  
  22130474.796   118092463.90903                                        36.000  

  23811116.404   126926636.50705                                        41.000  
                
  23191216.308   123883311.05406  96353689.28446  23191213.548          44.000  
        25.000  
  23939809.064   128061824.14501                                        33.000  
                
  20046260.988   107196364.00505  83374949.99847  20046258.128          40.000  
        32.000  
  21180017.180   113338562.11207  88152201.93646  21180014.160          49.000  
        24.000  
 21 12 21 00 21 30.0000000  0 17G08G10G15G16G18G21G23G26G32R04R05R06
                                R10R12R19R20R21
  21669629.316   113874661.07706  88733513.18846  21669631.616          46.000  
        31.000  
  20623247.684   108375919.07707  84448772.66748  20623249.944          51.000  
        48.000  
  24916364.374   130936372.70302 102028343.05445  24916364.094          35.000  
        19.000  
  22364845.732   117528055.15606  91580300.18646  22364845.712          46.000  
        27.000  
  23838943.682   125274528.10105  97616522.92845  23838944.362          40.000  
        20.000  
  23554908.024   123781880.29605  96453420.74645  23554908.184          40.000  
        17.000  
  21733825.356   114212041.99007  88996399.64246  21733825.836          48.000  
        30.000  
  24575992.598   129147707.68004 100634576.61746  24575995.978          38.000  
        26.000  
  24306821.658   127733212.66605  99532373.47946  24306824.358          42.000  
        29.000  
  22273525.612   119273734.20006                                        46.000  

  19999706.648   106909905.03607  83152154.14947  19999702.868          51.000  
        36.000  
  22106558.256   117964829.53703                                        36.000  

  23833577.964   127046369.47505                                        41.000  

  23182279.208   123835569.65006  96316557.10946  23182275.668          43.000  
        26.000  
  23956657.964   128151949.06802                                        34.000  
                
  20051134.568   107222425.34805  83395219.94247  20051131.888          40.000  
        33.000  
  21166442.840   113265926.98007  88095707.93446  21166440.300          48.000  
        24.000  
 21 12 21 00 22 00.0000000  0 17G08G10G15G16G18G21G23G26G32R04R05R06
                                R10R12R19R20R21
  21656355.176   113804906.99206  88679159.37246  21656357.836          46.000  
        30.000  
  20624081.064   108380298.72007  84452185.37548  20624083.284          51.000  
        48.000  
  24929948.274   131007756.73903 102083966.97646  24929948.654          36.000  
        21.000  
  22381115.312   117613552.17906  91646921.24346  22381115.192          46.000  
        28.000  
  23855364.662   125360820.85504  97683764.00845  23855365.622          39.000  
        19.000  
  23541959.744   123713840.36505  96400402.64645  23541960.464          40.000  
        19.000  
  21747190.276   114282274.41907  89051126.20046  21747190.456          48.000  
        29.000  
  24596168.156   129253734.48704 100717194.88146  24596172.196          38.000  
        25.000  
  24288724.698   127638108.28705  99458266.16946  24288726.178          42.000  
        30.000  
  22291234.552   119368562.53406                                        46.000  

  19996714.828   106893914.17607  83139716.81347  19996711.668          50.000  
        35.000  
  22082686.776   117837457.92003                                        37.000  

  23856045.284   127166136.58504                                        39.000  
                
  23173473.308   123788529.74406  96279970.53546  23173469.548          44.000  
        26.000  
  23973526.704   128242181.85701                                        33.000  
                
  20056066.248   107248800.31104  83415733.80247  20056064.088          39.000  
        32.000  
  21152898.520   113193441.34507  88039330.23146  21152895.300          49.000  
        24.000  
 21 12 21 00 22 30.0000000  0 17G08G10G15G16G18G21G23G26G32R04R05R06
                                R10R12R19R20R21
  21643138.916   113735453.09906  88625039.46146  21643140.756          47.000  
        30.000  
  20625014.824   108385202.92707  84456006.84048  20625016.404          52.000  
        48.000  
  24943617.774   131079590.54402 102139941.39445  24943617.994          34.000  
        19.000  
  22397451.392   117699399.20306  91713815.02046  22397450.652          46.000  
        26.000  
  23871795.882   125447166.78104  97751046.48545  23871796.182          38.000  
        19.000  
  23529038.784   123645931.94805  96347487.05945  23529037.664          42.000  
        19.000  
  21760626.776   114352887.26106  89106149.19646  21760627.536          47.000  
        29.000  
  24616340.336   129359736.79304 100799794.07246  24616343.356          38.000  
        25.000  
  24270635.840   127543056.76105  99384200.04546  24270639.420          42.000  
        30.000  
  22309042.372   119463922.80506                                        47.000  

  19993879.148   106878758.74707  83127929.28647  19993876.368          51.000  
        35.000  
  22058868.196   117710352.96003                                        36.000  

  23878518.844   127285933.58004                                        39.000  

  23164797.508   123742193.08606  96243930.91246  23164795.668          43.000  
        25.000  
  23990415.780   128332522.31302                                        34.000  
                
  20061056.988   107275489.57204  83436492.08147  20061054.908          39.000  
        33.000  
  21139379.520   113121106.22907  87983069.60546  21139376.320          48.000  
        25.000  
 21 12 21 00 23 00.0000000  0 17G08G10G15G16G18G21G23G26G32R04R05R06
                                R10R12R19R20R21
  21629979.796   113666301.75006  88571155.28946  21629982.216          47.000  
        31.000  
  20626047.304   108390631.03707  84460236.54548  20626049.524          52.000  
        48.000  
  24957370.394   131151872.19302 102196264.78845  24957372.294          34.000  
        17.000  
  22413853.592   117785593.55606  91780979.43046  22413853.392          45.000  
        27.000  
  23888236.882   125533565.47705  97818370.11245  23888238.182          40.000  
        20.000  
  23516140.484   123578155.17305  96294673.99945  23516140.284          42.000  
        20.000  
  21774135.896   114423878.10306  89161466.72846  21774136.496          47.000  
        29.000  
  24636506.596   129465712.09504 100882372.23446  24636509.936          38.000  
        25.000  
  24252559.240   127448061.10105  99310177.46546  24252561.860          41.000  
        31.000  
  22326948.212   119559810.90306                                        46.000  

  19991200.748   106864439.23907  83116791.87947  19991197.128          50.000  
        34.000  
  22035098.996   117583518.92903                                        37.000  

  23900997.424   127405756.49305                                        40.000  
                
  23156256.288   123696561.54806  96208439.73546  23156252.968          44.000  
        25.000  
  24007321.700   128422970.44000                                        32.000  
                
  20066107.908   107302493.55305  83457495.18547  20066105.048          40.000  
        33.000  
  21125891.380   113048923.10207  87926927.15946  21125887.540          49.000  
        27.000  
 21 12 21 00 23 30.0000000  0 17G08G10G15G16G18G21G23G26G32R04R05R06
                                R10R12R19R20R21
  21616878.576   113597454.54306  88517508.12146  21616880.676          45.000  
        31.000  
  20627180.224   108396582.05507  84464873.71048  20627182.084          52.000  
        48.000  
  24971212.654   131224599.43203 102252935.39045  24971212.434          36.000  
        18.000  
  22430321.232   117872132.50006  91848412.36146  22430321.432          45.000  
        26.000  
  23904688.462   125620016.19104  97885734.24845  23904688.842          38.000  
        19.000  
  23503268.044   123510509.68905  96241963.23745  23503267.804          41.000  
        19.000  
  21787717.036   114495244.47706  89217076.89646  21787717.196          47.000  
        30.000  
  24656667.776   129571657.70904 100964927.24746  24656671.256          38.000  
        25.000  
  24234493.900   127353124.07205  99236200.56546  24234495.880          41.000  
        31.000  
  22344952.652   119656223.02606                                        45.000  

  19988678.668   106850956.37307  83106305.23247  19988674.728          51.000  
        34.000  
  22011381.776   117456959.79503                                        36.000  

  23923481.484   127525601.13605                                        40.000  

  23147846.688   123651636.94506  96173498.39146  23147842.928          43.000  
        26.000  
  24024251.040   128513525.51000                                        32.000  

  20071217.028   107329812.60005  83478743.32047  20071213.968          41.000  
        34.000  
  21112429.460   112976892.75007  87870903.58746  21112427.380          49.000  
        23.000  
 21 12 21 00 24 00.0000000  0 17G08G10G15G16G18G21G23G26G32R04R05R06
                                R10R12R19R20R21
  21603835.616   113528914.24206  88464100.09746  21603838.176          47.000  
        31.000  
  20628411.904   108403055.25207  84469917.76448  20628413.804          52.000  
        48.000  
  24985135.794   131297769.82901 102309951.32345  24985135.514          33.000  
        17.000  
  22446854.172   117959013.47106  91916111.81146  22446854.012          45.000  
        27.000  
  23921148.322   125706518.64704  97953138.74345  23921149.902          39.000  
        19.000  
  23490420.504   123442996.17805  96189355.28445  23490420.364          40.000  
        18.000  
  21801368.876   114566984.17707  89272977.96546  21801368.956          48.000  
        30.000  
  24676822.136   129677571.37204 101047457.37346  24676825.696          38.000  
        25.000  
  24216438.720   127258248.80005  99162271.79046  24216442.600          40.000  
        31.000  
  22363054.272   119753155.42306                                        45.000  

  19986312.548   106838310.82407  83096469.82847  19986309.548          51.000  
        34.000  
  21987717.096   117330680.01003                                        37.000  

  23945966.704   127645463.04705                                        40.000  

  23139568.808   123607421.32106  96139108.44946  23139565.488          43.000  
        26.000  
  24041199.000   128604187.78600                                        30.000  

  20076383.648   107357447.12205  83500236.85247  20076381.568          41.000  
        33.000  
  21098999.780   112905016.86007  87815000.10346  21098995.320          49.000  
        23.000  
 21 12 21 00 24 30.0000000  0 16G08G10G15G16G18G21G23G26G32R04R05R06
                                R10R12R20R21
  21590851.216   113460682.53906  88410932.54347  21590853.676          46.000  
        41.000  
  20629742.644   108410050.16908  84475368.35748  20629744.944          53.000  
        48.000  
  24999143.674   131371381.04902 102367310.70745  24999143.134          35.000  
        18.000  
  22463452.052   118046233.48006  91984075.44546  22463451.472          45.000  
        27.000  
  23937619.182   125793072.30504  98020583.10345  23937620.722          39.000  
        20.000  
  23477598.104   123375614.25105  96136849.97845  23477598.044          41.000  
        19.000  
  21815090.836   114639094.87006  89329168.10746  21815090.956          47.000  
        30.000  
  24696970.556   129783450.56004 101129960.59946  24696973.876          38.000  
        23.000  
  24198397.960   127163438.20405  99088393.44347  24198400.520          41.000  
        32.000  
  22381252.352   119850604.26306                                        45.000  

  19984104.228   106826503.11007  83087286.05747  19984100.328          52.000  
        35.000  
  21964105.996   117204683.64703                                        37.000  

  23968454.104   127765338.04005                                        41.000  

  23131425.928   123563916.55506  96105271.40646  23131421.628          44.000  
        26.000  
  20081611.208   107385398.38404  83521976.72147  20081607.868          38.000  
        32.000  
  21085595.840   112833296.61007  87759217.70546  21085593.080          48.000  
        25.000  
 21 12 21 00 25 00.0000000  0 16G08G10G15G16G18G21G23G26G32R04R05R06
                                R10R12R20R21
  21577926.838   113392761.20506  88358006.84347  21577929.138          47.000  
        41.000  
  20631173.124   108417565.69507  84481224.62348  20631175.124          52.000  
        48.000  
  25013233.274   131445430.83201 102425011.80545  25013235.214          33.000  
        16.000  
  22480112.912   118133789.55806  92052300.95546  22480112.972          45.000  
        24.000  
  23954100.482   125879676.44005  98088066.85745  23954100.562          40.000  
        19.000  
  23464801.624   123308363.81705  96084447.05345  23464801.344          41.000  
        20.000  
  21828883.316   114711574.06306  89385645.40146  21828883.356          46.000  
        29.000  
  24717111.156   129889292.66604 101212434.95946  24717114.556          39.000  
        25.000  
  24180368.040   127068695.04905  99014567.60347  24180371.100          41.000  
        32.000  
  22399545.472   119948565.41906                                        45.000  

  19982052.088   106815533.50007  83078754.14647  19982048.168          52.000  
        34.000  
  21940547.856   117078974.62203                                        37.000  

  23990944.360   127885222.44905                                        41.000  

  23123414.208   123521124.35206  96071988.60546  23123411.268          44.000  
        29.000  
  20086898.008   107413666.07105  83543962.68547  20086894.748          40.000  
        32.000  
  21072222.980   112761733.13707  87703557.24146  21072219.480          49.000  
        22.000  
 21 12 21 00 25 30.0000000  0 16G08G10G15G16G18G21G23G26G32R04R05R06
                                R10R12R20R21
  21565061.178   113325152.72507  88305324.91147  21565063.258          48.000  
        41.000  
  20632702.084   108425601.06708  84487485.94648  20632704.104          53.000  
        48.000  
  25027408.074   131519916.69002 102483052.79945  25027409.774          34.000  
        16.000  
  22496838.010   118221678.36306  92120785.71646  22496837.210          45.000  
        27.000  
  23970589.182   125966330.66404  98155589.62445  23970590.462          38.000  
        18.000  
  23452028.384   123241245.40305  96032147.01845  23452028.764          41.000  
        19.000  
  21842744.976   114784419.38106  89442407.97646  21842745.356          46.000  
        28.000  
  24737244.816   129995095.23504 101294878.52946  24737248.816          39.000  
        25.000  
  24162353.040   126974022.46805  98940796.77647  24162355.560          42.000  
        32.000  
  22417933.872   120047035.00506                                        45.000  

  19980156.988   106805402.47607  83070874.46747  19980153.348          51.000  
        35.000  
  21917044.196   116953557.24803                                        37.000  

  24013435.240   128005111.98805                                        41.000  

  23115536.768   123479046.40505  96039261.33546  23115533.988          42.000  
        26.000  
  20092243.008   107442250.79805  83566195.26147  20092240.688          41.000  
        33.000  
  21058878.640   112690327.77607  87648019.75646  21058875.480          49.000  
        24.000  
 21 12 21 00 26 00.0000000  0 16G08G10G15G16G18G21G23G26G32R04R05R06
                                R10R12R20R21
  21552255.698   113257858.99306  88252888.23847  21552258.098          46.000  
        41.000  
  20634330.064   108434155.18308  84494151.51048  20634331.944          53.000  
        48.000  
  25041666.514   131594836.17503 102541431.65042  25041665.854          36.000  
        14.000  
  22513625.190   118309897.68006  92189528.03546  22513624.870          45.000  
        25.000  
  23987088.200   126053034.25404  98223150.84545  23987089.520          39.000  
        19.000  
  23439282.324   123174258.69306  95979949.65246  23439281.524          43.000  
        21.000  
  21856676.456   114857628.24906  89499453.85446  21856676.176          47.000  
        28.000  
  24757370.636   130100855.57204 101377289.16846  24757374.296          38.000  
        26.000  
  24144351.820   126879423.08005  98867082.98747  24144353.620          41.000  
        32.000  
  22436417.932   120146008.79906                                        44.000  

  19978418.388   106796110.42107  83063647.32647  19978415.408          52.000  
        35.000  
  21893595.556   116828435.36103                                        36.000  

  24035926.040   128125002.05504                                        39.000  
                
  23107794.268   123437684.22706  96007090.73846  23107790.388          43.000  
        27.000  
  20097647.128   107471152.92805  83588674.69347  20097645.908          41.000  
        34.000  
  21045565.040   112619081.72307  87592606.15946  21045561.240          48.000  
        23.000  
 21 12 21 00 26 30.0000000  0 16G08G10G15G16G18G21G23G26G32R04R05R06
                                R10R12R20R21
  21539509.958   113190882.26206  88200698.59147  21539512.578          46.000  
        41.000  
  20636056.284   108443227.30507  84501220.68948  20636058.524          52.000  
        48.000  
  25056003.574   131670187.11902 102600146.65545  25056004.394          34.000  
        16.000  
  22530475.450   118398444.67606  92258525.67446  22530475.030          44.000  
        26.000  
  24003597.040   126139786.75204  98290750.14145  24003598.480          38.000  
        19.000  
  23426560.084   123107403.64406  95927854.79446  23426559.504          43.000  
        22.000  
  21870676.376   114931198.42806  89556781.26646  21870676.396          47.000  
        29.000  
  24777487.416   130206571.36504 101459665.08746  24777491.376          38.000  
        26.000  
  24126363.960   126784900.03005  98793428.64647  24126366.240          41.000  
        32.000  
  22454993.812   120245483.04306                                        44.000  

  19976837.788   106787657.41007  83057072.76447  19976833.908          52.000  
        35.000  
  21870205.136   116703613.30702                                        35.000  
                
  24058417.040   128244888.90605                                        40.000  
                
  23100184.028   123397039.35905  95975478.09046  23100181.628          41.000  
        26.000  
  20103112.768   107500373.13504  83611401.51047  20103109.948          39.000  
        33.000  
  21032280.640   112547996.21907  87537317.45946  21032277.520          48.000  
        25.000  
 21 12 21 00 27 00.0000000  0 16G08G10G15G16G18G21G23G26G32R04R05R06
                                R10R12R20R21
  21526825.658   113124224.14506  88148757.20447  21526828.438          47.000  
        41.000  
  20637881.004   108452816.37107  84508692.70648  20637883.384          52.000  
        48.000  
  25070423.794   131745966.91701 102659195.87442  25070424.094          33.000  
        14.000  
  22547386.410   118487316.11706  92327776.13946  22547387.150          45.000  
        27.000  
  24020114.500   126226587.55904  98358387.11545  24020116.080          39.000  
        19.000  
  23413862.104   123040680.39805  95875852.65946  23413861.784          42.000  
        22.000  
  21884744.096   115005127.37906  89614388.25646  21884744.696          46.000  
        28.000  
  24797595.296   130312239.93904 101542004.20946  24797599.016          38.000  
        24.000  
  24108391.260   126690456.08305  98719835.93746  24108394.180          40.000  
        31.000  
  22473661.712   120345453.72406                                        43.000  

  19975413.268   106780043.88407  83051151.14547  19975409.648          52.000  
        35.000  
  21846870.876   116579095.22103                                        36.000  
                
  24080906.240   128364768.54404                                        39.000  
                
  23092710.628   123357113.60706  95944424.69446  23092707.708          43.000  
        26.000  
  20108634.768   107529911.94004  83634376.10347  20108633.148          39.000  
        32.000  
  21019026.540   112477072.43707  87482154.51546  21019023.900          49.000  
        26.000  
 21 12 21 00 27 30.0000000  0 16G08G10G15G16G18G21G23G26G32R04R05R06
                                R10R12R20R21
  21514202.198   113057886.82106  88097065.77747  21514204.398          46.000  
        41.000  
  20639803.784   108462921.49107  84516566.83048  20639806.204          52.000  
        47.000  
  25084926.074   131822173.05602 102718577.14845  25084925.634          34.000  
        15.000  
  22564359.970   118576509.18806  92397277.22146  22564359.910          45.000  
        26.000  
  24036641.780   126313436.09104  98426061.30045  24036642.500          39.000  
        19.000  
  23401190.124   122974089.01705  95823963.32045  23401189.904          42.000  
        20.000  
  21898879.994   115079412.72006  89672272.92046  21898880.534          46.000  
        29.000  
  24817694.256   130417858.83403 101624304.62146  24817697.556          37.000  
        24.000  
  24090435.320   126596094.13305  98646307.18446  24090437.780          41.000  
        31.000  
  22492422.972   120445916.75006                                        44.000  

  19974146.188   106773270.05707  83045882.62947  19974142.468          52.000  
        35.000  
  21823593.096   116454884.98703                                        36.000  

  24103393.500   128484636.58004                                        39.000  

  23085371.028   123317908.46306  95913931.79446  23085368.328          43.000  
        28.000  
  20114220.028   107559769.38305  83657598.57846  20114216.248          40.000  
        31.000  
  21005803.040   112406311.74807  87427118.41846  21005799.920          49.000  
        25.000  
 21 12 21 00 28 00.0000000  0 16G08G10G15G16G18G21G23G26G32R04R05R06
                                R10R12R20R21
  21501640.058   112991872.49806  88045626.05347  21501642.978          46.000  
        41.000  
  20641824.624   108473541.93907  84524842.50848  20641827.264          52.000  
        48.000  
  25099509.394   131898806.41502 102778290.32445  25099508.074          34.000  
        15.000  
  22581393.210   118666020.53506  92467026.31546  22581393.270          45.000  
        26.000  
  24053177.320   126400332.11204  98493772.43445  24053177.760          38.000  
        19.000  
  23388543.924   122907629.54706  95772176.74145  23388543.204          43.000  
        19.000  
  21913083.874   115154052.19606  89730433.53846  21913084.274          46.000  
        29.000  
  24837783.396   130523425.77004 101706564.58346  24837786.556          38.000  
        24.000  
  24072495.180   126501817.35905  98572844.77147  24072498.420          41.000  
        32.000  
  22511273.912   120546868.30906                                        45.000  

  19973036.308   106767336.20407  83041267.41447  19973032.088          51.000  
        35.000  
  21800376.476   116330986.98803                                        37.000  

  24125877.440   128604489.06405                                        40.000  
                
  23078167.648   123279425.68406  95884000.74846  23078163.808          44.000  
        26.000  
  20119862.648   107589946.10705  83681069.39647  20119860.268          41.000  
        32.000  
  20992610.500   112335715.79407  87372210.46246  20992607.680          49.000  
        24.000  
 21 12 21 00 28 30.0000000  0 16G08G10G15G16G18G21G23G26G32R04R05R06
                                R10R12R20R21
  21489139.958   112926183.29106  87994439.66647  21489142.218          47.000  
        41.000  
  20643943.564   108484676.63607  84533518.89848  20643946.044          52.000  
        47.000  
  25114170.094   131975858.45200                                        29.000  
                
  22598486.830   118755848.41906  92537022.06646  22598486.950          46.000  
        25.000  
  24069721.140   126487275.02604  98561520.17845  24069721.800          38.000  
        19.000  
  23375921.986   122841301.75905  95720492.79145  23375921.706          42.000  
        20.000  
  21927353.934   115229043.31006  89788868.17446  21927354.194          47.000  
        28.000  
  24857860.676   130628938.16104 101788782.00046  24857865.096          38.000  
        24.000  
  24054571.980   126407628.62605  98499450.94547  24054574.180          42.000  
        33.000  
  22530216.912   120648304.48006                                        44.000  

  19972082.988   106762242.30807  83037305.51047  19972079.548          51.000  
        35.000  
  21777216.596   116207405.41104                                        38.000  
                
  24148356.960   128724321.78804                                        39.000  
                
  23071099.308   123241666.76406  95854632.69546  23071095.988          44.000  
        26.000  
  20125564.008   107620442.66704  83704788.94947  20125563.568          39.000  
        33.000  
  20979449.584   112265285.65707  87317431.49146  20979445.984          49.000  
        25.000  
 21 12 21 00 29 00.0000000  0 16G08G10G15G16G18G21G23G26G32R04R05R06
                                R10R12R20R21
  21476702.238   112860821.37006  87943508.30747  21476704.778          47.000  
        42.000  
  20646160.044   108496324.58607  84542595.23848  20646162.664          52.000  
        48.000  
  25128912.974   132053329.56100                                        30.000  

  22615640.130   118845988.83106  92607261.34246  22615640.250          46.000  
        25.000  
  24086275.060   126574264.29004  98629303.98945  24086276.380          39.000  
        20.000  
  23363325.326   122775105.82405  95668911.53546  23363324.886          41.000  
        21.000  
  21941691.314   115304383.60806  89847574.90446  21941690.794          46.000  
        29.000  
  24877929.256   130734393.49604 101870955.01346  24877932.216          38.000  
        24.000  
  24036665.220   126313530.80505  98426127.99247  24036668.060          42.000  
        32.000  
  22549249.692   120750221.04106                                        43.000  

  19971286.808   106757988.56307  83033997.05047  19971283.728          50.000  
        35.000  
  21754117.076   116084144.04603                                        37.000  
                
  24170834.000   128844130.91804                                        39.000  

  23064165.748   123204633.11105  95825828.73846  23064162.668          42.000  
        27.000  
  20131327.808   107651259.75404  83728757.74847  20131326.788          38.000  
        34.000  
  20966319.464   112195022.66507  87262782.49546  20966316.184          49.000  
        25.000  
 21 12 21 00 29 30.0000000  0 16G08G10G15G16G18G21G23G26G32R04R05R06
                                R10R12R20R21
  21464327.178   112795788.29606  87892833.18747  21464328.738          47.000  
        42.000  
  20648474.344   108508484.59807  84552070.58148  20648476.624          52.000  
        47.000  
  25143736.434   132131217.23000                                        30.000  

  22632852.350   118936439.25606  92677742.17446  22632851.970          45.000  
        25.000  
  24102837.940   126661299.09104  98697123.29445  24102839.240          38.000  
        19.000  
  23350754.086   122709041.95905  95617433.20345  23350753.166          42.000  
        20.000  
  21956093.854   115380070.53106  89906551.73346  21956093.614          45.000  
        28.000  
  24897984.974   130839789.19504 101953081.51946  24897988.654          38.000  
        26.000  
  24018776.900   126219526.66305  98352878.02347  24018779.980          42.000  
        33.000  
  22568369.592   120852613.80505                                        42.000  
                
  19970648.548   106754574.57007  83031341.73747  19970645.108          51.000  
        36.000  
  21731078.556   115961207.22604                                        38.000  
                
  24193303.280   128963911.93004                                        38.000  

  23057368.988   123168325.94006  95797589.84046  23057366.308          44.000  
        28.000  
  20137150.368   107682397.36304  83752975.85447  20137149.108          39.000  
        33.000  
  20953219.584   112124927.94707  87208264.39046  20953217.184          49.000  
        26.000  
 21 12 21 00 30 00.0000000  0 16G08G10G15G16G18G21G23G26G32R04R05R06
                                R10R12R20R21
  21452014.278   112731086.68606  87842416.35047  21452016.818          46.000  
        42.000  
  20650885.244   108521156.03107  84561944.42748  20650887.684          52.000  
        48.000  
  25158633.894   132209519.70500                                        30.000  

  22650122.010   119027196.79506  92748462.33046  22650122.730          45.000  
        26.000  
  24119408.120   126748379.42004  98764978.08745  24119409.340          39.000  
        19.000  
  23338207.646   122643110.27205  95566057.94145  23338207.066          42.000  
        20.000  
  21970561.674   115456102.00506  89965797.04046  21970561.934          46.000  
        28.000  
  24918029.194   130945123.09403 102035159.87546  24918033.054          37.000  
        22.000  
  24000907.160   126125619.54105  98279703.65347  24000909.220          42.000  
        32.000  
  22587580.192   120955479.18406                                        43.000  
                
  19970167.008   106752000.92507  83029340.01547  19970163.668          51.000  
        35.000  
  21708103.536   115838599.03403                                        37.000  
                
  24215768.160   129083661.28603                                        37.000  
                
  23050708.688   123132746.91806  95769917.25746  23050705.788          43.000  
        29.000  
  20143035.048   107713856.59005  83777444.14946  20143031.208          40.000  
        31.000  
  20940152.624   112055003.42107  87153878.63946  20940149.824          49.000  
        24.000  
 21 12 21 00 30 30.0000000  0 16G08G10G15G16G18G21G23G26G32R04R05R06
                                R10R12R20R21
  21439765.198   112666718.00606  87792258.93947  21439767.578          46.000  
        42.000  
  20653393.664   108534337.54907  84572215.75248  20653396.024          51.000  
        47.000  
  25173613.134   132288233.91900                                        31.000  

  22667451.330   119118258.45106  92819419.47746  22667450.670          45.000  
        25.000  
  24135988.340   126835504.39204  98832867.61745  24135989.000          38.000  
        18.000  
  23325685.766   122577310.51705  95514785.44046  23325685.626          42.000  
        21.000  
  21985095.334   115532475.30106  90025308.68746  21985095.754          45.000  
        29.000  
  24938061.774   131050392.44003 102117187.91746  24938064.894          37.000  
        26.000  
  23983056.442   126031812.00005  98206606.89147  23983058.182          42.000  
        33.000  
  22606877.072   121058812.85406                                        43.000  

  19969841.988   106750267.30007  83027991.65047  19969839.308          50.000  
        36.000  
  21685188.316   115716323.47203                                        37.000  

  24238227.360   129203375.07702                                        35.000  
                
  23044184.908   123097897.25306  95742811.99546  23044181.548          43.000  
        27.000  
  20148977.748   107745637.17105  83802162.44247  20148974.108          41.000  
        32.000  
  20927119.244   111985249.85007  87099625.87646  20927115.384          49.000  
        26.000  
 21 12 21 00 31 00.0000000  0 16G08G10G15G16G18G21G23G26G32R04R05R06
                                R10R12R20R21
  21427579.778   112602684.88406  87742363.00447  21427582.538          46.000  
        42.000  
  20655998.544   108548028.22007  84582883.81148  20656001.364          51.000  
        47.000  
  25188669.532   132367357.41700                                        29.000  

  22684836.770   119209622.03006  92890611.84446  22684837.470          45.000  
        25.000  
  24152575.900   126922673.72004  98900791.80745  24152576.440          38.000  
        19.000  
  23313189.946   122511642.98705  95463615.92245  23313189.166          42.000  
        20.000  
  21999693.334   115609188.06406  90085084.85646  21999693.694          47.000  
        29.000  
  24958080.434   131155594.92903 102199163.89046  24958084.334          37.000  
        23.000  
  23965224.002   125938107.17206  98133590.17647  23965227.002          43.000  
        33.000  
  22626259.512   121162610.77706                                        43.000  

  19969674.908   106749373.45307  83027296.45747  19969672.068          49.000  
        35.000  
  21662335.736   115594384.71703                                        37.000  

  24260676.800   129323048.84402                                        34.000  

  23037797.268   123063778.34006  95716275.04246  23037794.848          43.000  
        29.000  
  20154979.948   107777740.47404  83827131.66547  20154978.608          38.000  
        33.000  
  20914115.124   111915668.81007  87045507.30046  20914111.624          49.000  
        23.000  
 21 12 21 00 31 30.0000000  0 16G08G10G15G16G18G21G23G26G32R04R05R06
                                R10R12R20R21
  21415458.518   112538988.89306  87692729.76647  21415461.558          46.000  
        42.000  
  20658700.824   108562226.81607  84593947.65848  20658703.264          51.000  
        47.000  
  25203804.312   132446887.49700                                        31.000  

  22702280.010   119301283.65406  92962036.45346  22702279.950          45.000  
        25.000  
  24169171.460   127009886.56704  98968749.79445  24169172.640          39.000  
        18.000  
  23300719.066   122446107.35505  95412549.26845  23300718.326          41.000  
        20.000  
  22014355.554   115686237.73606  90145123.56346  22014355.634          46.000  
        29.000  
  24978087.314   131260727.86203 102281085.65346  24978089.794          36.000  
        26.000  
  23947414.182   125844507.77206  98060655.60247  23947416.102          43.000  
        33.000  
  22645729.892   121266868.82506                                        44.000  

  19969664.508   106749319.18507  83027254.27747  19969662.048          50.000  
        35.000  
  21639549.376   115472786.62103                                        37.000  

  24283119.640   129442678.38200                                        31.000  
                
  23031548.408   123030391.38006  95690307.42146  23031545.068          44.000  
        28.000  
  20161044.928   107810165.53604  83852351.09747  20161042.748          39.000  
        33.000  
  20901145.164   111846261.63907  86991523.94746  20901141.684          49.000  
        27.000  
 21 12 21 00 32 00.0000000  0 16G08G10G15G16G18G21G23G26G32R04R05R06
                                R10R12R20R21
  21403402.598   112475632.13906  87643360.85847  21403405.278          46.000  
        42.000  
  20661499.324   108576932.41807  84605406.57548  20661501.644          51.000  
        47.000  
  25219016.132   132526822.27800                                        32.000  

  22719778.670   119393240.57606  93033691.21246  22719778.330          45.000  
        24.000  
  24185776.140   127097142.79204  99036741.61645  24185776.600          39.000  
        18.000  
  23288272.726   122380703.98805  95361585.62546  23288272.186          42.000  
        21.000  
  22029080.834   115763622.10106  90205423.07246  22029081.194          44.000  
        28.000  
  24998079.774   131365789.03503 102362951.50046  24998083.454          37.000  
        26.000  
  23929622.342   125751017.00005  97987805.64747  23929625.142          42.000  
        32.000  
  22665283.932   121371583.03706                                        45.000  

  19969811.528   106750104.49507  83027865.08847  19969808.388          50.000  
        35.000  
  21616827.316   115351533.54203                                        37.000  

  24305554.540   129562260.09000                                        32.000  

  23025434.828   122997737.64506  95664910.09746  23025432.108          45.000  
        29.000  
  20167168.828   107842913.80005  83877821.95747  20167166.508          40.000  
        33.000  
  20888207.284   111777029.66007  86937676.86546  20888203.644          49.000  
        24.000  
 21 12 21 00 32 30.0000000  0 15G08G10G15G16G18G21G23G26G32R04R05R06
                                R12R20R21
  21391410.758   112412616.92506  87594258.09447  21391413.738          47.000  
        42.000  
  20664394.124   108592143.88007  84617259.67448  20664395.964          51.000  
        47.000  
  25234301.472   132607157.71300                                        31.000  

  22737333.690   119485489.60506  93105573.56246  22737333.010          45.000  
        25.000  
  24202388.800   127184441.78504  99104766.80845  24202389.660          39.000  
        19.000  
  23275852.026   122315432.66405  95310724.86545  23275852.066          41.000  
        20.000  
  22043870.354   115841338.62306  90265981.39946  22043870.334          45.000  
        27.000  
  25018057.654   131470775.97003 102444759.48146  25018060.754          37.000  
        24.000  
  23911853.282   125657637.68105  97915042.57447  23911855.422          42.000  
        32.000  
  22684923.472   121476749.62506                                        44.000  

  19970115.568   106751729.17707  83029128.72647  19970112.128          50.000  
        35.000  
  21594167.396   115230629.56003                                        37.000  

  23019460.288   122965818.44906  95640084.04146  23019456.588          46.000  
        29.000  
  20173353.728   107875985.73405  83903544.58547  20173350.488          41.000  
        33.000  
  20875302.724   111707974.47507  86883967.28846  20875299.404          49.000  
        26.000  
 21 12 21 00 33 00.0000000  0 15G08G10G15G16G18G21G23G26G32R04R05R06
                                R12R20R21
  21379485.598   112349945.22706  87545423.00747  21379487.778          46.000  
        42.000  
  20667384.864   108607860.12307  84629506.10948  20667386.944          52.000  
        47.000  
  25249666.172   132687893.41100                                        31.000  

  22754942.870   119578028.35706  93177681.67646  22754942.550          44.000  
        23.000  
  24219009.100   127271783.08804  99172824.94245  24219010.200          38.000  
        19.000  
  23263457.006   122250293.31505  95259966.93545  23263456.386          41.000  
        20.000  
  22058721.734   115919384.92306  90326796.68746  22058721.954          45.000  
        28.000  
  25038020.514   131575686.29003 102526507.76546  25038024.914          37.000  
        23.000  
  23894104.782   125564372.82805  97842368.66647  23894107.422          41.000  
        32.000  
  22704646.132   121582364.16806                                        44.000  

  19970576.588   106754192.76007  83031044.86547  19970572.928          51.000  
        34.000  
  21571577.580   115110078.64103                                        37.000  

  23013621.628   122934634.91206  95615830.17846  23013618.668          45.000  
        28.000  
  20179598.248   107909381.32905  83929518.95347  20179595.428          40.000  
        32.000  
  20862430.884   111639097.50007  86830396.30846  20862428.244          49.000  
        25.000  
 21 12 21 00 33 30.0000000  0 15G08G10G15G16G18G21G23G26G32R04R05R06
                                R12R20R21
  21367624.898   112287619.16706  87496857.24847  21367627.518          46.000  
        42.000  
  20670471.084   108624080.18107  84642145.11648  20670473.504          51.000  
        47.000  
  25265105.512   132769026.07400                                        28.000  

  22772606.790   119670853.67106  93250013.08246  22772607.190          45.000  
        24.000  
  24235637.920   127359166.37704  99240915.75545  24235638.480          38.000  
        18.000  
  23251086.206   122185285.99306  95209311.93246  23251085.846          43.000  
        21.000  
  22073636.174   115997758.69006  90387867.14946  22073636.254          46.000  
        29.000  
  25057970.194   131680517.61002 102608194.47646  25057974.134          35.000  
        23.000  
  23876380.022   125471225.53705  97769786.39347  23876382.562          41.000  
        32.000  
  22724452.372   121688422.88306                                        44.000  

  19971194.308   106757495.24707  83033613.47447  19971190.908          50.000  
        35.000  
  21549053.040   114989885.09304                                        38.000  
                
  23007922.708   122904188.42906  95592149.61646  23007918.928          45.000  
        28.000  
  20185903.248   107943101.64904  83955745.89247  20185901.788          39.000  
        32.000  
  20849594.124   111570400.06907  86776964.96746  20849589.804          49.000  
        26.000  
 21 12 21 00 34 00.0000000  0 15G08G10G15G16G18G21G23G26G32R04R05R06
                                R12R20R21
  21355830.958   112225640.61906  87448562.27647  21355833.378          45.000  
        41.000  
  20673653.324   108640802.77107  84655175.71248  20673655.644          51.000  
        47.000  
  25280620.032   132850547.02400                                        30.000  

  22790324.788   119763962.84906  93322565.65946  22790324.668          43.000  
        25.000  
  24252274.500   127446590.99204  99309038.80945  24252274.880          38.000  
        18.000  
  23238740.786   122120410.87206  95158759.90545  23238740.346          43.000  
        20.000  
  22088611.874   116076457.36006  90449190.77646  22088612.094          45.000  
        28.000  
  25077904.094   131785267.47503 102689817.73746  25077907.334          37.000  
        24.000  
  23858676.682   125378198.65805  97697297.92047  23858679.602          41.000  
        32.000  
  22744339.392   121794921.65806                                        44.000  

  19971969.108   106761635.99407  83036834.06647  19971965.208          51.000  
        35.000  
  21526596.340   114870052.97004                                        38.000  

  23002360.308   122874479.93406  95569042.99846  23002357.628          44.000  
        28.000  
  20192271.168   107977146.77704  83982225.38547  20192268.628          39.000  
        32.000  
  20836789.784   111501883.65407  86723674.43446  20836786.184          49.000  
        25.000  
 21 12 21 00 34 30.0000000  0 15G08G10G15G16G18G21G23G26G32R04R05R06
                                R12R20R21
  21344103.078   112164011.75906  87400539.79447  21344105.878          46.000  
        42.000  
  20676930.804   108658026.85107  84668597.08148  20676933.264          52.000  
        47.000  
  25296207.512   132932465.81700                                        28.000  

  22808096.568   119857352.90906  93395337.11046  22808096.428          44.000  
        24.000  
  24268918.320   127534056.62704  99377193.83145  24268919.360          38.000  
        18.000  
  23226420.666   122055668.03606  95108310.97045  23226419.906          43.000  
        20.000  
  22103649.014   116155478.67406  90510765.83246  22103649.214          46.000  
        27.000  
  25097821.314   131889933.57404 102771375.73246  25097824.534          39.000  
        23.000  
  23840998.162   125285295.26705  97624905.69847  23841001.082          41.000  
        33.000  
  22764309.432   121901856.64706                                        44.000  

  19972900.148   106766614.77307  83040706.45847  19972896.708          51.000  
        35.000  
  21504209.620   114750586.40004                                        38.000  

  22996938.428   122845510.37606  95546511.13746  22996934.608          44.000  
        28.000  
  20198698.628   108011517.35305  84008958.04347  20198696.688          40.000  
        34.000  
  20824019.284   111433549.75407  86670525.83346  20824016.144          49.000  
        25.000  
 21 12 21 00 35 00.0000000  0 14G08G10G16G18G21G23G26G32R04R05R06R12
                                R20R21
  21332442.658   112102734.34906  87352791.16247  21332445.018          47.000  
        42.000  
  20680303.744   108675751.02907  84682408.13548  20680306.084          52.000  
        47.000  
  22825920.868   119951020.37705  93468324.75146  22825920.568          42.000  
        23.000  
  24285570.338   127621562.59804  99445380.26345  24285570.858          39.000  
        17.000  
  23214125.066   121991057.37006  95057964.99646  23214125.206          43.000  
        22.000  
  22118747.154   116234819.95906  90572590.22246  22118747.194          46.000  
        27.000  
  25117721.614   131994513.24403 102852866.40546  25117724.574          37.000  
        24.000  
  23823343.482   125192518.05506  97552611.78647  23823346.222          43.000  
        33.000  
  22784360.548   122009223.28006                                        44.000  

  19973988.328   106772430.77007  83045230.01747  19973984.888          51.000  
        34.000  
  21481889.020   114631489.07303                                        37.000  
                
  22991653.608   122817280.77806  95524554.78046  22991649.788          44.000  
        28.000  
  20205186.568   108046213.63905  84035944.02947  20205185.008          40.000  
        33.000  
  20811283.864   111365399.57707  86617520.14446  20811280.424          50.000  
        26.000  
 21 12 21 00 35 30.0000000  0 14G08G10G16G18G21G23G26G32R04R05R06R12
                                R20R21
  21320849.138   112041810.70206  87305318.18947  21320851.878          46.000  
        42.000  
  20683771.964   108693974.27107  84696608.05748  20683773.864          52.000  
        47.000  
  22843797.328   120044962.75505  93541526.60246  22843796.888          42.000  
        23.000  
  24302229.298   127709108.63804  99513597.92345  24302230.178          38.000  
        18.000  
  23201855.246   121926578.73406  95007721.96345  23201854.846          43.000  
        20.000  
  22133905.454   116314478.90806  90634662.12246  22133906.074          46.000  
        28.000  
  25137605.974   132099004.25103 102934287.93246  25137609.454          37.000  
        22.000  
  23805712.722   125099870.12405  97480418.62747  23805715.622          41.000  
        33.000  
  22804489.408   122117017.84206                                        45.000  

  19975233.268   106779083.79307  83050404.59647  19975229.088          51.000  
        34.000  
  21459640.740   114512765.24303                                        37.000  

  22986507.508   122789792.13506  95503174.74246  22986503.888          44.000  
        28.000  
  20211735.948   108081236.16804  84063183.76547  20211733.648          39.000  
        32.000  
  20798583.244   111297434.78707  86564658.63846  20798579.604          50.000  
        27.000  
 21 12 21 00 36 00.0000000  0 14G08G10G16G18G21G23G26G32R04R05R06R12
                                R20R21
  21309323.338   111981243.05006  87258122.61847  21309326.178          46.000  
        42.000  
  20687334.262   108712695.39507  84711195.95948  20687336.282          52.000  
        47.000  
  22861725.568   120139176.92206  93614940.20846  22861725.828          43.000  
        25.000  
  24318895.358   127796694.22503  99581846.44545  24318897.398          37.000  
        18.000  
  23189611.046   121862232.65606  94957582.17246  23189610.626          43.000  
        21.000  
  22149124.494   116394453.08806  90696979.66546  22149124.654          46.000  
        28.000  
  25157472.674   132203404.21004 103015638.54046  25157476.034          38.000  
        21.000  
  23788108.022   125007354.50206  97408328.54447  23788110.842          43.000  
        33.000  
  22824698.968   122225235.96906  95064060.41546  22824694.548          44.000  
        22.000  
  19976634.048   106786573.13807  83056229.65647  19976630.088          51.000  
        34.000  
  21437464.540   114394419.17703                                        37.000  

  22981500.408   122763045.52506  95482371.79146  22981496.488          44.000  
        26.000  
  20218346.048   108116585.37604  84090677.60247  20218343.628          39.000  
        32.000  
  20785917.144   111229656.99307  86511942.57246  20785914.084          49.000  
        26.000  
 21 12 21 00 36 30.0000000  0 14G08G10G16G18G21G23G26G32R04R05R06R12
                                R20R21
  21297866.378   111921033.25806  87211205.89447  21297868.618          46.000  
        42.000  
  20690991.122   108731913.05207  84726170.76048  20690993.182          51.000  
        47.000  
  22879704.948   120233659.92206  93688563.30246  22879704.808          43.000  
        23.000  
  24335569.998   127884318.85103  99650125.30145  24335571.778          37.000  
        19.000  
  23177391.326   121798018.83706  94907545.43845  23177390.866          43.000  
        20.000  
  22164402.894   116474740.01106  90759540.89446  22164402.654          45.000  
        28.000  
  25177320.994   132307710.62603 103096916.25946  25177324.574          36.000  
        21.000  
  23770528.682   124914974.07905  97336343.80747  23770531.502          41.000  
        33.000  
  22844985.448   122333873.80406                                        46.000  

  19978191.548   106794898.16807  83062704.68147  19978187.248          52.000  
        34.000  
  21415356.700   114276454.58003                                        37.000  

  22976631.648   122737041.71906  95462146.66746  22976628.668          44.000  
        28.000  
  20225017.988   108152261.44004  84118425.63847  20225016.128          39.000  
        33.000  
  20773286.984   111162067.36507  86459372.84046  20773282.784          49.000  
        26.000  
 21 12 21 00 37 00.0000000  0 14G08G10G16G18G21G23G26G32R04R05R06R12
                                R20R21
  21286477.298   111861183.25906  87164569.52847  21286479.538          46.000  
        43.000  
  20694742.502   108751626.32907  84741531.76448  20694744.782          51.000  
        47.000  
  22897734.988   120328409.12305  93762393.87746  22897735.488          42.000  
        23.000  
  24352252.618   127971982.27304  99718434.49845  24352253.618          39.000  
        18.000  
  23165197.186   121733937.52806  94857611.99245  23165196.626          43.000  
        19.000  
  22179739.274   116555337.50706  90822344.14146  22179739.974          45.000  
        29.000  
  25197152.652   132411921.46603 103178119.53345  25197155.032          36.000  
        20.000  
  23752976.402   124822732.02905  97264466.92547  23752978.462          42.000  
        34.000  
  22865350.108   122442927.40906                                        44.000  

  19979905.548   106804058.60407  83069829.47747  19979900.868          52.000  
        34.000  
  21393322.660   114158875.99503                                        37.000  

  22971903.708   122711782.02906  95442500.23746  22971900.308          44.000  
        28.000  
  20231751.308   108188265.09505  84146428.48247  20231748.808          40.000  
        33.000  
  20760691.184   111094667.73407  86406950.92046  20760688.164          49.000  
        25.000  
 21 12 21 00 37 30.0000000  0 14G08G10G16G18G21G23G26G32R04R05R06R12
                                R20R21
  21275156.640   111801695.12806  87118215.15047  21275159.180          46.000  
        42.000  
  20698588.062   108771833.77207  84757277.82548  20698589.822          52.000  
        47.000  
  22915816.188   120423421.25506  93836429.29046  22915815.168          43.000  
        22.000  
  24368941.618   128059683.90104  99786773.46045  24368942.398          38.000  
        18.000  
  23153028.246   121669988.46106  94807781.60145  23153028.286          44.000  
        20.000  
  22195135.072   116636242.96406  90885387.35046  22195135.732          46.000  
        28.000  
  25216963.592   132516034.14202 103259246.26145  25216967.032          35.000  
        19.000  
  23735448.862   124730631.22106  97192700.06447  23735451.842          43.000  
        34.000  
  22885792.428   122552392.50206                                        46.000  

  19981775.768   106814053.54607  83077603.32247  19981770.848          52.000  
        34.000  
  21371360.860   114041687.13003                                        37.000  

  22967313.948   122687266.85506  95423432.87846  22967310.828          45.000  
        29.000  
  20238546.268   108224596.53005  84174686.26347  20238543.368          40.000  
        33.000  
  20748132.084   111027459.46507  86354677.83746  20748128.964          49.000  
        26.000  
 21 12 21 00 38 00.0000000  0 14G08G10G16G18G21G23G26G32R04R05R06R12
                                R20R21
  21263905.740   111742570.62706  87072144.10647  21263908.100          46.000  
        42.000  
  20702526.862   108792533.96907  84773407.85748  20702528.822          52.000  
        47.000  
  22933945.308   120518692.65406  93910666.71246  22933944.608          44.000  
        23.000  
  24385638.058   128147423.04304  99855141.58345  24385638.738          38.000  
        17.000  
  23140884.046   121606171.62806  94758054.21346  23140884.266          43.000  
        21.000  
  22210589.532   116717453.78006  90948668.50446  22210589.672          46.000  
        28.000  
  25236756.532   132620046.06302 103340294.49545  25236759.672          35.000  
        18.000  
  23717950.562   124638674.33305  97121045.36547  23717953.022          42.000  
        33.000  
  22906310.568   122662264.95206                                        46.000  

  19983801.628   106824881.76808  83086025.28247  19983796.688          53.000  
        34.000  
  21349474.020   113924891.93303                                        37.000  

  22962864.488   122663496.92306  95404945.14146  22962861.448          44.000  
        29.000  
  20245400.248   108261256.87604  84203199.83047  20245398.868          39.000  
        33.000  
  20735607.864   110960443.77307  86302554.51246  20735604.724          49.000  
        25.000  
 21 12 21 00 38 30.0000000  0 14G08G10G16G18G21G23G26G32R04R05R06R12
                                R20R21
  21252724.700   111683811.90006  87026358.09547  21252726.960          47.000  
        42.000  
  20706559.622   108813725.68307  84789920.88148  20706561.542          52.000  
        47.000  
  22952123.668   120614221.58406  93985104.82946  22952124.108          43.000  
        23.000  
  24402340.458   128235199.41704  99923538.75345  24402342.038          38.000  
        18.000  
  23128765.466   121542487.45006  94708430.19345  23128765.426          43.000  
        20.000  
  22226101.472   116798967.59406  91012185.77846  22226101.052          46.000  
        27.000  
  25256530.632   132723955.02002 103421262.55045  25256532.852          35.000  
        19.000  
  23700479.082   124546864.47806  97049505.22847  23700482.302          43.000  
        32.000  
  22926903.028   122772540.54406                                        44.000  

  19985982.028   106836542.77507  83095094.96447  19985977.708          52.000  
        34.000  
  21327661.060   113808494.40203                                        37.000  

  22958553.508   122640473.03106  95387037.67546  22958551.108          44.000  
        29.000  
  20252318.048   108298245.73404  84231968.92746  20252315.628          39.000  
        31.000  
  20723121.284   110893622.36107  86250582.31346  20723118.064          49.000  
        27.000  
 21 12 21 00 39 00.0000000  0 14G08G10G16G18G21G23G26G32R04R05R06R12
                                R20R21
  21241613.260   111625421.40906  86980859.00547  21241615.540          47.000  
        42.000  
  20710685.502   108835407.84607  84806816.08148  20710687.882          52.000  
        47.000  
  22970350.428   120710004.36406  94059740.75546  22970350.108          45.000  
        23.000  
  24419051.018   128323012.71504  99991964.62845  24419053.078          39.000  
        17.000  
  23116672.506   121478935.81606  94658909.46546  23116671.586          43.000  
        21.000  
  22241669.452   116880782.15306  91075937.38046  22241669.972          45.000  
        27.000  
  25276282.272   132827758.73600 103502148.48145  25276286.912          32.000  
        18.000  
  23683037.344   124455204.79605  96978082.12247  23683040.324          42.000  
        33.000  
  22947571.388   122883215.32606                                        45.000  

  19988319.828   106849036.10407  83104811.99147  19988314.988          52.000  
        34.000  
  21305922.180   113692498.80003                                        37.000  

  22954383.468   122618196.02906  95369711.13246  22954380.748          44.000  
        28.000  
  20259296.428   108335563.81905  84260994.11746  20259293.988          40.000  
        31.000  
  20710670.184   110826996.85607  86198762.47046  20710667.564          50.000  
        26.000  
 21 12 21 00 39 30.0000000  0 14G08G10G16G18G21G23G26G32R04R05R06R12
                                R20R21
  21230571.920   111567400.65406  86935648.01947  21230574.220          47.000  
        42.000  
  20714904.302   108857578.96107  84824092.27748  20714906.922          52.000  
        47.000  
  22988624.828   120806038.08506  94134572.19646  22988625.188          44.000  
        23.000  
  24435768.798   128410862.41404 100060418.98445  24435769.558          38.000  
        17.000  
  23104604.006   121415516.61806  94609491.88445  23104602.866          43.000  
        20.000  
  22257294.692   116962894.91506  91139921.33446  22257295.772          45.000  
        27.000  
  25296017.232   132931454.87700 103582950.61642  25296019.952          31.000  
        14.000  
  23665624.584   124363698.14906  96906778.26347  23665626.964          43.000  
        33.000  
  22968312.188   122994285.21106                                        43.000  

  19990812.548   106862360.47207  83115175.39947  19990807.548          52.000  
        34.000  
  21284261.960   113576909.10703                                        37.000  

  22950353.528   122596666.60106  95352966.01846  22950350.408          44.000  
        28.000  
  20266337.468   108373211.53604  84290275.68947  20266334.368          39.000  
        33.000  
  20698257.124   110760568.67207  86147096.10746  20698253.724          49.000  
        27.000  
 21 12 21 00 40 00.0000000  0 13G08G10G16G18G21G23G32R04R05R06R12R20
                                R21
  21219601.920   111509751.93206  86890726.93747  21219604.380          47.000  
        42.000  
  20719216.522   108880237.98607  84841748.67048  20719218.802          51.000  
        47.000  
  23006947.208   120902319.60206  94209596.75646  23006947.188          44.000  
        22.000  
  24452493.398   128498748.22604 100128901.40145  24452494.018          38.000  
        19.000  
  23092559.566   121352230.00305  94560177.67545  23092559.906          42.000  
        20.000  
  22272977.312   117045303.63206  91204135.91546  22272977.232          44.000  
        27.000  
  23648240.484   124272347.65506  96835596.07347  23648243.224          43.000  
        32.000  
  22989127.828   123105746.19406                                        44.000  

  19993460.528   106876515.30607  83126184.72547  19993455.528          52.000  
        34.000  
  21262676.840   113461729.41204                                        38.000  
                
  22946463.128   122575885.41006  95336802.85746  22946460.608          44.000  
        28.000  
  20273439.388   108411189.20204  84319813.86647  20273436.928          39.000  
        32.000  
  20685880.444   110694339.65207  86095584.66146  20685877.344          50.000  
        25.000  
 21 12 21 00 40 30.0000000  0 13G08G10G16G18G21G23G32R04R05R06R12R20
                                R21
  21208702.700   111452476.87806  86846097.03147  21208705.200          47.000  
        42.000  
  20723620.602   108903383.37707  84859784.02548  20723622.962          51.000  
        47.000  
  23025315.668   120998846.39006  94284812.41346  23025315.408          45.000  
        23.000  
  24469223.698   128586669.60004 100197411.60645  24469225.178          38.000  
        16.000  
  23080542.068   121289075.95105  94510966.76045  23080542.088          40.000  
        20.000  
  22288715.112   117128005.77306  91268579.13946  22288715.112          45.000  
        28.000  
  23630887.864   124181156.16006  96764537.77947  23630890.184          43.000  
        33.000  
  23010013.608   123217594.14806                                        45.000  

  19996263.648   106891499.40208  83137839.01547  19996258.728          53.000  
        34.000  
  21241170.100   113346963.50403                                        36.000  
                
  22942712.408   122555853.08606  95321222.17146  22942710.348          44.000  
        26.000  
  20280602.308   108449497.54404  84349609.21347  20280601.108          39.000  
        33.000  
  20673541.344   110628310.98307  86044229.02146  20673538.384          49.000  
        27.000  
 21 12 21 00 41 00.0000000  0 13G08G10G16G18G21G23G32R04R05R06R12R20
                                R21
  21197875.440   111395578.18906  86801760.38447  21197877.720          47.000  
        42.000  
  20728117.642   108927013.79807  84878197.35448  20728119.722          51.000  
        47.000  
  23043729.548   121095615.17806  94360216.67746  23043730.088          43.000  
        23.000  
  24485960.818   128674626.03903 100265949.02045  24485962.678          37.000  
        17.000  
  23068549.368   121226054.39905  94461859.10145  23068549.928          41.000  
        20.000  
  22304508.072   117210998.80806  91333249.02646  22304507.692          46.000  
        26.000  
  23613564.724   124090126.58606  96693605.66847  23613567.384          43.000  
        33.000  
  23030972.008   123329824.84706                                        44.000  

  19999220.688   106907312.04807  83150137.75947  19999216.808          52.000  
        34.000  
  21219741.260   113232615.43403                                        36.000  

  22939103.588   122536570.05206  95306224.26546  22939100.188          44.000  
        27.000  
  20287828.288   108488136.77504  84379661.94047  20287826.668          39.000  
        33.000  
  20661240.484   110562484.41607  85993030.57646  20661236.444          50.000  
        26.000  
 21 12 21 00 41 30.0000000  0 13G08G10G16G18G21G23G32R04R05R06R12R20
                                R21
  21187119.620   111339057.10306  86757717.99047  21187121.980          46.000  
        43.000  
  20732705.962   108951127.89407  84896987.55748  20732708.422          51.000  
        47.000  
  23062190.088   121192623.29006  94435807.38946  23062190.248          44.000  
        23.000  
  24502705.958   128762617.19903 100334513.55045  24502706.678          37.000  
        17.000  
  23056584.088   121163165.42405  94412854.72346  23056581.948          42.000  
        21.000  
  22320355.812   117294280.40006  91398143.77546  22320355.812          45.000  
        27.000  
  23596273.944   123999261.94605  96622802.09647  23596277.064          42.000  
        33.000  
  23052001.748   123442434.37006                                        44.000  

  20002334.248   106923951.97208  83163079.92047  20002329.648          53.000  
        33.000  
  21198391.480   113118689.15903                                        37.000  

  22935634.228   122518036.82706  95291809.52946  22935630.488          44.000  
        26.000  
  20295117.028   108527107.31705  84409972.36047  20295114.148          40.000  
        33.000  
  20648976.924   110496861.42207  85941990.47846  20648973.384          50.000  
        27.000  
 21 12 21 00 42 00.0000000  0 13G08G10G16G18G21G23G32R04R05R06R12R20
                                R21
  21176436.060   111282915.99806  86713971.66847  21176438.620          47.000  
        42.000  
  20737386.822   108975724.24007  84916153.54748  20737388.802          51.000  
        47.000  
  23080695.088   121289866.97806  94511581.69846  23080694.928          44.000  
        24.000  
  24519456.438   128850642.57003 100403104.76245  24519457.838          36.000  
        16.000  
  23044640.828   121100408.84505  94363953.49946  23044640.008          42.000  
        22.000  
  22336258.372   117377848.07606  91463261.45346  22336258.252          45.000  
        26.000  
  23579014.964   123908565.20005  96552129.31247  23579017.784          42.000  
        33.000  
  23073100.708   123555418.45706                                        44.000  

  20005601.288   106941417.94307  83176664.56847  20005596.608          52.000  
        34.000  
  21177120.800   113005188.61503                                        37.000  

  22932304.428   122500254.13106  95277978.51246  22932302.308          44.000  
        25.000  
  20302465.188   108566409.17805  84440540.46547  20302463.848          40.000  
        32.000  
  20636751.864   110431443.59307  85891109.94246  20636748.804          50.000  
        26.000  
 21 12 21 00 42 30.0000000  0 13G08G10G16G18G21G23G32R04R05R06R12R20
                                R21
  21165825.740   111227157.35006  86670523.37147  21165828.180          47.000  
        43.000  
  20742158.662   109000801.56907  84935694.32348  20742160.922          51.000  
        47.000  
  23099244.046   121387343.88706  94587537.69246  23099244.266          43.000  
        23.000  
  24536213.758   128938701.87403 100471722.34345  24536213.698          36.000  
        17.000  
  23032723.448   121037785.30205  94315155.97245  23032722.888          41.000  
        20.000  
  22352214.912   117461699.47406  91528600.19746  22352214.872          45.000  
        27.000  
  23561788.164   123818039.33606  96481589.68747  23561791.404          43.000  
        34.000  
  23094267.268   123668773.05706                                        43.000  

  20009023.208   106959708.67907  83190890.70547  20009018.288          52.000  
        34.000  
  21155932.680   112892117.87303                                        37.000  

  22929116.388   122483222.17206  95264731.46646  22929113.568          44.000  
        25.000  
  20309878.708   108606043.25304  84471366.96247  20309875.448          39.000  
        33.000  
  20624565.804   110366232.70007  85840390.38046  20624562.624          50.000  
        28.000  
 21 12 21 00 43 00.0000000  0 13G08G10G16G18G21G23G32R04R05R06R12R20
                                R21
  21155288.300   111171782.98906  86627374.51247  21155290.620          47.000  
        42.000  
  20747022.242   109026358.68507  84955608.96348  20747024.102          51.000  
        47.000  
  23117837.066   121485050.91905  94663673.03346  23117837.206          42.000  
        23.000  
  24552976.758   129026794.86903 100540366.24745  24552978.538          37.000  
        17.000  
  23020831.788   120975294.81405  94266462.08346  23020831.628          41.000  
        21.000  
  22368224.992   117545832.45506  91594158.36846  22368225.132          45.000  
        27.000  
  23544595.344   123727687.61406  96411185.79747  23544598.124          43.000  
        33.000  
  23115505.168   123782494.34806                                        45.000  

  20012598.868   106978823.88507  83205758.09147  20012594.148          52.000  
        33.000  
  21134825.120   112779481.25303                                        37.000  

  22926069.088   122466941.79306  95252068.96446  22926065.228          44.000  
        25.000  
  20317351.608   108646010.09805  84502452.29947  20317350.028          40.000  
        33.000  
  20612418.304   110301230.48007  85789833.07946  20612415.104          49.000  
        27.000  
 21 12 21 00 43 30.0000000  0 13G08G10G16G18G21G23G32R04R05R06R12R20
                                R21
  21144824.640   111116793.73006  86584525.74147  21144826.720          47.000  
        42.000  
  20751976.502   109052393.77807  84975896.06348  20751978.562          51.000  
        47.000  
  23136473.226   121582985.23406  94739985.47046  23136472.926          43.000  
        22.000  
  24569746.838   129114920.72903 100609035.72445  24569748.138          37.000  
        18.000  
  23008965.008   120912936.85005  94217871.47846  23008965.168          41.000  
        21.000  
  22384287.752   117630244.17406  91659933.72346  22384287.872          45.000  
        27.000  
  23527435.584   123637512.58506  96340919.55147  23527437.544          43.000  
        34.000  
  23136808.388   123896577.95306                                        43.000  

  20016328.888   106998761.70407  83221265.28847  20016324.268          52.000  
        35.000  
  21113798.800   112667282.14604                                        38.000  
                
  22923162.708   122451412.76606  95239990.79246  22923158.748          45.000  
        25.000  
  20324888.288   108686309.82405  84533796.47447  20324885.868          40.000  
        33.000  
  20600310.744   110236438.13207  85739439.04046  20600307.544          49.000  
        27.000  
 21 12 21 00 44 00.0000000  0 13G08G10G16G18G21G23G32R04R05R06R12R20
                                R21
  21134434.340   111062192.74007  86541979.51747  21134436.580          48.000  
        43.000  
  20757021.582   109078905.63707  84996554.66548  20757023.622          51.000  
        47.000  
  23155152.546   121681143.78906  94816472.64246  23155153.466          43.000  
        23.000  
  24586522.356   129203079.28203 100677730.51645  24586523.856          36.000  
        15.000  
  22997124.768   120850711.64406  94169384.31045  22997123.628          43.000  
        20.000  
  22400403.172   117714932.38406  91725924.52646  22400403.472          45.000  
        26.000  
  23510309.164   123547517.41805  96270793.46247  23510312.524          42.000  
        33.000  
  23158179.528   124011019.84206                                        43.000  

  20020212.188   107019520.74807  83237411.23447  20020208.048          52.000  
        34.000  
  21092854.960   112555524.65203                                        37.000  
                
  22920396.088   122436635.71206  95228497.55746  22920392.168          43.000  
        25.000  
  20332486.488   108726943.11404  84565400.14347  20332484.408          39.000  
        32.000  
  20588242.464   110171857.56307  85689209.70246  20588238.884          49.000  
        28.000  
 21 12 21 00 44 30.0000000  0 13G08G10G16G18G21G23G32R04R05R06R12R20
                                R21
  21124118.120   111007981.73907  86499737.18747  21124120.300          48.000  
        43.000  
  20762156.882   109105892.84807  85017583.66448  20762159.082          50.000  
        47.000  
  23173873.346   121779523.50305  94893132.14446  23173873.666          42.000  
        23.000  
  24603305.376   129291270.10702 100746450.70545  24603307.016          34.000  
        15.000  
  22985308.728   120788619.42705  94121000.77946  22985308.328          42.000  
        22.000  
  22416570.872   117799894.74606  91792128.97046  22416570.772          44.000  
        26.000  
  23493219.304   123457705.02505  96200809.81547  23493221.484          42.000  
        34.000  
  23179618.168   124125816.07606                                        43.000  

  20024248.868   107041099.98207  83254195.08147  20024244.388          52.000  
        33.000  
  21071994.500   112444212.73903                                        36.000  

  22917769.688   122422610.91706  95217589.39746  22917766.328          45.000  
        23.000  
  20340148.448   108767910.26604  84597263.48047  20340145.288          39.000  
        32.000  
  20576213.224   110107490.25507  85639146.26846  20576209.764          49.000  
        27.000  
 21 12 21 00 45 00.0000000  0 13G08G10G16G18G21G23G32R04R05R06R12R20
                                R21
  21113876.600   110954162.86807  86457800.39847  21113879.100          48.000  
        43.000  
  20767382.642   109133354.05007  85038982.01248  20767384.862          50.000  
        47.000  
  23192636.286   121878121.01105  94969961.36146  23192635.766          41.000  
        22.000  
  24620093.396   129379493.04900 100815165.99542  24620093.916          32.000  
        14.000  
  22973518.368   120726660.39606  94072721.03346  22973517.828          43.000  
        23.000  
  22432790.352   117885128.94906  91858545.23246  22432790.852          45.000  
        25.000  
  23476164.164   123368078.63705  96130971.08847  23476166.144          41.000  
        33.000  
  23201120.588   124240962.46205                                        42.000  
                
  20028439.728   107063498.32107  83271616.02547  20028434.628          52.000  
        34.000  
  21051218.980   112333350.59403                                        37.000  

  22915285.008   122409338.57406  95207266.46046  22915282.288          43.000  
        28.000  
  20347869.948   108809211.62804  84629386.77046  20347868.408          39.000  
        31.000  
  20564224.484   110043338.09207  85589250.14346  20564221.764          50.000  
        29.000  
 21 12 21 00 45 30.0000000  0 13G08G10G16G18G21G23G32R04R05R06R12R20
                                R21
  21103710.340   110900737.58707  86416170.31347  21103712.680          49.000  
        43.000  
  20772699.022   109161287.71707  85060748.49948  20772700.482          51.000  
        47.000  
  23211439.666   121976933.70805  95046958.24646  23211439.706          42.000  
        22.000  
  24636887.636   129467718.54610                                        32.000  
                
  22961752.948   120664834.26006  94024544.83246  22961752.748          43.000  
        23.000  
  22449061.452   117970632.48806  91925171.38746  22449061.052          44.000  
        26.000  
  23459144.964   123278640.98705  96061279.43247  23459146.824          42.000  
        34.000  
  23222688.268   124356454.92306                                        43.000  
                
  20032782.948   107086714.06807  83289672.71947  20032777.708          52.000  
        34.000  
  21030529.260   112222941.85703                                        37.000  

  22912942.068   122396819.09106  95197529.11146  22912939.428          44.000  
        28.000  
  20355657.488   108850847.45004  84661770.16846  20355654.728          38.000  
        31.000  
  20552276.984   109979402.65307  85539522.59246  20552273.984          50.000  
        27.000  
 21 12 21 00 46 00.0000000  0 13G08G10G16G18G21G23G32R04R05R06R12R20
                                R21
  21093618.960   110847708.22307  86374848.73747  21093621.540          48.000  
        43.000  
  20778103.522   109189692.17407  85082881.84048  20778105.682          51.000  
        47.000  
  23230282.506   122075958.23005  95124120.19446  23230283.346          41.000  
        23.000  
  24653687.956   129556003.75202                                        34.000  
                
  22950013.328   120603141.07406  93976472.23546  22950012.988          43.000  
        22.000  
  22465382.412   118056402.78906  91992005.36746  22465383.052          44.000  
        27.000  
  23442160.944   123189394.95105  95991737.07747  23442163.924          42.000  
        34.000  
  23244318.288   124472289.26105                                        42.000  
                
  20037277.808   107110745.46807  83308363.83147  20037272.968          52.000  
        33.000  
  21009923.260   112112990.33903                                        36.000  

  22910738.548   122385052.43806  95188377.24546  22910735.768          44.000  
        26.000  
  20363506.928   108892817.80404  84694413.77547  20363503.728          39.000  
        32.000  
  20540369.984   109915685.39307  85489964.71146  20540367.084          49.000  
        28.000  
 21 12 21 00 46 30.0000000  0 12G08G10G16G21G23G32R04R05R06R12R20R21
  21083603.260   110795076.33607  86333836.87747  21083605.780          49.000  
        43.000  
  20783597.922   109218565.82707  85105380.80148  20783600.182          51.000  
        47.000  
  23249167.246   122175192.32006  95201445.46646  23249166.646          43.000  
        22.000  
  22938300.108   120541580.89506  93928503.30046  22938298.468          43.000  
        22.000  
  22481754.812   118142437.36706  92059045.29046  22481755.092          45.000  
        26.000  
  23425215.964   123100343.40405  95922346.28147  23425218.204          42.000  
        34.000  
  23266013.228   124588461.27606                                        43.000  
                
  20041925.768   107135591.44607  83327688.47747  20041920.588          51.000  
        34.000  
  20989405.800   112003499.85403                                        37.000  

  22908677.568   122374038.48006  95179810.85446  22908673.628          43.000  
        24.000  
  20371416.888   108935123.07304  84727317.86547  20371414.808          39.000  
        32.000  
  20528504.344   109852187.82107  85440577.73646  20528501.164          50.000  
        27.000  
 21 12 21 00 47 00.0000000  0 14G01G08G10G16G18G21G23G32R04R05R06R12
                                R20R21
  25011508.434   131436360.24601                                        33.000  
                
  21073664.200   110742844.27407  86293136.56747  21073666.320          48.000  
        43.000  
  20789181.642   109247907.58007  85128244.50748  20789183.682          50.000  
        47.000  
  23268089.786   122274632.39805  95278931.19746  23268090.606          42.000  
        23.000  
  24687304.136   129732657.71000                                        29.000  
                
  22926609.648   120480153.94805  93880638.18746  22926609.168          42.000  
        22.000  
  22498176.590   118228734.21706  92126289.57446  22498177.150          44.000  
        26.000  
  23408306.744   123011489.65605  95853109.59947  23408309.624          41.000  
        33.000  
  23287770.288   124704967.20305                                        42.000  
                
  20046725.868   107161250.45907  83347645.49147  20046720.528          51.000  
        33.000  
  20968974.584   111894474.66303                                        37.000  

  22906757.148   122363777.53806  95171830.13546  22906752.988          44.000  
        26.000  
  20379392.208   108977764.02504  84760483.03947  20379389.068          39.000  
        33.000  
  20516679.624   109788911.97207  85391363.18246  20516676.344          50.000  
        29.000  
 21 12 21 00 47 30.0000000  0 13G01G08G10G16G21G23G32R04R05R06R12R20
                                R21
  24993483.334   131341646.26201                                        33.000  

  21063801.400   110691014.26607  86252749.55647  21063803.500          48.000  
        43.000  
  20794853.942   109277716.06007  85151471.89148  20794856.022          51.000  
        47.000  
  23287051.506   122374275.11906  95356574.87046  23287051.226          43.000  
        23.000  
  22914946.488   120418860.17306  93832876.83746  22914944.928          43.000  
        22.000  
  22514647.750   118315291.04406  92193736.44046  22514647.910          43.000  
        26.000  
  23391437.004   122922836.81105  95784029.48247  23391439.384          42.000  
        33.000  
  23309588.108   124821803.02605                                        41.000  

  20051677.568   107187721.31007  83368233.94047  20051673.008          52.000  
        34.000  
  20948630.044   111785918.59403                                        37.000  

  22904976.108   122354269.96206  95164435.36146  22904973.788          43.000  
        26.000  
  20387428.064   109020741.40904  84793909.88146  20387426.264          38.000  
        31.000  
  20504895.844   109725859.84707  85342322.66146  20504893.384          49.000  
        27.000  
 21 12 21 00 48 00.0000000  0 14G01G08G10G16G18G21G23G32R04R05R06R12
                                R20R21
  24975468.934   131246971.89502                                        35.000  
                
  21054015.360   110639587.77407  86212676.96747  21054017.560          48.000  
        43.000  
  20800614.662   109307989.34907  85175061.47848  20800616.842          50.000  
        47.000  
  23306050.626   122474118.47306  95434374.84346  23306050.546          43.000  
        22.000  
  24720946.016   129909448.81400                                        29.000  
                
  22903308.328   120357699.43506  93785219.14946  22903306.548          43.000  
        23.000  
  22531167.790   118402105.07106  92261383.73446  22531167.990          44.000  
        25.000  
  23374605.506   122834387.43805  95715107.91147  23374608.466          42.000  
        34.000  
  23331466.728   124938964.53005                                        41.000  

  20056780.448   107215001.74407  83389452.07147  20056776.948          52.000  
        34.000  
  20928376.424   111677835.31904                                        38.000  
                
  22903337.208   122345515.58906  95157626.39646  22903334.548          43.000  
        26.000  
  20395528.644   109064054.91504  84827598.14847  20395525.864          39.000  
        32.000  
  20493155.344   109663032.65307  85293457.06846  20493152.064          49.000  
        28.000  
 21 12 21 00 48 30.0000000  0 14G01G08G10G16G18G21G23G32R04R05R06R12
                                R20R21
  24957460.094   131152337.80503                                        37.000  
                
  21044306.020   110588567.00607  86172920.52647  21044308.320          49.000  
        43.000  
  20806463.982   109338726.08907  85199012.18648  20806465.962          50.000  
        47.000  
  23325087.666   122574158.89906  95512328.42846  23325088.486          43.000  
        22.000  
  24737776.656   129997893.70410                                        27.000  
                
  22891694.548   120296672.14006  93737665.41946  22891693.888          43.000  
        24.000  
  22547736.230   118489174.09306  92329229.73746  22547736.730          44.000  
        24.000  
  23357813.666   122746144.67706  95646347.33147  23357816.206          43.000  
        33.000  
  23353407.408   125056447.61005                                        41.000  

  20062035.148   107243090.72407  83411299.07147  20062031.488          51.000  
        35.000  
  20908211.204   111570228.84303                                        37.000  
                
  22901840.788   122337514.03106  95151402.97246  22901836.088          44.000  
        25.000  
  20403691.524   109107705.14204  84861548.32547  20403689.004          39.000  
        32.000  
  20481457.824   109600432.20507  85244767.83946  20481454.124          49.000  
        29.000  
 21 12 21 00 49 00.0000000  0 14G01G08G10G16G18G21G23G32R04R05R06R12
                                R20R21
  24939460.134   131057744.11104                                        38.000  
                
  21034674.600   110537953.63607  86133481.53247  21034676.840          49.000  
        43.000  
  20812400.562   109369924.58007  85223322.70548  20812402.762          50.000  
        47.000  
  23344161.366   122674393.04605  95590432.95246  23344161.066          42.000  
        21.000  
  24754608.316   130086344.43800                                        30.000  
                
  22880106.228   120235778.19806  93690215.61446  22880105.948          43.000  
        23.000  
  22564352.890   118576495.56706  92397272.43246  22564353.430          44.000  
        26.000  
  23341061.386   122658111.32005  95577749.93047  23341063.406          42.000  
        33.000  
  23375404.768   125174248.15804                                        39.000  
                
  20067440.368   107271986.02907  83433773.19447  20067436.668          50.000  
        35.000  
  20888134.864   111463102.87803                                        37.000  

  22900482.348   122330265.64306  95145765.33246  22900480.208          43.000  
        26.000  
  20411917.424   109151692.41504  84895760.64946  20411914.684          39.000  
        31.000  
  20469801.544   109538060.02607  85196256.13446  20469798.384          49.000  
        28.000  
 21 12 21 00 49 30.0000000  0 13G01G08G10G16G21G23G32R04R05R06R12R20
                                R21
  24921466.694   130963191.65003 102049242.25345  24921471.394          37.000  
        16.000  
  21025121.440   110487749.37607  86094361.33247  21025123.400          49.000  
        43.000  
  20818424.942   109401583.59607  85247992.06648  20818427.122          50.000  
        47.000  
  23363272.006   122774818.70506  95668686.69446  23363272.586          43.000  
        21.000  
  22868543.908   120175017.73305  93642869.82446  22868543.668          42.000  
        23.000  
  22581017.650   118664067.42806  92465510.24246  22581017.870          45.000  
        25.000  
  23324349.926   122570290.67006  95509318.27747  23324352.046          45.000  
        35.000  
  23397461.184   125292362.38705                                        40.000  
                
  20072995.608   107301686.37307  83456873.47447  20072993.048          51.000  
        35.000  
  20868151.424   111356461.27104                                        38.000  
                
  22899266.948   122323770.24306  95140713.33646  22899263.848          43.000  
        25.000  
  20420205.184   109196017.33305  84930235.57447  20420203.804          40.000  
        32.000  
  20458189.984   109475918.35307  85147923.73446  20458186.184          49.000  
        28.000  
 21 12 21 00 50 00.0000000  0 13G01G08G10G16G21G23G32R04R05R06R12R20
                                R21
  24903482.094   130868680.52303 101975597.22145  24903486.374          37.000  
        16.000  
  21015645.860   110437956.23907  86055561.48947  21015648.180          49.000  
        43.000  
  20824536.722   109433701.11707  85273018.71248  20824539.002          51.000  
        47.000  
  23382417.926   122875432.67306  95747087.18246  23382417.646          44.000  
        22.000  
  22857007.228   120114390.63006  93595627.97546  22857007.228          43.000  
        24.000  
  22597729.010   118751886.90606  92533940.99146  22597729.250          44.000  
        25.000  
  23307678.626   122482685.28706  95441054.35747  23307681.046          44.000  
        34.000  
  23419577.344   125410785.65705                                        40.000  

  20078702.188   107332189.56307  83480598.17947  20078699.028          50.000  
        34.000  
  20848256.764   111250307.73403                                        37.000  
                
  22898190.968   122318027.25105  95136246.56946  22898188.688          42.000  
        26.000  
  20428558.044   109240679.87205  84964973.10347  20428555.924          40.000  
        32.000  
  20446619.884   109414008.32507  85099771.49846  20446616.184          49.000  
        29.000  
 21 12 21 00 50 30.0000000  0 13G01G08G10G16G21G23G32R04R05R06R12R20
                                R21
  24885504.694   130774211.38903 101901984.94645  24885509.514          37.000  
        16.000  
  21006249.180   110388576.21807  86017083.54447  21006251.440          49.000  
        43.000  
  20830735.982   109466276.03107  85298401.76248  20830737.942          51.000  
        47.000  
  23401599.984   122976230.88806  95825631.25445  23401599.044          43.000  
        20.000  
  22845496.128   120053897.20806  93548490.23846  22845494.428          43.000  
        25.000  
  22614487.150   118839951.99606  92602563.12546  22614487.370          43.000  
        25.000  
  23291049.546   122395298.50906  95372960.77247  23291051.346          44.000  
        34.000  
  23441749.644   125529514.61005                                        40.000  

  20084558.368   107363494.48407  83504946.44947  20084555.788          50.000  
        35.000  
  20828456.744   111144646.23803                                        37.000  

  22897257.928   122313036.98406  95132365.22746  22897254.548          44.000  
        24.000  
  20436973.344   109285680.64004  84999973.68547  20436971.104          38.000  
        32.000  
  20435093.904   109352332.25207  85051801.22946  20435090.344          49.000  
        30.000  
 21 12 21 00 51 00.0000000  0 13G01G08G10G16G21G23G32R04R05R06R12R20
                                R21
  24867536.456   130679784.55804 101828405.58745  24867540.556          38.000  
        16.000  
  20996931.540   110339611.85207  85978929.48747  20996933.680          49.000  
        43.000  
  20837021.262   109499306.55907  85324139.83148  20837023.342          52.000  
        47.000  
  23420815.424   123077211.99106  95904317.78745  23420815.384          43.000  
        20.000  
  22834010.248   119993537.43706  93501456.66246  22834008.748          44.000  
        23.000  
  22631291.630   118928260.19706  92671374.72146  22631291.950          45.000  
        23.000  
  23274462.526   122308133.14106  95305039.72647  23274465.266          43.000  
        35.000  
  23463975.804   125648544.85105                                        40.000  

  20090564.068   107395599.09007  83529916.70047  20090561.548          50.000  
        34.000  
  20808749.284   111039480.63504                                        38.000  
                
  22896464.828   122308799.15506  95129069.14846  22896460.848          43.000  
        23.000  
  20445451.604   109331019.94104  85035237.58047  20445449.604          39.000  
        32.000  
  20423613.004   109290891.41207  85004013.92446  20423608.884          50.000  
        29.000  
 21 12 21 00 51 30.0000000  0 13G01G08G10G16G21G23G32R04R05R06R12R20
                                R21
  24849574.936   130585400.56303 101754859.67845  24849580.236          36.000  
        16.000  
  20987693.580   110291064.27107  85941100.21347  20987695.360          49.000  
        43.000  
  20843393.142   109532791.01407  85350231.62348  20843395.402          52.000  
        47.000  
  23440065.944   123178372.27706  95983143.97445  23440065.184          44.000  
        20.000  
  22822549.948   119933311.06006  93454527.04846  22822547.908          45.000  
        24.000  
  22648142.310   119016809.07206  92740373.85246  22648141.970          45.000  
        24.000  
  23257917.986   122221192.08206  95237293.45047  23257920.906          44.000  
        34.000  
  23486259.104   125767872.10504                                        38.000  
                
  20096719.168   107428501.05307  83555507.10947  20096716.568          49.000  
        35.000  
  20789133.524   110934814.48404                                        38.000  

  22895810.628   122305313.23806  95126357.86946  22895808.308          43.000  
        24.000  
  20453995.444   109376697.58705  85070764.62546  20453991.384          40.000  
        31.000  
  20412175.304   109229687.89307  84956411.19546  20412171.784          49.000  
        30.000  
 21 12 21 00 52 00.0000000  0 13G01G08G10G16G21G23G32R04R05R06R12R20
                                R21
  24831623.516   130491059.85404 101681347.50945  24831627.856          38.000  
        15.000  
  20978534.902   110242935.95807  85903597.61747  20978536.722          49.000  
        43.000  
  20849851.302   109566727.94907  85376675.98448  20849853.202          51.000  
        47.000  
  23459349.124   123279708.15906  96062106.99646  23459349.484          43.000  
        21.000  
  22811113.308   119873218.27906  93407701.48646  22811112.888          44.000  
        24.000  
  22665037.870   119105596.35606  92809558.74346  22665037.650          45.000  
        25.000  
  23241417.386   122134478.29206  95169724.28847  23241418.846          44.000  
        33.000  
  23508598.844   125887492.82904                                        38.000  

  20103022.628   107462198.57507  83581716.28947  20103020.588          49.000  
        35.000  
  20769614.484   110830651.66404                                        38.000  

  22895299.468   122302578.93906  95124231.20946  22895296.748          43.000  
        24.000  
  20462599.544   109422714.41304  85106555.49646  20462597.004          39.000  
        31.000  
  20400782.544   109168723.31507  84908994.30646  20400779.704          49.000  
        28.000  
 21 12 21 00 52 30.0000000  0 13G01G08G10G16G21G23G32R04R05R06R12R20
                                R21
  24813679.296   130396762.79103 101607869.26245  24813683.476          37.000  
        16.000  
  20969456.202   110195228.37307  85866422.87447  20969458.542          48.000  
        43.000  
  20856395.242   109601115.64007  85403471.59948  20856397.022          51.000  
        47.000  
  23478666.024   123381217.40306  96141205.07046  23478666.244          43.000  
        21.000  
  22799703.668   119813259.39606  93360980.29846  22799703.648          45.000  
        25.000  
  22681978.150   119194619.65306  92878927.55446  22681978.670          44.000  
        25.000  
  23224959.586   122047994.76806  95102334.52547  23224962.766          44.000  
        34.000  
  23530990.844   126007402.57403                                        37.000  
                
  20109475.888   107496690.21007  83608543.10847  20109473.188          49.000  
        35.000  
  20750188.404   110726995.86703                                        37.000  
                
  22894928.308   122300596.18606  95122689.03946  22894925.688          44.000  
        24.000  
  20471268.384   109469070.65204  85142610.33346  20471266.064          38.000  
        31.000  
  20389434.724   109107999.41107  84861764.60446  20389431.304          50.000  
        29.000  
 21 12 21 00 53 00.0000000  0 14G01G08G10G16G21G23G32R04R05R06R12R20
                                R21R22
  24795742.736   130302509.85903 101534425.43145  24795747.176          37.000  
        16.000  
  20960458.202   110147943.77707  85829577.72847  20960460.602          49.000  
        43.000  
  20863023.902   109635952.52407  85430617.21748  20863026.102          51.000  
        47.000  
  23498014.624   123482896.62206  96220435.63446  23498015.484          43.000  
        23.000  
  22788319.268   119753434.54906  93314363.52946  22788319.448          45.000  
        26.000  
  22698963.910   119283876.60906  92948478.40246  22698963.830          45.000  
        24.000  
  23208547.386   121961744.45906  95035126.51347  23208549.666          44.000  
        35.000  
  23553436.084   126127597.76104                                        38.000  
                
  20116077.248   107531973.67607  83635985.79747  20116073.288          50.000  
        35.000  
  20730859.544   110623850.90604                                        38.000  
                
  22894697.668   122299364.54706                                        43.000  

  20480000.744   109515766.82404  85178929.55447  20479998.824          39.000  
        33.000  
  20378132.108   109047518.10607  84814723.58146  20378128.908          50.000  
        30.000  
  23754729.544   126804356.13400                                        30.000  
                
 21 12 21 00 53 30.0000000  0 14G01G08G10G16G21G23G32R04R05R06R12R20
                                R21R22
  24777815.856   130208301.51703 101461016.45845  24777820.256          37.000  
        16.000  
  20951541.302   110101083.46407  85793063.19848  20951543.502          49.000  
        44.000  
  20869738.202   109671236.89707  85458111.54048  20869740.542          50.000  
        46.000  
  23517395.724   123584742.90906  96299796.39646  23517395.224          43.000  
        21.000  
  22776960.950   119693743.64706  93267851.17746  22776960.690          45.000  
        25.000  
  22715992.230   119373364.87806  93018209.52346  22715992.710          45.000  
        25.000  
  23192179.206   121875730.26706  94968102.46747  23192181.646          44.000  
        35.000  
  23575934.684   126248073.96903                                        37.000  
                
  20122825.288   107568046.88807  83664042.74947  20122821.748          50.000  
        36.000  
  20711626.904   110521220.38603                                        37.000  
                
  22894607.488   122298883.18706                                        44.000  

  20488797.084   109562803.05004  85215513.26747  20488794.384          39.000  
        32.000  
  20366875.508   108987281.09907  84767872.58646  20366871.788          50.000  
        31.000  
  23736042.064   126704605.33200                                        32.000  

 21 12 21 00 54 00.0000000  0 14G01G08G10G16G21G23G32R04R05R06R12R20
                                R21R22
  24759896.536   130114138.20003 101387642.44345  24759901.496          37.000  
        15.000  
  20942704.942   110054649.64207  85756880.99347  20942707.282          49.000  
        43.000  
  20876537.562   109706967.11007  85485953.26848  20876540.082          51.000  
        47.000  
  23536808.364   123686752.94306  96379284.70146  23536807.444          43.000  
        21.000  
  22765628.050   119634186.49006  93221443.00946  22765626.590          47.000  
        26.000  
  22733065.050   119463082.08406  93088119.02346  22733065.270          45.000  
        23.000  
  23175857.146   121789955.13706  94901264.71447  23175859.426          44.000  
        35.000  
  23598484.404   126368827.27903                                        36.000  

  20129721.168   107604907.57907  83692712.16947  20129717.228          51.000  
        35.000  
  20692490.324   110419107.99504                                        38.000  
                
  22894659.068   122299151.92606                                        43.000  

  20497656.304   109610179.28104  85252361.43446  20497654.164          39.000  
        31.000  
  20355664.908   108927290.15407  84721212.96246  20355661.208          50.000  
        28.000  
  23717347.564   126604813.96102                                        35.000  
                
 21 12 21 00 54 30.0000000  0 14G01G08G10G16G21G23G32R04R05R06R12R20
                                R21R22
  24741987.056   130020020.42203 101314298.96245  24741991.496          37.000  
        15.000  
  20933950.182   110008644.15307  85721032.55448  20933952.722          49.000  
        44.000  
  20883421.102   109743141.64207  85514141.21148  20883423.842          51.000  
        47.000  
  23556250.164   123788924.59305  96458898.95946  23556249.824          42.000  
        21.000  
  22754319.590   119574763.48706  93175139.36446  22754318.790          46.000  
        26.000  
  22750180.830   119553026.00206  93158205.19546  22750180.870          45.000  
        26.000  
  23159580.226   121704422.08805  94834615.59947  23159582.846          42.000  
        35.000  
  23621085.424   126489853.69703                                        37.000  

  20136763.148   107642554.38707  83721993.01947  20136760.008          51.000  
        35.000  
  20673451.204   110317517.61904                                        38.000  

  22894850.208   122300170.43806                                        44.000  

  20506579.244   109657896.18404  85289474.57547  20506577.364          39.000  
        32.000  
  20344499.968   108867547.28507  84674746.30146  20344496.988          49.000  
        30.000  
  23698645.644   126504982.90400                                        32.000  
                
 21 12 21 00 55 00.0000000  0 14G01G08G10G16G21G23G32R04R05R06R12R20
                                R21R22
  24724084.376   129925948.67403 101240996.25242  24724090.336          36.000  
        14.000  
  20925277.922   109963068.57607  85685519.12147  20925279.742          49.000  
        43.000  
  20890389.642   109779758.74507  85542674.01748  20890391.622          51.000  
        47.000  
  23575722.944   123891254.47405  96538636.53546  23575722.544          42.000  
        21.000  
  22743037.770   119515474.83206  93128940.45146  22743036.730          46.000  
        25.000  
  22767339.030   119643194.22606  93228466.14546  22767339.270          44.000  
        25.000  
  23143350.826   121619134.07106  94768157.42247  23143353.166          43.000  
        36.000  
  23643736.044   126611149.40803                                        37.000  

  20143952.688   107680984.55107  83751883.15347  20143949.228          52.000  
        35.000  
  20654512.964   110216452.77504                                        38.000  

  22895179.828   122301937.71206                                        44.000  

  20515566.944   109705954.04304  85326852.89946  20515564.604          39.000  
        31.000  
  20333383.008   108808054.11707  84628473.82346  20333379.388          50.000  
        30.000  
  23679936.844   126405113.05901                                        33.000  
                
 21 12 21 00 55 30.0000000  0 14G01G08G10G16G21G23G32R04R05R06R12R20
                                R21R22
  24706193.196   129831923.39103 101167729.84942  24706198.036          36.000  
        14.000  
  20916687.462   109917925.06507  85650342.35347  20916689.422          49.000  
        43.000  
  20897441.522   109816816.81907  85571550.44848  20897443.462          51.000  
        47.000  
  23595225.304   123993739.34005  96618494.85045  23595224.924          42.000  
        20.000  
  22731780.570   119456320.39806  93082846.08946  22731779.230          46.000  
        25.000  
  22784539.508   119733584.54606  93298900.16746  22784540.648          44.000  
        25.000  
  23127167.586   121534094.01106  94701892.45047  23127170.726          44.000  
        36.000  
  23666438.564   126732710.20604                                        38.000  
                
  20151287.768   107720196.22807  83782381.12447  20151284.508          52.000  
        35.000  
  20635673.904   110115917.36704                                        38.000  

  22895651.108   122304453.57306                                        45.000  

  20524618.944   109754353.09704  85364496.59547  20524615.764          39.000  
        32.000  
  20322311.788   108748812.73407  84582397.20846  20322308.348          50.000  
        29.000  
  23661221.884   126305205.22402                                        34.000  
                
 21 12 21 00 56 00.0000000  0 14G01G08G10G16G21G23G32R04R05R06R12R20
                                R21R22
  24688308.756   129737945.12902 101094503.09845  24688314.556          34.000  
        16.000  
  20908179.442   109873215.83007  85615503.98247  20908181.522          48.000  
        43.000  
  20904576.762   109854314.35307  85600769.30448  20904579.082          51.000  
        47.000  
  23614756.544   124096376.85106  96698472.15446  23614755.504          43.000  
        21.000  
  22720549.430   119397300.52206  93036856.58146  22720549.010          45.000  
        26.000  
  22801782.288   119824194.72106  93369505.47346  22801783.308          45.000  
        25.000  
  23111033.166   121449304.99606  94635823.10747  23111035.366          45.000  
        35.000  
  23689185.184   126854532.30602                                        35.000  
                
  20158769.068   107760187.14407  83813485.17447  20158765.908          52.000  
        35.000  
  20616933.184   110015914.87604                                        38.000  

  22896261.328   122307717.24906                                        44.000  

  20533732.384   109803093.91904  85402406.11347  20533730.704          39.000  
        32.000  
  20311289.068   108689825.05907  84536517.88446  20311285.248          49.000  
        29.000  
  23642496.604   126205260.73101                                        33.000  
                
 21 12 21 00 56 30.0000000  0 14G01G08G10G16G21G23G32R04R05R06R12R20
                                R21R22
  24670434.696   129644014.16602 101021310.17645  24670440.096          35.000  
        15.000  
  20899754.302   109828942.08307  85581004.95447  20899756.482          49.000  
        43.000  
  20911795.602   109892249.24307  85630328.95648  20911797.842          51.000  
        47.000  
  23634315.584   124199163.40105  96778565.53245  23634316.324          42.000  
        20.000  
  22709343.670   119338414.94906  92990971.71146  22709343.310          46.000  
        27.000  
  22819066.548   119915022.11006  93440280.05846  22819067.088          44.000  
        25.000  
  23094946.666   121364769.63106  94569951.40047  23094949.026          45.000  
        36.000  
  23711985.624   126976611.41803                                        36.000  
                
  20166395.168   107800954.96507  83845193.49447  20166391.988          51.000  
        34.000  
  20598294.464   109916448.78804                                        38.000  

  22897011.848   122311728.13706                                        44.000  

  20542910.444   109852176.40604  85440581.36046  20542909.164          39.000  
        31.000  
  20300313.368   108631092.49707  84490837.02446  20300309.548          50.000  
        30.000  
  23623767.524   126105279.82101                                        33.000  

 21 12 21 00 57 00.0000000  0 14G01G08G10G16G21G23G32R04R05R06R12R20
                                R21R22
  24652568.536   129550131.11802 100948154.49342  24652573.896          34.000  
        13.000  
  20891412.922   109785106.14007  85546847.07147  20891414.842          49.000  
        43.000  
  20919097.622   109930620.13507  85660228.36748  20919099.662          51.000  
        47.000  
  23653903.764   124302095.75905  96858772.55446  23653903.444          42.000  
        21.000  
  22698164.490   119279663.77806  92945191.59246  22698163.530          46.000  
        25.000  
  22836391.188   120006064.74006  93511222.36446  22836391.268          44.000  
        25.000  
  23078909.168   121280491.08806  94504279.84747  23078911.408          43.000  
        37.000  
  23734827.804   127098943.84800                                        32.000  
                
  20174166.728   107842497.69407  83877504.51347  20174162.788          52.000  
        35.000  
  20579754.204   109817523.04703                                        37.000  
                
  22897902.808   122316485.50306                                        45.000  

  20552153.644   109901600.92304  85479022.62847  20552151.704          39.000  
        32.000  
  20289385.168   108572617.25107  84445356.26846  20289382.048          50.000  
        30.000  
  23605031.684   126005263.97900                                        32.000  
                
 21 12 21 00 57 30.0000000  0 14G01G08G10G16G21G23G32R04R05R06R12R20
                                R21R22
  24634715.396   129456296.39603 100875036.70145  24634718.756          37.000  
        16.000  
  20883154.322   109741709.32407  85513031.36447  20883156.582          49.000  
        43.000  
  20926482.042   109969425.31107  85690466.15248  20926484.002          51.000  
        47.000  
  23673518.064   124405171.18805  96939091.06245  23673517.484          42.000  
        20.000  
  22687009.550   119221047.44706  92899516.54146  22687008.690          45.000  
        25.000  
  22853756.168   120097320.12606  93582330.44446  22853756.748          44.000  
        23.000  
  23062920.488   121196472.32006  94438810.70047  23062923.308          45.000  
        36.000  
  23757718.484   127221525.64201                                        33.000  
                
  20182083.428   107884812.74807  83910416.22847  20182078.388          52.000  
        33.000  
  20561317.884   109719141.11504                                        39.000  
                
  22898933.428   122321988.69706  95139334.64546  22898930.408          43.000  
        25.000  
  20561459.244   109951367.84304  85517730.23147  20561458.184          39.000  
        32.000  
  20278507.088   108514401.17107  84400077.11246  20278503.288          49.000  
        30.000  
  23586288.564   125905213.72300                                        32.000  

 21 12 21 00 58 00.0000000  0 14G01G08G10G16G21G23G32R04R05R06R12R20
                                R21R22
  24616867.216   129362510.37904 100801956.72745  24616870.956          38.000  
        16.000  
  20874980.842   109698753.54007  85479559.32247  20874982.562          49.000  
        43.000  
  20933948.462   110008662.70907  85721040.75648  20933950.602          51.000  
        47.000  
  23693160.122   124508387.55706  97019519.40246  23693159.082          43.000  
        21.000  
  22675880.990   119162565.74706  92853946.38546  22675880.250          45.000  
        26.000  
  22871161.188   120188785.86506  93653602.43246  22871161.948          44.000  
        22.000  
  23046982.028   121112715.92306  94373545.98747  23046984.448          44.000  
        35.000  
  23780654.784   127344352.66202                                        34.000  
                
  20190142.528   107927897.64207  83943926.70847  20190137.908          52.000  
        33.000  
  20542981.404   109621306.38304                                        38.000  

  22900102.668   122328236.54106  95144194.07746  22900100.088          43.000  
        27.000  
  20570830.604   110001477.54804  85556704.42746  20570829.064          39.000  
        30.000  
  20267676.288   108456445.75607  84355000.67846  20267672.568          50.000  
        28.000  
  23567540.024   125805129.93301                                        33.000  
                
 21 12 21 00 58 30.0000000  0 14G01G08G10G16G21G23G32R04R05R06R12R20
                                R21R22
  24599029.056   129268773.61103 100728915.09845  24599033.296          37.000  
        17.000  
  20866890.502   109656240.56807  85446432.32747  20866892.542          49.000  
        43.000  
  20941497.242   110048330.85907  85751951.00348  20941499.122          50.000  
        47.000  
  23712826.382   124611741.48805  97100054.91445  23712826.442          42.000  
        20.000  
  22664778.050   119104218.75706  92808481.20446  22664776.870          46.000  
        26.000  
  22888606.968   120280459.85106  93725036.68946  22888606.908          44.000  
        23.000  
  23031095.168   121029225.09106  94308488.23247  23031097.328          45.000  
        36.000  
  23803639.744   127467420.83903                                        37.000  
                
  20198346.648   107971750.13907  83978034.20447  20198341.528          51.000  
        32.000  
  20524752.384   109524022.45803                                        37.000  
                
  22901411.608   122335228.70106  95149632.38646  22901408.868          44.000  
        28.000  
  20580267.204   110051929.79504  85595945.05946  20580263.644          39.000  
        31.000  
  20256894.928   108398753.32907  84310128.79046  20256892.068          50.000  
        30.000  
  23548783.664   125705013.94000                                        30.000  
                
 21 12 21 00 59 00.0000000  0 14G01G08G10G16G21G23G32R04R05R06R12R20
                                R21R22
  24581201.458   129175086.76204 100655912.39345  24581205.798          39.000  
        16.000  
  20858885.022   109614172.15207  85413651.74148  20858887.222          49.000  
        44.000  
  20949127.142   110088428.18307  85783195.67148  20949129.242          51.000  
        46.000  
  23732519.442   124715229.41105  97180694.84845  23732520.322          41.000  
        20.000  
  22653700.490   119046006.80306  92763121.24246  22653700.030          45.000  
        25.000  
  22906091.848   120372339.90106  93796631.57346  22906091.248          45.000  
        23.000  
  23015257.808   120946002.81306  94243639.72047  23015260.228          45.000  
        36.000  
  23826665.104   127590726.57703                                        37.000  

  20206692.308   108016368.13607  84012737.08847  20206688.108          51.000  
        33.000  
  20506625.244   109427293.11704                                        38.000  
                
  22902859.448   122342964.22106  95155648.93146  22902856.828          44.000  
        25.000  
  20589763.884   110102725.47604  85635452.79747  20589762.624          39.000  
        32.000  
  20246163.768   108341325.64507  84265462.81646  20246160.168          50.000  
        29.000  
  23530022.724   125604866.92601                                        33.000  
                
 21 12 21 00 59 30.0000000  0 14G01G08G10G16G21G23G32R04R05R06R12R20
                                R21R22
  24563382.838   129081449.85204 100582948.54142  24563387.398          38.000  
        14.000  
  20850964.442   109572550.02707  85381218.91647  20850966.602          49.000  
        43.000  
  20956838.862   110128952.54607  85814773.09548  20956840.802          50.000  
        46.000  
  23752237.882   124818848.21305  97261436.78845  23752237.142          41.000  
        19.000  
  22642649.070   118987929.87206  92717866.48946  22642648.350          45.000  
        26.000  
  22923614.488   120464423.35106  93868384.86446  22923614.268          44.000  
        25.000  
  22999472.228   120863051.64706  94179002.46147  22999474.968          44.000  
        36.000  
  23849737.824   127714265.60704                                        39.000  
                
  20215181.248   108061748.80407  84048033.17647  20215177.528          50.000  
        33.000  
  20488602.404   109331121.52403                                        37.000  
                
  22904447.708   122351441.88506  95162242.66146  22904444.108          44.000  
        25.000  
  20599328.084   110153864.22004  85675227.36546  20599326.204          39.000  
        31.000  
  20235480.988   108284164.36707  84221004.07146  20235477.908          50.000  
        30.000  
  23511258.024   125504689.16200                                        30.000  
                
 21 12 21 01 00 00.0000000  0 14G01G08G10G16G21G23G32R04R05R06R12R20
                                R21R22
  24545574.578   128987863.80604 100510024.32645  24545578.218          39.000  
        16.000  
  20843129.502   109531376.35407  85349135.53047  20843131.582          49.000  
        43.000  
  20964631.622   110169902.56007  85846682.20948  20964633.342          51.000  
        46.000  
  23771980.042   124922595.27605  97342278.65945  23771980.922          42.000  
        20.000  
  22631622.190   118929988.21106  92672717.14946  22631622.250          44.000  
        24.000  
  22941175.568   120556708.27206  93940295.19646  22941175.668          44.000  
        23.000  
  22983739.528   120780374.84606  94114579.01247  22983742.768          44.000  
        36.000  
  23872848.744   127838034.30103                                        37.000  
                
  20223813.368   108107889.95007  84083920.73947  20223809.628          50.000  
        33.000  
  20470685.924   109235511.66403                                        37.000  

  22906173.348   122360661.05006  95169413.15646  22906169.568          46.000  
        27.000  
  20608955.704   110205346.88804  85715269.40946  20608953.744          39.000  
        31.000  
  20224850.288   108227271.78407  84176754.25746  20224846.168          49.000  
        30.000  
  23492484.824   125404481.85900                                        32.000  

 21 12 21 01 00 30.0000000  0 13G01G08G10G16G21G23G32R04R05R06R12R20
                                R21
  24527773.978   128894328.73804 100437139.92845  24527779.038          38.000  
        17.000  
  20835380.062   109490652.64007  85317402.76347  20835382.382          49.000  
        43.000  
  20972504.362   110211276.11607  85878921.35048  20972506.802          51.000  
        46.000  
  23791746.842   125026468.33805  97423218.71345  23791746.882          41.000  
        19.000  
  22620622.650   118872181.44606  92627672.91946  22620621.870          45.000  
        26.000  
  22958774.208   120649192.06106  94012360.48546  22958774.868          43.000  
        23.000  
  22968059.868   120697974.98106  94050371.32347  22968061.848          45.000  
        35.000  
  23896003.484   127962028.44302                                        34.000  
                
  20232586.788   108154788.83307  84120397.64647  20232583.208          50.000  
        33.000  
  20452873.244   109140466.47104                                        38.000  
                
  22908036.288   122370620.24906  95177159.20246  22908033.988          46.000  
        26.000  
  20618646.864   110257172.96204  85755578.57347  20618645.704          39.000  
        32.000  
  20214268.148   108170649.49107  84132714.70846  20214265.248          50.000  
        30.000  
 21 12 21 01 01 00.0000000  0 14G01G08G10G16G21G23G32R04R05R06R12R20
                                R21R22
  24509985.658   128800844.69004 100364295.19245  24509989.998          38.000  
        16.000  
  20827716.582   109450379.74107  85286021.28447  20827718.482          49.000  
        43.000  
  20980457.722   110253071.00307  85911488.79848  20980459.842          51.000  
        46.000  
  23811535.802   125130462.90905  97504253.42245  23811537.082          41.000  
        19.000  
  22609648.190   118814509.38706  92582733.65446  22609647.550          46.000  
        25.000  
  22976411.368   120741871.99206  94084578.58446  22976410.848          44.000  
        23.000  
  22952432.668   120615854.44206  93986381.31347  22952434.948          45.000  
        36.000  
  23919198.884   128086243.49602                                        34.000  

  20241501.928   108202442.25707  84157461.42947  20241498.228          51.000  
        34.000  
  20435169.104   109045989.07304                                        38.000  

  22910039.768   122381318.26006  95185479.88346  22910036.508          45.000  
        26.000  
  20628403.744   110309342.43704  85796154.80346  20628401.284          38.000  
        31.000  
  20203737.908   108114298.97907  84088886.54146  20203734.748          50.000  
        29.000  
  23454925.724   125203985.91310                                        31.000  
                
 21 12 21 01 01 30.0000000  0 14G01G08G10G16G21G23G32R04R05R06R12R20
                                R21R22
  24492205.838   128707412.86503 100291491.17545  24492209.898          37.000  
        16.000  
  20820138.962   109410560.55007  85254993.34647  20820141.202          48.000  
        43.000  
  20988491.340   110295286.17507  85944383.74148  20988493.160          51.000  
        46.000  
  23831349.342   125234576.74205  97585381.08145  23831347.662          42.000  
        20.000  
  22598699.170   118756973.03606  92537900.13846  22598698.210          46.000  
        25.000  
  22994085.028   120834746.51006  94156948.33246  22994084.528          44.000  
        22.000  
  22936859.028   120534016.91006  93922611.82847  22936861.808          45.000  
        36.000  
  23942439.444   128210676.62402                                        34.000  

  20250556.708   108250848.39907  84195110.65747  20250553.728          51.000  
        35.000  
  20417572.144   108952083.57304                                        38.000  

  22912180.588   122392754.56306  95194374.77346  22912177.848          44.000  
        28.000  
  20638223.904   110361856.33705  85836998.94946  20638221.644          40.000  
        31.000  
  20193259.408   108058222.71407  84045271.65146  20193255.548          50.000  
        30.000  
  23436136.464   125103695.92700                                        31.000  
                
 21 12 21 01 02 00.0000000  0 14G01G08G10G16G21G23G32R04R05R06R12R20
                                R21R22
  24474436.858   128614033.84904 100218728.30145  24474440.398          38.000  
        17.000  
  20812648.162   109371196.69007  85224320.19647  20812650.582          49.000  
        43.000  
  20996604.260   110337920.01207  85977604.90748  20996605.920          51.000  
        46.000  
  23851183.342   125338807.87405  97666600.13345  23851183.882          41.000  
        20.000  
  22587776.090   118699572.38106  92493172.37746  22587775.690          45.000  
        27.000  
  23011794.108   120927813.55306  94229468.11246  23011794.728          43.000  
        22.000  
  22921340.648   120452465.38406  93859065.19047  22921342.808          45.000  
        36.000  
  23965714.244   128335323.55100                                        32.000  
                
  20259752.568   108300004.99607  84233343.56847  20259749.748          51.000  
        35.000  
  20400081.024   108858753.64304                                        39.000  

  22914459.768   122404928.32706  95203843.27646  22914456.408          46.000  
        28.000  
  20648109.444   110414715.10204  85878111.30946  20648106.704          38.000  
        31.000  
  20182831.008   108002422.76107  84001871.70646  20182827.688          50.000  
        29.000  
  23417345.284   125003380.45900                                        32.000  

 21 12 21 01 02 30.0000000  0 14G01G08G10G16G21G23G32R04R05R06R12R20
                                R21R22
  24456676.638   128520708.10303 100146006.95145  24456680.798          36.000  
        15.000  
  20805244.562   109332289.81307  85194003.15548  20805247.062          49.000  
        44.000  
  21004796.560   110380970.61807  86011150.83448  21004798.380          51.000  
        46.000  
  23871039.162   125443152.09505  97747907.27345  23871038.922          42.000  
        19.000  
  22576879.010   118642307.57406  92448550.44546  22576878.530          44.000  
        25.000  
  23029540.128   121021070.74505  94302136.03146  23029540.808          42.000  
        22.000  
  22905876.688   120371202.64506  93795743.60347  22905879.688          45.000  
        36.000  
  23989031.160   128460180.54600                                        32.000  

  20269087.948   108349909.10107  84272157.86247  20269085.288          50.000  
        35.000  
  20382698.828   108766002.62904                                        38.000  

  22916876.628   122417838.35006  95213884.37946  22916873.668          45.000  
        28.000  
  20658058.544   110467918.62204  85919491.82546  20658055.744          39.000  
        30.000  
  20172456.088   107946901.20107  83958688.26746  20172452.528          50.000  
        31.000  
  23398547.864   124903041.03101                                        33.000  
                
 21 12 21 01 03 00.0000000  0 14G01G08G10G16G21G23G32R05R06R07R12R20
                                R21R22
  24438927.938   128427436.06803 100073327.46045  24438932.598          37.000  
        16.000  
  20797927.902   109293841.91407  85164043.75347  20797930.502          48.000  
        43.000  
  21013067.860   110424436.18607  86045020.11148  21013069.700          51.000  
        46.000  
  23890916.202   125547607.36505  97829301.00045  23890916.202          42.000  
        20.000  
  22566007.770   118585178.75406  92404034.50846  22566007.430          44.000  
        27.000  
  23047322.928   121114515.80606  94374950.36546  23047322.788          43.000  
        22.000  
  22890468.648   120290231.55006  93732649.26647  22890470.708          46.000  
        36.000  
  20278562.968   108400558.25107  84311551.64347  20278560.388          49.000  
        36.000  
  20365428.348   108673833.82203                                        37.000  
                
  24172397.920   129396747.91604                                        39.000  
                
  22919430.308   122431483.27806  95224497.11746  22919427.708          47.000  
        27.000  
  20668071.984   110521467.06504  85961140.58946  20668070.124          38.000  
        31.000  
  20162132.508   107891659.83307  83915722.76146  20162128.868          50.000  
        30.000  
  23379747.868   124802678.12700                                        31.000  
                
 21 12 21 01 03 30.0000000  0 15G01G08G10G16G21G23G32R04R05R06R07R12
                                R20R21R22
  24421188.598   128334218.15303 100000690.12345  24421193.458          36.000  
        16.000  
  20790698.962   109255854.11907  85134442.87847  20790701.702          49.000  
        43.000  
  21021417.560   110468314.81807  86079211.25348  21021419.400          51.000  
        46.000  
  23910813.982   125652170.09005  97910778.46545  23910813.702          42.000  
        18.000  
  22555162.530   118528186.01506  92359624.58446  22555161.910          44.000  
        26.000  
  23065139.228   121208146.41805  94447909.27746  23065140.388          42.000  
        22.000  
  22875116.108   120209554.92706  93669784.37247  22875118.908          46.000  
        37.000  
  24035780.300   128710507.61500                                        29.000  
                
  20288176.728   108451949.47107  84351522.58647  20288173.848          50.000  
        35.000  
  20348264.248   108582250.47604                                        38.000  
                
  24146759.860   129259500.55804                                        39.000  

  22922122.808   122445861.90106  95235680.50146  22922118.808          45.000  
        27.000  
  20678149.804   110575360.55404  86003057.73846  20678148.344          38.000  
        31.000  
  20151862.048   107836700.57307  83872976.67146  20151858.528          50.000  
        30.000  
  23360941.628   124702293.09300                                        31.000  

 21 12 21 01 04 00.0000000  0 14G01G08G10G16G21G23G32R05R06R07R12R20
                                R21R22
  24403461.258   128241054.95503                                        36.000  

  20783558.642   109218328.79907  85105202.36747  20783560.642          49.000  
        43.000  
  21029845.240   110512604.76907  86113722.89748  21029847.680          51.000  
        46.000  
  23930731.502   125756837.80805  97992337.70945  23930731.502          42.000  
        20.000  
  22544342.470   118471328.93806  92315320.39346  22544342.270          44.000  
        26.000  
  23082992.208   121301960.42505  94521011.09946  23082992.148          42.000  
        21.000  
  22859820.928   120129175.59906  93607151.15047  22859822.788          47.000  
        37.000  
  20297928.668   108504080.21407  84392068.71547  20297925.668          50.000  
        34.000  
  20331211.408   108491256.03703                                        37.000  
                
  24121123.640   129122268.36905                                        40.000  
                
  22924951.788   122460972.96606  95247433.54546  22924948.728          46.000  
        30.000  
  20688293.124   110629599.36904  86045243.46746  20688291.244          38.000  
        30.000  
  20141645.568   107782025.30307  83830451.45746  20141641.448          51.000  
        30.000  
  23342129.828   124601886.97400                                        30.000  

