     2.11           OBSERVATION DATA    M (MIXED)           RINEX VERSION / TYPE
teqc  2019Feb25                         20210102 00:02:09UTCPGM / RUN BY / DATE
WSRA                                                        MARKER NAME
13506M005                                                   MARKER NUMBER
-------------------------------------                       COMMENT
H. VAN DER MAREL    AGRS.NL (KAD,MD,TUD)                    OBSERVER / AGENCY
5302K41643          TRIMBLE NETR9       5.45                REC # / TYPE / VERS
273                 AOAD/M_T        DUTD                    ANT # / TYPE
  3828736.1370   443304.7380  5064884.5080                  APPROX POSITION XYZ
        0.3888        0.0000        0.0000                  ANTENNA: DELTA H/E/N
     1     1                                                WAVELENGTH FACT L1/2
     7    L1    L2    C1    P2    P1    S1    S2            # / TYPES OF OBSERV
    18                                                      LEAP SECONDS
  2021     1     1     0     0    0.0000000     GPS         TIME OF FIRST OBS
                                                            END OF HEADER
 21  1  1  0  0  0.0000000  0 21R09R02G07R17G13R16R01G18G26G10G30G23
                                G27G08R18G20R15G21G15R24G16
 120726836.675 6  93898685.451 6  22608259.047    22608267.246    22608260.313
        37.600          40.200
 114120293.460 7  88760085.965 7  21386050.063    21386059.063    21386049.305
        43.000          43.100
 127366301.846 6  99246519.51643  24237008.227    24237012.930
        38.800          23.300
 104574797.895 7  81336001.170 7  19542299.117    19542305.445    19542298.012
        43.800          45.100
 131361203.732 6 102359407.36542  24997207.859    24997210.813
        36.200          16.300
 111350022.351 6  86605595.161 6  20844959.305    20844965.344    20844959.094
        38.100          38.700
 116812995.565 5  90854460.908 6  21852252.234    21852260.035    21852250.273
        35.400          36.000
 121243544.191 7  94475685.16745  23071916.734    23071921.762
        43.200          30.400
 126286877.625 6  98405393.45745  24031596.727    24031605.195
        39.200          35.800
 112676454.948 8  87799933.16049  21441629.766    21441637.316
        52.100          55.000
 130755796.991 5 101887738.66543  24882017.297    24882024.543
        33.800          19.900
 112069895.769 7  87327292.93446  21326206.656    21326212.063
        47.700          40.200
 105997669.068 8  82595622.36549  20170681.656    20170688.441
        52.900          55.600
 115217432.669 7  89779849.67747  21925146.188    21925153.129
        45.700          47.800
 107861339.255 7  83892206.389 7  20206061.813    20206069.918    20206060.563
        44.600          46.400
 111648444.974 8  86998744.72946  21245972.211    21245976.844
        48.100          39.300
 120033747.352 6  93359438.785 6  22462642.102    22462649.523    22462641.363
        38.700          38.400
 125510113.638 6  97800020.67543  23883760.922    23883766.469
        39.200          22.000
 126551559.527 6  98611635.24245  24081956.711    24081961.527
        37.700          33.000
 123465507.269 5  96028777.490 5  23088675.938    23088683.277    23088674.922
        35.000          35.800
 114675486.228 7  89357526.32746  21822020.367    21822024.996
        47.900          38.400
 21  1  1  0  0 30.0000000  0 21R09R02G07R17G13R16R01G18G26G10G30G23
                                G27G08R18G20R15G21G15R24G16
 120642609.251 6  93833175.199 6  22592488.102    22592494.133    22592486.684
        37.000          39.900
 114030574.954 7  88690304.926 7  21369237.391    21369245.730    21369235.457
        42.400          43.500
 127388532.694 6  99263842.26543  24241238.555    24241243.883
        39.000          22.800
 104613192.432 7  81365863.580 7  19549474.234    19549480.594    19549472.723
        43.600          45.300
 131385542.756 5 102378372.84242  25001838.609    25001842.180
        35.400          15.600
 111379913.109 6  86628843.485 6  20850556.305    20850561.301    20850554.625
        38.000          38.600
 116865804.538 5  90895534.534 5  21862130.602    21862138.094    21862129.930
        35.700          35.000
 121339053.236 7  94550107.79244  23090091.883    23090096.691
        43.000          29.300
 126398860.514 6  98492652.83945  24052905.297    24052914.945
        38.200          35.500
 112625490.544 8  87760220.65249  21431931.422    21431939.063
        52.100          55.300
 130733095.110 5 101870048.93143  24877697.195    24877704.543
        35.000          19.300
 112086221.462 8  87340014.27146  21329313.773    21329318.816
        48.600          40.300
 105987769.091 8  82587908.09749  20168797.969    20168804.551
        52.100          55.600
 115140499.418 7  89719901.69347  21910506.094    21910513.426
        46.100          47.800
 107800934.365 7  83845224.816 7  20194745.539    20194754.211    20194745.242
        44.500          46.800
 111674771.678 7  87019259.05046  21250982.227    21250986.508
        47.600          38.900
 120159941.439 6  93457589.742 6  22486257.766    22486265.531    22486256.172
        38.300          38.700
 125422756.007 6  97731949.76543  23867137.227    23867142.441
        39.700          21.800
 126550703.037 6  98610967.86745  24081794.539    24081798.715
        39.400          33.900
 123570527.775 5  96110460.086 5  23108315.234    23108322.488    23108314.180
        35.300          35.200
 114760157.448 7  89423503.87546  21838132.594    21838137.461
        47.600          38.800
 21  1  1  0  1  0.0000000  0 21R09R02G07R17G13R16R01G18G26G10G30G23
                                G27G08R18G20R15G21G15R24G16
 120558984.762 6  93768133.939 6  22576827.258    22576833.059    22576827.191
        36.800          39.600
 113941433.598 7  88620972.807 7  21352531.844    21352541.273    21352531.215
        43.000          43.800
 127411279.074 6  99281566.72843  24245567.656    24245572.836
        39.000          23.000
 104651992.857 7  81396041.682 7  19556724.867    19556731.184    19556723.488
        43.300          45.500
 131410451.491 5 102397782.31242  25006579.438    25006583.387
        35.200          15.600
 111410613.565 6  86652721.632 6  20856301.859    20856309.156    20856301.621
        37.400          38.900
 116919365.145 5  90937192.800 5  21872150.008    21872157.227    21872149.184
        35.600          34.600
 121434713.249 7  94624648.06245  23108295.359    23108299.965
        42.900          30.000
 126510946.305 6  98579992.41445  24074236.023    24074244.027
        38.600          35.400
 112575048.679 8  87720915.32949  21422332.797    21422340.531
        51.800          55.100
 130710935.382 6 101852781.64843  24873481.023    24873487.238
        36.800          20.100
 112103158.798 8  87353212.19446  21332536.414    21332541.699
        48.200          39.900
 105978330.060 8  82580553.00449  20167001.555    20167008.313
        53.300          55.500
 115063829.632 7  89660159.01047  21895916.680    21895923.426
        45.600          47.800
 107740882.387 7  83798517.736 7  20183495.680    20183504.328    20183495.164
        44.100          46.400
 111701668.062 8  87040217.27246  21256100.719    21256104.695
        48.700          38.700
 120286402.068 6  93555947.950 6  22509923.891    22509931.332    22509922.090
        38.100          39.000
 125335573.563 6  97664015.42543  23850546.961    23850552.270
        39.300          22.900
 126550454.082 6  98610773.89045  24081746.023    24081751.227
        38.700          33.900
 123675634.962 5  96192210.096 5  23127970.227    23127977.410    23127969.168
        34.300          35.800
 114845234.657 7  89489797.79346  21854322.008    21854326.473
        47.400          37.200
 21  1  1  0  1 30.0000000  0 21R09R02G07R17G13R16R01G18G26G10G30G23
                                G27G08R18G20R15G21G15R24G16
 120475966.837 6  93703564.416 6  22561281.172    22561287.020    22561280.609
        38.100          39.900
 113852873.465 7  88552092.724 7  21335935.578    21335944.418    21335934.191
        43.200          43.300
 127434539.795 6  99299691.97443  24249993.422    24249997.066
        39.500          22.300
 104691198.235 7  81426534.759 7  19564051.164    19564057.742    19564050.215
        43.800          44.800
 131435929.243 6 102417635.10242  25011427.117    25011431.395
        36.500          15.600
 111442121.806 6  86677228.034 6  20862201.031    20862207.070    20862200.230
        38.000          38.800
 116973675.269 5  90979434.020 5  21882310.188    21882317.645    21882308.758
        35.000          35.300
 121530522.656 7  94699304.72144  23126526.969    23126532.621
        42.400          29.800
 126623132.707 6  98667410.38145  24095583.750    24095592.031
        39.400          35.500
 112525131.387 8  87682018.75849  21412834.000    21412841.207
        51.800          55.400
 130689318.749 6 101835937.44043  24869366.844    24869374.012
        36.100          19.600
 112120707.041 7  87366886.16546  21335876.313    21335881.117
        47.700          39.900
 105969352.704 8  82573557.66449  20165292.961    20165299.953
        52.000          55.200
 114987425.426 7  89600623.26148  21881377.336    21881384.492
        46.000          48.300
 107681184.381 7  83752085.975 7  20172312.805    20172321.039    20172311.719
        44.700          46.500
 111729132.557 8  87061618.16846  21261326.867    21261331.156
        48.000          38.900
 120413124.797 6  93654510.060 6  22533636.977    22533645.344    22533635.977
        37.900          38.800
 125248567.140 6  97596218.26243  23833990.617    23833995.637
        40.300          22.500
 126550813.224 6  98611053.73845  24081814.992    24081819.676
        38.900          33.000
 123780828.359 5  96274027.140 6  23147642.227    23147649.902    23147641.430
        34.100          36.500
 114930715.214 7  89556405.99646  21870588.664    21870593.277
        47.500          38.100
 21  1  1  0  2  0.0000000  0 21R09R02G07R17G13R16R01G18G26G10G30G23
                                G27G08R18G20R15G21G15R24G16
 120393558.770 6  93639469.256 6  22545848.477    22545854.316    22545847.441
        37.400          40.300
 113764898.284 7  88483667.596 7  21319449.008    21319458.102    21319447.977
        43.400          43.400
 127458313.381 6  99318216.89243  24254517.656    24254521.996
        38.300          21.700
 104730807.460 7  81457341.909 7  19571453.078    19571459.492    19571452.129
        43.300          45.300
 131461974.843 6 102437930.32842  25016384.734    25016387.367
        38.500          14.800
 111474435.843 6  86702361.169 6  20868250.141    20868256.270    20868249.590
        37.200          39.500
 117028731.516 5  91022255.590 5  21892610.680    21892617.363    21892609.258
        35.400          35.700
 121626479.429 7  94774076.22545  23144786.664    23144792.676
        43.200          30.700
 126735416.864 6  98754904.54345  24116950.781    24116958.813
        37.600          34.300
 112475739.585 8  87643531.64949  21403434.773    21403442.223
        51.400          55.200
 130668245.227 5 101819516.56243  24865356.688    24865363.895
        34.600          20.100
 112138864.990 8  87381035.21946  21339331.320    21339336.426
        48.600          39.900
 105960837.229 8  82566922.22449  20163672.742    20163679.668
        52.400          55.100
 114911287.624 7  89541295.11548  21866889.172    21866895.875
        46.000          48.400
 107621841.076 7  83705930.076 7  20161195.281    20161204.074    20161194.730
        44.100          46.700
 111757163.738 7  87083460.66146  21266660.883    21266665.531
        47.300          39.100
 120540105.034 6  93753272.447 6  22557398.992    22557408.645    22557399.363
        37.300          38.900
 125161737.301 6  97528558.65543  23817467.391    23817472.219
        39.900          22.900
 126551780.510 6  98611807.49645  24081999.625    24082003.953
        38.800          33.300
 123886106.192 5  96355909.839 6  23167328.328    23167337.438    23167328.523
        33.100          36.000
 115016596.615 7  89623326.56446  21886931.078    21886935.840
        47.500          37.600
 21  1  1  0  2 30.0000000  0 21R09R02G07R17G13R16R01G18G26G10G30G23
                                G27G08R18G20R15G21G15R24G16
 120311763.998 6  93575851.081 6  22530530.016    22530537.582    22530530.133
        37.300          40.400
 113677511.556 7  88415700.168 7  21303073.352    21303081.664    21303071.836
        43.200          43.600
 127482598.356 6  99337140.25143  24259138.133    24259143.285
        37.500          21.800
 104770819.539 7  81488462.433 7  19578930.500    19578936.859    19578929.164
        43.800          45.200
 131488586.915 5 102458667.03242  25021447.883    25021451.539
        35.400          13.900
 111507554.259 6  86728119.890 6  20874450.391    20874455.809    20874449.625
        38.100          38.200
 117084531.416 5  91065655.500 5  21903047.156    21903055.699    21903046.414
        35.300          34.800
 121722581.822 7  94848961.18144  23163074.406    23163079.672
        43.400          29.600
 126847796.351 6  98842472.95045  24138335.703    24138344.047
        38.300          35.100
 112426874.724 8  87605455.14249  21394136.109    21394144.000
        52.100          55.000
 130647715.456 5 101803519.29443  24861450.633    24861457.066
        34.700          19.000
 112157631.737 8  87395658.66246  21342902.039    21342907.441
        48.000          40.100
 105952784.133 8  82560647.07949  20162140.570    20162146.988
        52.000          56.300
 114835417.987 7  89482175.91948  21852451.211    21852458.496
        46.100          48.500
 107562853.143 7  83660050.584 7  20150145.156    20150153.492    20150144.336
        44.500          46.700
 111785760.332 8  87105743.72246  21272102.898    21272107.316
        48.400          38.900
 120667338.147 6  93852231.511 6  22581210.000    22581217.836    22581209.805
        38.300          38.300
 125075085.069 6  97461037.46943  23800978.000    23800981.645
        39.800          22.800
 126553355.972 6  98613035.13545  24082298.453    24082302.613
        38.100          32.300
 123991467.388 5  96437857.326 6  23187032.969    23187040.555    23187032.773
        34.600          36.500
 115102876.133 7  89690557.35246  21903349.969    21903354.414
        47.200          38.200
 21  1  1  0  3  0.0000000  0 21R09R02G07R17G13R16R01G18G26G10G30G23
                                G27G08R18G20R15G21G15R24G16
 120230586.224 6  93512712.798 6  22515329.570    22515335.391    22515328.680
        38.000          40.500
 113590718.085 7  88348194.170 7  21286807.734    21286816.898    21286806.738
        43.700          44.000
 127507393.896 6  99356461.42243  24263857.430    24263861.824
        39.300          21.800
 104811234.360 7  81519896.168 7  19586482.000    19586489.434    19586482.035
        43.800          45.800
 131515765.129 5 102479844.87342  25026618.930    25026623.418
        34.700          13.900
 111541475.518 6  86754503.092 6  20880800.539    20880806.402    20880800.074
        37.900          39.300
 117141073.042 5  91109632.340 5  21913626.359    21913633.121    21913624.695
        35.400          35.100
 121818828.599 7  94923958.66745  23181390.016    23181395.379
        44.500          30.200
 126960269.053 6  98930114.00345  24159738.422    24159747.137
        38.300          35.200
 112378538.693 8  87567790.71349  21384937.969    21384945.711
        52.000          55.000
 130627730.239 5 101787946.44743  24857646.773    24857654.348
        33.300          19.300
 112177006.835 8  87410756.14646  21346588.891    21346594.664
        48.600          40.100
 105945194.458 8  82554733.04249  20160696.117    20160702.824
        52.600          55.400
 114759818.371 7  89423267.13048  21838065.047    21838071.938
        45.800          48.400
 107504221.641 7  83614448.311 7  20139161.117    20139169.820    20139160.594
        44.300          46.800
 111814921.587 7  87128466.76846  21277651.992    21277656.191
        47.700          38.800
 120794820.543 6  93951384.493 6  22605065.547    22605074.691    22605065.938
        37.900          38.900
 124988611.307 6  97393655.35543  23784522.422    23784527.145
        39.800          21.100
 126555540.358 6  98614737.24845  24082714.563    24082719.484
        38.800          34.000
 124096911.425 5  96519869.308 6  23206751.367    23206759.027    23206750.910
        34.800          36.200
 115189552.003 7  89758096.97446  21919843.711    21919848.297
        46.700          37.400
 21  1  1  0  3 30.0000000  0 21R09R02G07R17G13R16R01G18G26G10G30G23
                                G27G08R18G20R15G21G15R24G16
 120150028.655 6  93450056.888 6  22500244.594    22500248.637    22500244.113
        38.300          39.800
 113504521.452 7  88281152.361 7  21270654.289    21270663.492    21270653.055
        43.600          43.200
 127532698.388 6  99376179.17343  24268671.773    24268675.078
        38.500          22.200
 104852050.824 7  81551642.305 7  19594109.711    19594116.785    19594109.129
        43.600          46.000
 131543508.572 5 102501463.14442  25031898.672    25031903.059
        33.500          13.900
 111576197.785 6  86781509.320 6  20887301.148    20887306.715    20887299.234
        38.000          39.400
 117198353.755 5  91154184.013 5  21924340.680    21924348.438    21924339.211
        35.200          35.600
 121915218.071 7  94999067.32445  23199731.563    23199737.629
        43.900          30.500
 127072832.566 6  99017825.81345  24181159.047    24181167.316
        38.400          35.500
 112330732.892 8  87530539.46049  21375841.008    21375848.324
        50.900          55.000
 130608290.175 5 101772798.32643  24853948.516    24853955.469
        35.900          20.900
 112196989.275 8  87426326.88846  21350392.023    21350397.230
        48.000          39.900
 105938068.654 8  82549180.46449  20159340.063    20159346.879
        52.300          55.500
 114684490.176 7  89364569.83148  21823730.680    21823737.621
        46.700          48.600
 107445947.373 7  83569123.882 7  20128244.875    20128253.035    20128243.902
        44.300          46.800
 111844645.874 8  87151628.55446  21283308.070    21283312.496
        48.000          39.600
 120922547.584 6  94050727.699 6  22628969.383    22628976.898    22628968.203
        37.800          38.200
 124902316.762 6  97326412.88844  23768100.625    23768106.172
        39.200          24.500
 126558333.879 6  98616914.04145  24083245.688    24083250.371
        39.400          33.700
 124202436.988 5  96601944.757 6  23226486.563    23226493.555    23226484.555
        34.300          36.400
 115276621.986 7  89825943.69446  21936412.797    21936417.504
        47.800          37.900
 21  1  1  0  4  0.0000000  0 21R09R02G07R17G13R16R01G18G26G10G30G23
                                G27G08R18G20R15G21G15R24G16
 120070094.893 6  93387886.216 6  22485273.398    22485281.086    22485273.105
        37.500          40.400
 113418925.537 7  88214577.798 7  21254613.805    21254622.777    21254612.598
        43.200          44.100
 127558510.569 6  99396292.62643  24273583.641    24273588.242
        37.500          22.500
 104893267.822 7  81583699.958 7  19601812.625    19601819.273    19601811.895
        44.100          45.600
 131571815.77815 102523520.68552  25037284.242    25037289.781
        33.700          15.600
 111611718.978 6  86809136.900 6  20893949.625    20893955.910    20893949.359
        37.800          38.600
 117256370.293 5  91199308.013 5  21935194.516    21935202.012    21935193.176
        35.300          35.400
 122011748.405 7  95074285.75244  23218101.594    23218106.668
        43.500          29.500
 127185484.213 6  99105606.30845  24202596.266    24202604.152
        38.400          34.700
 112283458.604 8  87493702.36449  21366844.867    21366852.305
        52.200          55.100
 130589395.534 6 101758075.25443  24850352.469    24850359.785
        36.300          20.900
 112217578.001 8  87442370.05146  21354309.820    21354314.715
        48.000          40.200
 105931407.077 8  82543989.62449  20158072.422    20158079.125
        52.900          55.100
 114609435.044 7  89306085.31148  21809448.477    21809455.094
        46.600          48.800
 107388031.254 7  83524077.987 7  20117394.727    20117403.629    20117394.242
        44.100          46.700
 111874932.461 8  87175228.50946  21289072.016    21289076.152
        48.300          39.200
 121050514.707 6  94150257.695 6  22652915.813    22652924.645    22652916.156
        38.400          38.600
 124816202.133 6  97259310.63044  23751713.758    23751719.113
        40.100          24.500
 126561736.738 6  98619565.62345  24083892.633    24083897.281
        37.600          32.600
 124308043.214 5  96684082.874 5  23246234.977    23246241.344    23246234.227
        34.900          35.600
 115364083.381 7  89894095.42046  21953056.047    21953060.582
        47.300          37.900
 21  1  1  0  4 30.0000000  0 21R09R02G07R17G13R16R01G18G26G10G30G23
                                G27G08R18G20R15G21G15R24G16
 119990788.308 6  93326203.271 6  22470423.406    22470429.121    22470421.832
        37.200          41.000
 113333934.208 7  88148473.462 7  21238686.445    21238695.742    21238685.375
        43.200          43.800
 127584829.018 6  99416800.44543  24278592.648    24278596.742
        37.800          21.800
 104934884.595 7  81616068.550 7  19609590.031    19609596.215    19609588.676
        43.700          45.900
 131600685.991 5 102546017.01042  25042779.023    25042783.582
        35.200          14.800
 111648037.324 6  86837384.475 6  20900749.289    20900754.883    20900748.121
        37.500          38.900
 117315120.566 5  91245002.625 5  21946183.805    21946191.477    21946183.207
        34.800          34.900
 122108418.009 7  95149612.69744  23236497.367    23236502.641
        43.100          29.800
 127298221.604 6  99193453.62045  24224049.711    24224057.641
        38.400          35.500
 112236717.180 8  87457280.48949  21357950.500    21357957.773
        52.900          55.200
 130571046.733 6 101743777.48343  24846861.109    24846867.730
        36.100          20.400
 112238772.037 7  87458884.89546  21358342.727    21358347.660
        47.400          39.700
 105925210.325 8  82539160.97849  20156893.281    20156900.027
        52.000          55.500
 114534654.680 7  89247814.90248  21795217.945    21795225.133
        47.200          48.800
 107330474.260 7  83479311.456 7  20106612.164    20106621.035    20106611.965
        44.300          47.200
 111905779.969 8  87199265.52346  21294941.688    21294946.148
        48.300          38.900
 121178717.639 6  94249971.058 6  22676908.875    22676915.836    22676907.133
        37.200          38.600
 124730268.044 6  97192349.04843  23735362.195    23735366.105
        40.400          21.300
 126565748.921 6  98622692.00745  24084656.688    24084660.914
        37.300          32.200
 124413728.902 5  96766282.808 5  23265997.477    23266005.188    23265996.309
        33.600          34.700
 115451933.957 7  89962550.40446  21969773.375    21969777.926
        47.000          37.300
 21  1  1  0  5  0.0000000  0 21R09R02G07R17G13R16R01G18G26G10G30G23
                                G27G08R18G20R15G21G15R24G16
 119912112.703 6  93265011.189 6  22455688.695    22455695.957    22455687.602
        37.900          39.400
 113249551.382 7  88082842.407 7  21222872.914    21222881.922    21222871.625
        43.700          43.600
 127611652.658 6  99437702.00643  24283698.063    24283700.992
        39.500          21.800
 104976900.855 7  81648747.870 7  19617441.734    19617447.984    19617440.500
        43.400          46.000
 131630118.392 5 102568951.36242  25048380.203    25048383.707
        35.200          15.600
 111685151.108 6  86866250.764 6  20907696.430    20907702.297    20907696.223
        37.700          38.600
 117374602.029 5  91291266.041 5  21957312.117    21957320.047    21957310.582
        35.300          35.500
 122205225.556 7  95225047.14744  23254918.836    23254924.066
        42.800          28.300
 127411042.624 6  99281366.09445  24245518.492    24245526.359
        38.100          34.900
 112190510.430 8  87421275.25149  21349157.609    21349165.016
        51.800          54.900
 130553244.660 6 101729905.71043  24843473.977    24843480.020
        37.000          19.900
 112260570.781 8  87475870.94346  21362490.969    21362496.047
        48.600          39.800
 105919479.270 8  82534695.22549  20155802.875    20155809.387
        52.400          55.200
 114460151.049 7  89189760.13448  21781040.203    21781047.328
        45.600          48.700
 107273277.166 7  83434824.835 7  20095898.609    20095906.043    20095897.000
        44.900          46.400
 111937187.439 7  87223738.87246  21300918.414    21300922.699
        47.800          38.900
 121307152.327 6  94349864.667 6  22700942.406    22700950.570    22700942.254
        37.600          38.700
 124644515.434 6  97125528.85643  23719043.484    23719047.902
        39.400          23.900
 126570370.937 5  98626293.59945  24085535.492    24085540.395
        35.800          31.500
 124519493.220 5  96848543.903 5  23285777.414    23285784.145    23285776.586
        33.700          35.200
 115540171.321 7  90031306.77346  21986564.484    21986569.160
        47.400          37.200
 21  1  1  0  5 30.0000000  0 21R09R02G07R17G13R16R01G18G26G10G30G23
                                G27G08R18G20R15G21G15R24G16
 119834070.959 6  93204311.942 6  22441075.109    22441080.711    22441073.215
        37.300          41.600
 113165780.364 7  88017687.189 7  21207174.914    21207183.453    21207173.613
        44.300          43.800
 127638979.941 6  99458995.93643  24288897.297    24288901.211
        38.400          21.800
 105019315.415 7  81681736.962 7  19625367.773    19625374.355    19625366.793
        43.300          45.800
 131660111.615 5 102592322.63442  25054087.945    25054091.742
        34.900          14.800
 111723058.611 6  86895734.336 6  20914793.328    20914799.285    20914792.988
        37.300          39.100
 117434811.583 5  91338095.640 5  21968574.625    21968582.828    21968574.117
        35.300          35.000
 122302169.272 7  95300587.69344  23273366.414    23273371.480
        43.000          29.400
 127523944.654 6  99369341.69145  24267002.555    24267011.234
        37.300          33.300
 112144839.521 8  87385687.54649  21340466.742    21340473.938
        51.700          55.300
 130535989.509 5 101716460.16843  24840188.688    24840196.879
        32.800          20.100
 112282973.078 8  87493327.27146  21366753.969    21366759.262
        48.200          40.200
 105914214.259 8  82530592.60849  20154800.594    20154807.496
        52.500          55.800
 114385925.503 7  89131922.04448  21766915.297    21766922.563
        46.300          48.800
 107216440.901 7  83390618.846 7  20085250.250    20085258.855    20085249.641
        44.600          47.200
 111969153.278 7  87248647.32146  21307001.375    21307005.418
        47.600          38.700
 121435814.462 6  94449935.194 6  22725020.070    22725027.996    22725018.789
        37.300          38.200
 124558945.023 6  97058850.64843  23702759.789    23702764.074
        40.400          22.500
 126575602.779 6  98630370.36245  24086532.539    24086536.199
        39.800          32.800
 124625335.396 5  96930865.548 5  23305569.867    23305577.594    23305569.789
        34.500          35.900
 115628793.043 7  90100362.65046  22003428.688    22003433.078
        47.200          37.400
 21  1  1  0  6  0.0000000  0 21R09R02G07R17G13R16R01G18G26G10G30G23
                                G27G08R18G20R15G21G15R24G16
 119756666.544 6  93144108.588 6  22426579.539    22426585.664    22426580.289
        38.100          40.400
 113082625.955 7  87953011.571 7  21191591.133    21191600.594    21191590.219
        43.600          44.300
 127666809.311 6  99480681.20043  24294194.156    24294196.867
        40.400          22.200
 105062127.477 7  81715035.208 7  19633367.664    19633374.664    19633366.855
        43.400          45.500
 131690664.824 5 102616130.36042  25059901.742    25059906.672
        34.700          14.800
 111761757.430 6  86925833.441 6  20922036.953    20922043.344    20922037.457
        37.300          39.100
 117495746.429 5  91385489.469 5  21979974.633    21979981.691    21979973.512
        35.100          34.800
 122399247.450 7  95376233.02444  23291840.273    23291845.672
        42.600          29.900
 127636925.280 6  99457378.52245  24288503.031    24288510.375
        37.200          32.800
 112099705.761 8  87350518.38749  21331878.047    21331885.195
        52.800          55.000
 130519281.556 5 101703440.99443  24837011.203    24837016.926
        35.400          20.400
 112305977.779 7  87511253.01246  21371131.539    21371136.910
        47.900          39.500
 105909415.728 8  82526853.49149  20153887.297    20153894.379
        52.600          55.700
 114311979.123 7  89074301.48748  21752844.406    21752851.148
        46.100          48.900
 107159966.178 7  83346694.057 7  20074670.563    20074679.066    20074669.949
        44.800          47.000
 112001675.869 8  87273989.59646  21313190.203    21313194.441
        48.200          39.100
 121564699.300 6  94550178.948 6  22749137.922    22749146.945    22749137.813
        37.100          37.300
 124473557.634 6  96992315.05244  23686510.727    23686515.563
        39.000          24.600
 126581444.590 6  98634922.41845  24087644.203    24087647.855
        39.000          33.500
 124731254.138 5  97013246.750 5  23325375.656    23325385.219    23325376.121
        33.500          35.600
 115717796.820 7  90169716.23846  22020365.250    22020369.934
        47.600          37.100
 21  1  1  0  6 30.0000000  0 21R09R02G07R17G13R16R01G18G26G10G30G23
                                G27G08R18G20R15G21G15R24G16
 119679902.899 6  93084403.480 6  22412202.914    22412209.492    22412202.023
        37.300          40.000
 113000091.040 7  87888817.763 7  21176123.477    21176133.207    21176123.465
        43.500          44.000
 127695139.400 6  99502756.63143  24299582.695    24299587.992
        36.400          21.300
 105105336.156 7  81748641.958 7  19641441.883    19641449.258    19641441.754
        43.500          45.800
 131721776.963 5 102640373.59742  25065822.945    25065826.594
        34.700          15.600
 111801245.886 6  86956546.656 6  20929429.742    20929435.758    20929428.965
        37.500          38.600
 117557404.192 5  91433445.461 5  21991508.320    21991516.219    21991507.922
        35.300          35.100
 122496458.713 7  95451982.05244  23310339.266    23310343.871
        43.700          28.500
 127749982.269 6  99545474.86345  24310016.281    24310024.762
        37.200          33.600
 112055110.733 8  87315769.02749  21323391.867    21323399.043
        52.400          55.300
 130503121.633 5 101690848.83243  24833935.633    24833941.910
        35.500          20.600
 112329584.114 8  87529647.57646  21375623.875    21375628.797
        48.400          39.500
 105905084.438 8  82523478.45949  20153063.070    20153070.195
        51.900          55.400
 114238314.377 7  89016900.38948  21738826.453    21738833.168
        46.600          49.100
 107103854.264 7  83303051.474 7  20064159.734    20064167.348    20064158.254
        44.900          47.400
 112034754.826 8  87299765.41146  21319484.906    21319489.035
        48.500          39.200
 121693803.015 6  94650592.923 6  22773298.023    22773307.086    22773297.902
        37.100          37.900
 124388354.205 6  96925922.83043  23670296.930    23670302.430
        39.800          23.800
 126587896.496 6  98639949.88245  24088871.859    24088876.211
        39.900          33.600
 124837248.424 5  97095686.644 5  23345198.563    23345206.188    23345197.688
        32.900          35.300
 115807180.293 7  90239365.68846  22037374.625    22037379.215
        47.300          37.000
 21  1  1  0  7  0.0000000  0 21R09R02G07R17G13R16R01G18G26G10G30G23
                                G27G08R18G20R15G21G15R24G16
 119603783.401 6  93025199.413 6  22397948.930    22397956.020    22397947.980
        37.300          40.400
 112918179.858 7  87825109.110 7  21160773.977    21160783.000    21160772.871
        43.400          44.000
 127723968.645 6  99525220.91443  24305070.391    24305074.613
        38.100          22.000
 105148940.529 7  81782556.466 7  19649591.695    19649598.023    19649590.152
        43.200          45.400
 131753446.471 5 102665051.14042  25071848.328    25071852.617
        34.300          14.800
 111841522.000 6  86987872.508 6  20936969.594    20936975.402    20936968.789
        37.700          38.300
 117619781.731 5  91481961.298 5  22003177.789    22003184.926    22003176.945
        35.500          34.700
 122593801.333 7  95527833.41344  23328862.461    23328867.762
        42.400          28.200
 127863113.039 6  99633628.69545  24331544.297    24331552.879
        38.000          34.500
 112011055.597 8  87281440.35549  21315008.133    21315015.855
        52.700          55.000
 130487509.747 5 101678683.69043  24830963.383    24830971.418
        34.800          20.400
 112353790.930 7  87548510.03646  21380230.547    21380235.027
        47.600          39.600
 105901220.705 8  82520467.76049  20152328.000    20152334.898
        52.000          55.500
 114164932.584 7  88959719.77548  21724862.461    21724869.184
        47.300          49.200
 107048105.776 7  83259691.509 7  20053714.664    20053723.594    20053715.004
        45.200          46.900
 112068388.426 8  87325973.41146  21325885.391    21325889.465
        48.300          38.500
 121823120.843 6  94751173.436 6  22797499.297    22797507.465    22797497.852
        36.900          37.800
 124303335.269 6  96859674.34044  23654118.617    23654122.988
        40.200          24.900
 126594958.266 6  98645452.56145  24090215.914    24090220.191
        39.300          33.300
 124943317.486 5  97178184.783 5  23365032.875    23365041.281    23365034.070
        34.200          34.600
 115896940.704 7  90309308.85046  22054455.508    22054459.891
        47.000          36.300
 21  1  1  0  7 30.0000000  0 21R09R02G07R17G13R16R01G18G26G10G30G23
                                G27G08R18G20R15G21G15R24G16
 119528311.380 6  92966498.945 6  22383815.398    22383821.762    22383815.309
        38.300          40.600
 112836896.482 7  87761888.711 7  21145541.805    21145550.590    21145540.555
        44.000          44.100
 127753295.767 6  99548073.24043  24310651.578    24310655.496
        39.400          22.500
 105192940.112 7  81816778.361 7  19657813.375    19657820.141    19657812.961
        43.100          45.500
 131785672.557 5 102690162.29842  25077980.984    25077984.883
        34.700          14.800
 111882583.613 6  87019809.291 6  20944656.000    20944662.488    20944655.770
        37.400          38.100
 117682876.660 5  91531035.172 5  22014980.820    22014988.516    22014979.496
        34.800          35.000
 122691273.810 6  95603785.95644  23347410.453    23347416.742
        41.600          28.800
 127976315.316 6  99721838.23645  24353086.578    24353094.402
        37.500          34.300
 111967541.850 8  87247533.56049  21306727.891    21306735.402
        52.000          54.900
 130472446.467 5 101666946.09443  24828096.961    24828104.285
        33.700          20.600
 112378597.271 7  87567839.66246  21384950.367    21384955.766
        47.500          39.000
 105897825.239 8  82517821.93849  20151682.086    20151688.773
        52.200          56.000
 114091835.342 8  88902760.88548  21710952.813    21710959.184
        48.800          49.400
 106992721.540 7  83216614.894 7  20043340.008    20043348.500    20043339.742
        44.300          46.800
 112102575.232 7  87352612.49146  21332390.617    21332395.191
        47.800          38.200
 121952648.733 6  94851917.319 6  22821737.813    22821746.527    22821737.930
        36.700          38.100
 124218501.836 6  96793570.41344  23637975.281    23637980.215
        41.100          25.300
 126602630.409 6  98651430.84945  24091675.727    24091679.734
        39.900          33.300
 125049460.430 5  97260740.401 5  23384882.625    23384891.133    23384882.184
        32.300          33.600
 115987075.911 7  90379544.07246  22071607.563    22071612.336
        47.100          36.900
 21  1  1  0  8  0.0000000  0 21R09R02G07R17G13R16R01G18G26G10G30G23
                                G27G08R18G20R15G21G15R24G16
 119453489.912 6  92908304.447 6  22369803.156    22369810.582    22369802.270
        37.400          40.700
 112756243.953 7  87699158.997 7  21130426.914    21130436.348    21130426.246
        43.500          44.600
 127783119.356 6  99571312.40443  24316326.133    24316329.922
        38.600          21.700
 105237333.947 7  81851306.896 7  19666109.180    19666116.320    19666108.676
        43.400          45.300
 131818454.055 6 102715706.41642  25084219.273    25084223.660
        36.100          14.800
 111924428.425 6  87052355.246 6  20952490.172    20952496.145    20952489.715
        38.100          39.200
 117746685.725 5  91580664.422 5  22026919.094    22026924.910    22026916.875
        35.400          34.200
 122788874.600 6  95679838.51844  23365983.477    23365989.215
        41.700          28.700
 128089586.631 6  99810101.59045  24374641.063    24374649.414
        38.000          34.900
 111924570.693 8  87214049.55449  21298550.820    21298558.262
        52.600          55.200
 130457932.023 5 101655636.14343  24825335.516    24825343.082
        35.200          20.600
 112404001.955 7  87587635.52346  21389784.688    21389790.117
        47.500          39.700
 105894898.438 8  82515541.31249  20151124.984    20151131.863
        51.700          55.000
 114019024.359 8  88846025.05648  21697097.305    21697103.777
        48.800          49.500
 106937702.529 7  83173822.322 7  20033032.609    20033041.641    20033032.664
        44.400          47.000
 112137314.253 8  87379681.85046  21339001.219    21339005.523
        48.400          38.300
 122082382.587 6  94952821.400 6  22846014.805    22846024.102    22846016.270
        37.100          38.100
 124133854.394 6  96727611.38244  23621866.945    23621872.137
        39.600          24.200
 126610912.797 6  98657884.66845  24093250.859    24093256.367
        38.700          33.600
 125155676.233 5  97343352.631 5  23404746.266    23404753.844    23404746.371
        33.700          35.200
 116077583.595 7  90450069.53946  22088830.523    22088834.996
        46.700          36.800
