     2.11           OBSERVATION DATA    M                   RINEX VERSION / TYPE
Linux 2.4.21-27.ELsmp|Opteron|gcc|Linux 64|=+               COMMENT
BIT 2 OF LLI FLAGS DATA COLLECTED UNDER A/S CONDITION       COMMENT
Forced Modulo Decimation to 30 seconds                      COMMENT
------------------------------------------------------------COMMENT
AGRS.NL - Active GPS Reference System for the Netherlands   COMMENT
E-mail: H.vanderMarel@tudelft.nl                            COMMENT
------------------------------------------------------------COMMENT
The coordinates in the RINEX header are the adopted officialCOMMENT
national coordinates in the system ETRS89/ETRF2000.         COMMENT
SNR is mapped to RINEX snr flag value [0-9]                 COMMENT
L1 & L2: min(max(int(snr_dBHz/6), 0), 9)                    COMMENT
pseudorange smoothing corrections not applied               COMMENT
rx serial #: 323-0386                                       COMMENT
HEADER CHANGED BY EPN CB ON 2022-03-11                      COMMENT
TO BE CONFORM WITH THE INFORMATION IN                       COMMENT
ftp://epncb.oma.be/pub/station/log/duth.log                 COMMENT
                                                            COMMENT
SNR is mapped to RINEX snr flag value [1-9]                 COMMENT
LX:     < 12dBHz -> 1; 12-17dBHz -> 2; 18-23dBHz -> 3       COMMENT
24-29dBHz -> 4; 30-35dBHz -> 5; 36-41dBHz -> 6              COMMENT
42-47dBHz -> 7; 48-53dBHz -> 8; >= 54dBHz -> 9              COMMENT
Product                                                     COMMENT
rustrnx-0.8.0                FILE MERGE          20221108 090514 UTCCOMMENT
teqc  2019Feb25     Unknown             20210102 00:01:40UTCPGM / RUN BY / DATE
H. VAN DER MAREL    AGRS.NL (KAD,MD,TUD)                    OBSERVER / AGENCY
DELFT-16                                                    MARKER NAME
13502M004                                                   MARKER NUMBER
0220314044          TRM29659.00     UNAV                    ANT # / TYPE
        0.0500        0.0000        0.0000                  ANTENNA: DELTA H/E/N
323-0386            TPS ODYSSEY_E       3.5 Feb,01,2019 p5  REC # / TYPE / VERS
    30.000                                                  INTERVAL
    15    L1    L2    C1    P2    P1    S1    S2   C1C   L1C# / TYPES OF OBSERV
         D1C   S1C   C2P   L2P   D2P   S2P                  # / TYPES OF OBSERV
    18                                                      LEAP SECONDS
                                                            END OF HEADER
 21  1  1  0  0  0.0000000  0 20R01R02G07G08R09G10G13G15R15G16R16R17
                                G18R18G20G21G23R24G26G27
 116954721.816 7  90964809.026 6  21878794.287    21878798.089    21878794.473  
        42.000          39.000                                                  
                                                                                
 113907865.790 8  88595032.353 7  21346285.819    21346288.923    21346285.443  
        49.000          46.000                                                  
                                                                                
 126298057.858 6  98414080.64743  24033720.416    24033721.351    24033719.353  
        40.000          22.0004                                                 
                                                                                
 114160130.658 7  88955964.55647  21723948.105    21723953.153    21723947.155  
        46.000          47.0004                                                 
                                                                                
 120184930.156 7  93477190.884 7  22506776.986    22506777.899    22506777.465  
        44.000          43.000                                                  
                                                                                
 112144051.840 8  87384999.71448  21340302.567    21340307.619    21340301.864  
        52.000          52.0004                                                 
                                                                                
 131399268.954 6 102389055.31242  25004448.492    25004450.593    25004447.809  
        36.000          12.0004                                                 
                                                                                
 126812563.577 6  98815006.75044  24131624.962    24131627.813    24131624.907  
        38.000          29.0004                                                 
                                                                                
 118516772.306 7  92179732.837 7  22178802.374    22178804.901    22178802.684  
        45.000          42.000                                                  
                                                                                
 113556669.792 7  88485725.93146  21609114.743    21609116.936    21609113.593  
        47.000          38.0004                                                 
                                                                                
 110150054.052 7  85672270.182 7  20620317.569    20620319.227    20620317.319  
        46.000          42.000                                                  
                                                                                
 104344364.269 8  81156754.225 8  19499235.584    19499235.915    19499235.267  
        52.000          51.000                                                  
                                                                                
 121443586.995 6  94631394.73544  23109944.474    23109947.055    23109944.139  
        40.000          28.0004                                                 
                                                                                
 106844822.639 8  83101546.155 8  20015628.375    20015631.390    20015628.486  
        53.000          50.000                                                  
                                                                                
 111582858.305 8  86947705.90746  21233509.912    21233511.727    21233508.599  
        49.000          37.0004                                                 
                                                                                
 123948324.318 6  96583131.80443  23586581.658    23586584.420    23586580.391  
        39.000          20.0004                                                 
                                                                                
 111982965.979 8  87259475.17746  21309646.971    21309649.924    21309646.771  
        48.000          37.0004                                                 
                                                                                
 123664246.260 6  96183328.899 6  23125836.575    23125839.071    23125836.244  
        41.000          40.000                                                  
                                                                                
 125184221.815 6  97546158.89945  23821762.469    23821768.749    23821762.040  
        40.000          35.0004                                                 
                                                                                
 105271498.527 8  82029766.96649  20032495.677    20032500.289    20032495.191  
        53.000          56.0004                                                 
                                                                                
 21  1  1  0  0 30.0000000  0 20R01R02G07G08R09G10G13G15R15G16R16R17
                                G18R18G20G21G23R24G26G27
 116971765.651 7  90978065.341 6  21881983.733    21881986.213    21881983.163  
        42.000          39.000                                                  
                                                                                
 113784346.640 8  88498961.925 7  21323137.795    21323141.273    21323137.984  
        49.000          46.000                                                  
                                                                                
 126282454.570 6  98401922.22443  24030750.580    24030752.522    24030750.489  
        39.000          22.0004                                                 
                                                                                
 114050375.152 7  88870440.79347  21703062.163    21703067.314    21703061.397  
        47.000          47.0004                                                 
                                                                                
 120062488.238 7  93381958.277 7  22483848.608    22483848.793    22483847.799  
        44.000          43.000                                                  
                                                                                
 112060701.507 8  87320051.41948  21324441.400    21324446.427    21324440.822  
        50.000          53.0004                                                 
                                                                                
 131386778.390 6 102379322.35541  25002073.211    25002073.178    25002070.920  
        37.000          11.0004                                                 
                                                                                
 126776372.938 6  98786806.25744  24124738.057    24124741.296    24124737.826  
        36.000          29.0004                                                 
                                                                                
 118606651.735 7  92249639.051 7  22195622.723    22195624.811    22195622.291  
        46.000          43.000                                                  
                                                                                
 113605326.339 8  88523640.11346  21618373.485    21618375.988    21618372.590  
        48.000          37.0004                                                 
                                                                                
 110140961.523 7  85665198.199 7  20618615.200    20618616.925    20618615.133  
        46.000          42.000                                                  
                                                                                
 104350689.351 8  81161673.724 8  19500417.645    19500417.946    19500417.378  
        52.000          50.000                                                  
                                                                                
 121505620.191 7  94679732.30044  23121748.945    23121751.795    23121748.378  
        42.000          28.0004                                                 
                                                                                
 106753353.463 8  83030403.463 8  19998493.489    19998496.049    19998493.333  
        53.000          49.000                                                  
                                                                                
 111576725.337 8  86942926.97146  21232342.681    21232344.757    21232341.519  
        48.000          37.0004                                                 
                                                                                
 123827565.796 6  96489034.26043  23563601.617    23563604.133    23563600.555  
        39.000          20.0004                                                 
                                                                                
 111966699.068 7  87246799.66946  21306551.543    21306554.461    21306551.303  
        46.000          38.0004                                                 
                                                                                
 123733637.895 6  96237300.116 6  23138812.780    23138815.942    23138813.479  
        41.000          39.000                                                  
                                                                                
 125261073.448 6  97606043.26845  23836386.907    23836393.122    23836386.335  
        38.000          35.0004                                                 
                                                                                
 105228685.775 8  81996406.36549  20024349.016    20024353.302    20024348.211  
        53.000          57.0004                                                 
                                                                                
 21  1  1  0  1  0.0000000  0 20R01R02G07G08R09G10G13G15R15G16R16R17
                                G18R18G20G21G23R24G26G27
 116989557.807 7  90991903.697 6  21885311.397    21885315.075    21885311.490  
        42.000          39.000                                                  
                                                                                
 113661403.664 8  88403339.633 7  21300098.037    21300101.842    21300098.586  
        49.000          46.000                                                  
                                                                                
 126267372.371 6  98390169.86343  24027880.908    24027881.918    24027879.896  
        40.000          22.0004                                                 
                                                                                
 113940878.600 7  88785118.81047  21682225.346    21682230.719    21682224.950  
        46.000          47.0004                                                 
                                                                                
 119940631.105 7  93287180.473 7  22461029.215    22461028.349    22461028.981  
        44.000          42.000                                                  
                                                                                
 111977879.803 8  87255515.04148  21308680.905    21308685.922    21308680.328  
        51.000          53.0004                                                 
                                                                                
 131374853.466 6 102370030.20842  24999803.342    24999804.985    24999803.569  
        36.000          12.0004                                                 
                                                                                
 126740781.514 6  98759072.69544  24117965.362    24117968.209    24117964.906  
        38.000          29.0004                                                 
                                                                                
 118696815.992 7  92319766.796 7  22212494.650    22212497.561    22212495.399  
        46.000          43.000                                                  
                                                                                
 113654392.158 8  88561873.21646  21627710.355    21627712.904    21627709.440  
        48.000          37.0004                                                 
                                                                                
 110132684.584 7  85658760.560 7  20617066.147    20617067.504    20617065.779  
        46.000          43.000                                                  
                                                                                
 104357398.636 8  81166892.050 8  19501671.338    19501671.634    19501671.112  
        53.000          50.000                                                  
                                                                                
 121567789.421 6  94728175.85344  23133579.286    23133582.109    23133578.996  
        41.000          27.0004                                                 
                                                                                
 106662240.699 8  82959537.980 8  19981424.756    19981427.632    19981424.664  
        53.000          50.000                                                  
                                                                                
 111571159.111 8  86938589.65246  21231283.322    21231285.530    21231282.289  
        49.000          37.0004                                                 
                                                                                
 123706996.679 6  96395084.31943  23540659.034    23540661.741    23540657.573  
        39.000          20.0004                                                 
                                                                                
 111951042.015 8  87234599.37346  21303572.357    21303575.010    21303571.950  
        48.000          37.0004                                                 
                                                                                
 123803096.383 6  96291323.331 6  23151801.676    23151805.086    23151802.503  
        41.000          40.000                                                  
                                                                                
 125338036.190 6  97666014.22145  23851032.508    23851038.707    23851031.993  
        39.000          35.0004                                                 
                                                                                
 105186320.332 8  81963394.31949  20016287.048    20016291.406    20016286.310  
        53.000          56.0004                                                 
                                                                                
 21  1  1  0  1 30.0000000  0 20R01R02G07G08R09G10G13G15R15G16R16R17
                                G18R18G20G21G23R24G26G27
 117008096.799 6  91006322.933 6  21888779.532    21888782.956    21888779.373  
        41.000          39.000                                                  
                                                                                
 113539041.490 8  88308169.067 7  21277168.402    21277171.362    21277167.987  
        49.000          46.000                                                  
                                                                                
 126252810.509 6  98378822.95543  24025109.315    24025110.938    24025108.853  
        39.000          21.0004                                                 
                                                                                
 113831643.640 7  88700000.66447  21661439.183    21661443.983    21661438.247  
        47.000          47.0004                                                 
                                                                                
 119819363.005 7  93192860.811 7  22438318.163    22438318.985    22438318.759  
        44.000          43.000                                                  
                                                                                
 111895589.262 8  87191392.55848  21293021.502    21293026.612    21293020.819  
        51.000          53.0004                                                 
                                                                                
 131363494.327 6 102361178.93941  24997641.211    24997640.568    24997640.891  
        36.000          11.0004                                                 
                                                                                
 126705790.538 6  98731807.01045  24111307.440    24111310.133    24111306.900  
        39.000          30.0004                                                 
                                                                                
 118787261.221 7  92390113.085 7  22229420.720    22229423.519    22229420.740  
        46.000          43.000                                                  
                                                                                
 113703865.153 8  88600423.59646  21637124.819    21637127.249    21637123.797  
        48.000          37.0004                                                 
                                                                                
 110125222.108 7  85652956.395 7  20615669.660    20615670.586    20615668.839  
        46.000          43.000                                                  
                                                                                
 104364491.733 9  81172408.898 8  19502996.862    19502997.099    19502996.778  
        54.000          50.000                                                  
                                                                                
 121630093.704 6  94776724.63144  23145435.539    23145437.956    23145435.146  
        41.000          27.0004                                                 
                                                                                
 106571485.890 8  82888950.912 8  19964422.912    19964426.058    19964423.178  
        52.000          50.000                                                  
                                                                                
 111566158.558 7  86934693.12646  21230331.916    21230334.019    21230330.817  
        47.000          37.0004                                                 
                                                                                
 123586618.392 6  96301283.07543  23517751.001    23517753.387    23517750.613  
        38.000          20.0004                                                 
                                                                                
 111935994.607 8  87222874.13346  21300708.956    21300711.588    21300708.523  
        48.000          37.0004                                                 
                                                                                
 123872621.931 6  96345398.718 6  23164804.646    23164806.268    23164804.531  
        41.000          40.000                                                  
                                                                                
 125415108.358 6  97726070.44345  23865699.179    23865705.090    23865698.452  
        39.000          35.0004                                                 
                                                                                
 105144403.430 8  81930731.79149  20008310.542    20008314.881    20008309.782  
        52.000          56.0004                                                 
                                                                                
 21  1  1  0  2  0.0000000  0 20R01R02G07G08R09G10G13G15R15G16R16R17
                                G18R18G20G21G23R24G26G27
 118629941.131 6  92267757.416 6  22192179.512    22192183.029    22192179.315  
        41.000          39.000                                                  
                                                                                
 115017018.005 8  89457706.382 7  21554139.921    21554143.433    21554139.926  
        49.000          46.000                                                  
                                                                                
 127814188.268 6  99595480.95443  24322229.087    24322231.132    24322228.841  
        39.000          21.0004                                                 
                                                                                
 115298094.693 7  89842689.79847  21940495.141    21940500.296    21940494.678  
        46.000          47.0004                                                 
                                                                                
 121299566.414 7  94344130.109 7  22715513.360    22715514.204    22715512.810  
        44.000          44.000                                                  
                                                                                
 113389253.626 8  88355286.88648  21577256.225    21577261.502    21577255.760  
        51.000          53.0004                                                 
                                                                                
 132928120.072 5 103580367.84041  25295378.923    25295380.564    25295381.028  
        35.000          11.0004                                                 
                                                                                
 128246821.368 6  99932610.27645  24404555.537    24404558.173    24404555.414  
        38.000          30.0004                                                 
                                                                                
 120479979.819 7  93706671.987 7  22546189.455    22546192.418    22546190.160  
        45.000          43.000                                                  
                                                                                
 115329161.375 7  89866888.17846  21946408.164    21946410.849    21946407.384  
        46.000          37.0004                                                 
                                                                                
 111720010.126 7  86893347.060 7  20914216.803    20914218.120    20914216.654  
        45.000          43.000                                                  
                                                                                
 105976217.149 8  82425973.105 8  19804186.402    19804186.587    19804186.051  
        53.000          50.000                                                  
                                                                                
 123267949.051 6  96052975.54444  23457109.169    23457111.856    23457108.235  
        40.000          27.0004                                                 
                                                                                
 108081405.136 8  84063332.547 8  20247281.832    20247284.973    20247281.940  
        53.000          50.000                                                  
                                                                                
 113137142.408 8  88158836.38546  21529280.386    21529282.273    21529278.981  
        48.000          36.0004                                                 
                                                                                
 125041855.521 6  97435234.10143  23794673.867    23794676.344    23794672.877  
        38.000          20.0004                                                 
                                                                                
 113496976.151 8  88439223.39246  21597753.751    21597756.499    21597753.373  
        49.000          38.0004                                                 
                                                                                
 125545335.540 6  97646398.141 6  23477609.816    23477611.994    23477610.617  
        40.000          39.000                                                  
                                                                                
 127067704.665 6  99013807.80945  24180177.389    24180183.882    24180177.082  
        39.000          35.0004                                                 
                                                                                
 106678356.650 8  83126020.01249  20300212.153    20300216.478    20300211.432  
        53.000          56.0004                                                 
                                                                                
 21  1  1  0  2 30.0000000  0 20R01R02G07G08R09G10G13G15R15G16R16R17
                                G18R18G20G21G23R24G26G27
 118649958.049 7  92283326.133 6  22195923.781    22195927.032    22195923.277  
        42.000          39.000                                                  
                                                                                
 114895822.003 8  89363442.846 7  21531428.145    21531431.199    21531427.910  
        50.000          46.000                                                  
                                                                                
 127800656.941 6  99584937.05043  24319655.154    24319656.957    24319654.492  
        38.000          22.0004                                                 
                                                                                
 115189379.684 7  89757976.81348  21919807.668    21919812.555    21919806.942  
        45.000          48.0004                                                 
                                                                                
 121179480.177 7  94250729.680 7  22693025.178    22693025.557    22693024.471  
        44.000          44.000                                                  
                                                                                
 113308022.340 8  88291989.79948  21561798.855    21561803.696    21561798.027  
        52.000          53.0004                                                 
                                                                                
 132917882.234 5 103572390.33241  25293430.129    25293431.518    25293427.819  
        34.000           9.0004                                                 
                                                                                
 128213025.288 6  99906275.68745  24398125.639    24398127.446    24398124.262  
        40.000          31.0004                                                 
                                                                                
 120570966.597 7  93777439.476 7  22563216.925    22563219.491    22563217.284  
        46.000          43.000                                                  
                                                                                
 115379434.974 8  89906062.40346  21955975.435    21955977.579    21955974.198  
        48.000          37.0004                                                 
                                                                                
 111714165.252 7  86888801.024 7  20913122.685    20913124.183    20913122.630  
        46.000          43.000                                                  
                                                                                
 105984067.776 8  82432079.135 8  19805653.968    19805653.869    19805653.349  
        53.000          50.000                                                  
                                                                                
 123330511.284 6  96101725.32544  23469014.693    23469016.659    23469013.901  
        41.000          27.0004                                                 
                                                                                
 107991361.311 8  83993298.468 8  20230413.937    20230416.740    20230413.732  
        52.000          50.000                                                  
                                                                                
 113133262.524 7  88155813.10646  21528541.663    21528543.877    21528540.693  
        47.000          37.0004                                                 
                                                                                
 124921854.553 6  97341726.88843  23771838.395    23771840.300    23771837.143  
        39.000          20.0004                                                 
                                                                                
 113483138.205 7  88428440.58346  21595120.665    21595123.188    21595120.050  
        46.000          37.0004                                                 
                                                                                
 125614984.269 6  97700569.319 6  23490635.076    23490637.016    23490635.542  
        40.000          40.000                                                  
                                                                                
 127144981.261 6  99074023.32145  24194882.615    24194888.957    24194882.180  
        38.000          35.0004                                                 
                                                                                
 106637331.214 8  83094052.13849  20292405.210    20292409.590    20292404.579  
        53.000          56.0004                                                 
                                                                                
 21  1  1  0  3  0.0000000  0 20R01R02G07G08R09G10G13G15R15G16R16R17
                                G18R18G20G21G23R24G26G27
 118670713.093 7  92299468.954 6  22199806.501    22199810.315    22199806.519  
        42.000          39.000                                                  
                                                                                
 114775217.837 8  89269639.635 7  21508826.894    21508830.116    21508826.663  
        50.000          47.000                                                  
                                                                                
 127787641.437 6  99574795.05843  24317177.962    24317179.749    24317177.567  
        39.000          21.0004                                                 
                                                                                
 115080929.416 7  89673470.11647  21899170.009    21899175.157    21899169.584  
        46.000          47.0004                                                 
                                                                                
 121059992.616 7  94157794.896 7  22670648.673    22670649.280    22670649.025  
        44.000          43.000                                                  
                                                                                
 113227325.420 8  88229109.10248  21546442.492    21546447.624    21546441.908  
        52.000          53.0004                                                 
                                                                                
 132908206.494 5 103564850.82641  25291587.511    25291591.571    25291588.461  
        34.000          11.0004                                                 
                                                                                
 128179829.530 6  99880408.87345  24391807.594    24391810.032    24391806.888  
        39.000          30.0004                                                 
                                                                                
 120662220.460 7  93848414.683 7  22580293.934    22580296.515    22580294.021  
        45.000          43.000                                                  
                                                                                
 115430108.006 7  89945547.87446  21965618.102    21965620.295    21965617.154  
        47.000          37.0004                                                 
                                                                                
 111709129.382 7  86884884.224 7  20912180.088    20912181.435    20912179.815  
        45.000          42.000                                                  
                                                                                
 105992298.596 8  82438480.877 8  19807191.447    19807191.889    19807191.297  
        53.000          50.000                                                  
                                                                                
 123393202.589 6  96150575.68544  23480943.864    23480946.375    23480943.350  
        41.000          27.0004                                                 
                                                                                
 107901676.322 8  83923543.485 8  20213612.724    20213615.735    20213612.624  
        53.000          50.000                                                  
                                                                                
 113129943.635 8  88153226.96346  21527910.167    21527912.258    21527908.991  
        48.000          36.0004                                                 
                                                                                
 124802045.702 6  97248369.34743  23749040.335    23749041.562    23749038.365  
        39.000          20.0004                                                 
                                                                                
 113469906.136 7  88418129.88846  21592602.287    21592605.233    21592602.096  
        47.000          37.0004                                                 
                                                                                
 125684695.851 6  97754789.396 6  23503671.583    23503673.754    23503671.406  
        40.000          40.000                                                  
                                                                                
 127222359.020 6  99134317.65645  24209607.523    24209613.581    24209606.840  
        39.000          34.0004                                                 
                                                                                
 106596754.813 8  83062434.16949  20284683.683    20284688.138    20284683.134  
        53.000          56.0004                                                 
                                                                                
 21  1  1  0  3 30.0000000  0 20R01R02G07G08R09G10G13G15R15G16R16R17
                                G18R18G20G21G23R24G26G27
 118692204.864 7  92316184.787 6  22203826.412    22203830.350    22203826.672  
        42.000          39.000                                                  
                                                                                
 114655210.259 8  89176300.435 7  21486337.095    21486340.878    21486337.430  
        50.000          46.000                                                  
                                                                                
 127775141.621 6  99565054.93643  24314798.792    24314800.873    24314799.499  
        40.000          22.0004                                                 
                                                                                
 114972746.329 7  89589171.60948  21878583.628    21878588.716    21878583.115  
        46.000          48.0004                                                 
                                                                                
 120941108.259 7  94065329.284 7  22648385.790    22648386.303    22648385.348  
        44.000          44.000                                                  
                                                                                
 113147165.363 8  88166646.73748  21531188.572    21531193.682    21531187.873  
        52.000          53.0004                                                 
                                                                                
 132899093.064 5 103557749.37541  25289854.267    25289858.202    25289853.539  
        33.000          11.0004                                                 
                                                                                
 128147235.565 6  99855011.00845  24385604.585    24385607.433    24385603.625  
        36.000          30.0004                                                 
                                                                                
 120753737.952 7  93919594.921 7  22597419.019    22597422.755    22597420.065  
        44.000          43.000                                                  
                                                                                
 115481179.493 7  89985343.83146  21975336.720    21975338.842    21975335.655  
        47.000          37.0004                                                 
                                                                                
 111704902.084 7  86881596.318 7  20911388.442    20911390.105    20911388.318  
        45.000          43.000                                                  
                                                                                
 106000909.676 8  82445178.373 8  19808800.472    19808801.044    19808800.518  
        52.000          50.000                                                  
                                                                                
 123456022.344 6  96199526.10844  23492897.617    23492901.007    23492897.786  
        40.000          26.0004                                                 
                                                                                
 107812352.006 8  83854069.028 8  20196879.629    20196882.471    20196879.503  
        53.000          51.000                                                  
                                                                                
 113127185.247 8  88151077.57746  21527385.184    21527387.326    21527384.047  
        49.000          36.0004                                                 
                                                                                
 124682431.007 6  97155163.13943  23726278.189    23726279.154    23726276.321  
        40.000          21.0004                                                 
                                                                                
 113457280.090 7  88408291.42146  21590199.640    21590202.491    21590199.299  
        46.000          37.0004                                                 
                                                                                
 125754470.221 6  97809058.300 6  23516718.907    23516722.040    23516719.611  
        40.000          40.000                                                  
                                                                                
 127299836.621 6  99194689.80845  24224350.907    24224356.604    24224350.352  
        39.000          34.0004                                                 
                                                                                
 106556629.081 8  83031167.35949  20277047.892    20277052.448    20277047.385  
        53.000          56.0004                                                 
                                                                                
 21  1  1  0  4  0.0000000  0 20R01R02G07G08R09G10G13G15R15G16R16R17
                                G18R18G20G21G23R24G26G27
 118714431.589 7  92333472.268 6  22207985.446    22207988.145    22207985.347  
        42.000          39.000                                                  
                                                                                
 114535804.673 8  89083429.453 7  21463960.575    21463964.406    21463960.790  
        50.000          47.000                                                  
                                                                                
 127763157.691 6  99555716.80043  24312519.043    24312520.876    24312518.511  
        40.000          22.0004                                                 
                                                                                
 114864833.453 7  89505083.65148  21858048.531    21858053.563    21858047.886  
        44.000          48.0004                                                 
                                                                                
 120822832.176 7  93973336.767 7  22626235.510    22626236.362    22626236.087  
        44.000          43.000                                                  
                                                                                
 113067544.841 8  88104604.79548  21516037.197    21516042.229    21516036.417  
        52.000          53.0004                                                 
                                                                                
 132890542.048 5 103551086.25241  25288228.810    25288229.702    25288225.934  
        34.000          10.0004                                                 
                                                                                
 128115244.991 6  99830083.30245  24379517.409    24379520.201    24379516.595  
        39.000          30.0004                                                 
                                                                                
 120845516.004 7  93990977.821 7  22614594.620    22614597.880    22614595.018  
        44.000          43.000                                                  
                                                                                
 115532648.226 7  90025449.33546  21985130.879    21985133.000    21985129.917  
        47.000          37.0004                                                 
                                                                                
 111701482.944 7  86878936.973 7  20910748.157    20910750.050    20910748.006  
        45.000          42.000                                                  
                                                                                
 106009901.179 8  82452171.755 8  19810480.927    19810481.268    19810480.799  
        52.000          50.000                                                  
                                                                                
 123518970.190 6  96248576.34244  23504876.528    23504879.257    23504876.492  
        41.000          26.0004                                                 
                                                                                
 107723390.515 9  83784876.764 8  20180213.888    20180217.044    20180213.927  
        54.000          51.000                                                  
                                                                                
 113124987.988 7  88149365.43246  21526967.248    21526969.238    21526965.978  
        46.000          36.0004                                                 
                                                                                
 124563012.429 6  97062109.72643  23703552.735    23703555.424    23703551.895  
        39.000          21.0004                                                 
                                                                                
 113445260.349 8  88398925.40046  21587912.439    21587915.242    21587912.072  
        48.000          37.0004                                                 
                                                                                
 125824307.941 6  97863376.488 6  23529780.858    23529781.894    23529780.584  
        41.000          40.000                                                  
                                                                                
 127377412.928 6  99255138.87745  24239113.205    24239119.144    24239112.811  
        39.000          34.0004                                                 
                                                                                
 106516955.711 8  83000253.03749  20269498.400    20269502.844    20269497.770  
        52.000          57.0004                                                 
                                                                                
 21  1  1  0  4 30.0000000  0 20R01R02G07G08R09G10G13G15R15G16R16R17
                                G18R18G20G21G23R24G26G27
 118737390.350 7  92351329.109 6  22212280.597    22212283.046    22212280.077  
        42.000          39.000                                                  
                                                                                
 114417004.026 8  88991028.980 7  21441697.329    21441701.073    21441697.638  
        49.000          47.000                                                  
                                                                                
 127751687.500 6  99546778.98643  24310336.520    24310337.682    24310336.281  
        40.000          21.0004                                                 
                                                                                
 114757191.562 7  89421206.85147  21837565.021    21837570.062    21837564.292  
        46.000          47.0004                                                 
                                                                                
 120705166.960 7  93881819.372 7  22604200.272    22604201.933    22604200.819  
        44.000          44.000                                                  
                                                                                
 112988464.365 8  88042983.66248  21500988.790    21500993.702    21500988.023  
        52.000          53.0004                                                 
                                                                                
 132882551.810 5 103544860.08841  25286708.656    25286709.710    25286707.833  
        34.000          11.0004                                                 
                                                                                
 128083857.122 6  99805625.22645  24373544.761    24373547.402    24373543.910  
        36.000          30.0004                                                 
                                                                                
 120937549.437 7  94062559.355 7  22631818.109    22631820.682    22631817.975  
        44.000          43.000                                                  
                                                                                
 115584511.227 8  90065862.05746  21995000.032    21995002.128    21994999.181  
        48.000          37.0004                                                 
                                                                                
 111698869.510 7  86876904.275 7  20910259.931    20910261.033    20910258.849  
        45.000          43.000                                                  
                                                                                
 106019271.441 8  82459459.730 8  19812232.311    19812232.337    19812232.041  
        53.000          50.000                                                  
                                                                                
 123582043.617 6  96297724.46844  23516879.289    23516881.177    23516878.888  
        41.000          26.0004                                                 
                                                                                
 107634791.783 8  83715966.646 8  20163616.298    20163619.408    20163616.463  
        53.000          50.000                                                  
                                                                                
 113123349.560 8  88148088.74146  21526655.529    21526657.355    21526654.252  
        49.000          36.0004                                                 
                                                                                
 124443789.786 6  96969209.00143  23680865.925    23680868.183    23680864.740  
        40.000          21.0004                                                 
                                                                                
 113433845.062 8  88390030.37746  21585740.097    21585742.749    21585739.807  
        49.000          37.0004                                                 
                                                                                
 125894207.005 6  97917742.396 6  23542851.410    23542853.221    23542851.568  
        41.000          40.000                                                  
                                                                                
 127455084.703 6  99315662.33045  24253893.459    24253899.572    24253893.259  
        39.000          33.0004                                                 
                                                                                
 106477734.411 8  82969690.97749  20262034.833    20262039.247    20262034.190  
        53.000          56.0004                                                 
                                                                                
 21  1  1  0  5  0.0000000  0 20R01R02G07G08R09G10G13G15R15G16R16R17
                                G18R18G20G21G23R24G26G27
 118761077.056 7  92369752.135 6  22216711.149    22216714.037    22216710.920  
        42.000          38.000                                                  
                                                                                
 114298810.729 8  88899100.891 7  21419548.230    21419551.619    21419548.154  
        50.000          47.000                                                  
                                                                                
 127740728.464 6  99538239.47243  24308250.172    24308252.730    24308250.359  
        39.000          21.0004                                                 
                                                                                
 114649821.033 7  89337541.50048  21817132.980    21817138.135    21817132.245  
        47.000          48.0004                                                 
                                                                                
 120588115.002 7  93790778.946 7  22582280.633    22582281.545    22582280.792  
        45.000          44.000                                                  
                                                                                
 112909924.157 8  87981783.51748  21486042.952    21486047.994    21486042.299  
        51.000          52.0004                                                 
                                                                                
 132875120.032 6 103539069.07741  25285293.190    25285294.805    25285293.996  
        36.000          11.0004                                                 
                                                                                
 128053070.926 6  99781635.99745  24367685.796    24367689.614    24367685.534  
        37.000          30.0004                                                 
                                                                                
 121029832.663 7  94134335.174 7  22649088.526    22649090.233    22649087.255  
        44.000          43.000                                                  
                                                                                
 115636764.617 8  90106578.98446  22004943.426    22004945.555    22004942.683  
        48.000          36.0004                                                 
                                                                                
 111697058.745 7  86875495.892 7  20909919.546    20909921.967    20909919.774  
        45.000          43.000                                                  
                                                                                
 106029018.539 9  82467040.798 8  19814053.434    19814053.900    19814053.171  
        54.000          50.000                                                  
                                                                                
 123645239.864 6  96346968.27544  23528905.420    23528907.658    23528904.748  
        41.000          26.0004                                                 
                                                                                
 107546554.873 8  83647337.939 8  20147086.812    20147089.594    20147086.690  
        53.000          50.000                                                  
                                                                                
 113122267.404 8  88147245.50446  21526449.892    21526451.384    21526448.390  
        48.000          36.0004                                                 
                                                                                
 124324762.444 6  96876460.46343  23658215.788    23658217.313    23658214.586  
        41.000          22.0004                                                 
                                                                                
 113423032.060 7  88381604.67546  21583682.445    21583685.203    21583682.283  
        46.000          37.0004                                                 
                                                                                
 125964165.147 7  97972154.252 6  23555935.094    23555936.282    23555934.760  
        42.000          41.000                                                  
                                                                                
 127532848.308 6  99376257.33045  24268691.585    24268697.471    24268691.013  
        38.000          33.0004                                                 
                                                                                
 106438964.470 8  82939480.62649  20254657.221    20254661.583    20254656.522  
        53.000          56.0004                                                 
                                                                                
 21  1  1  0  5 30.0000000  0 20R01R02G07G08R09G10G13G15R15G16R16R17
                                G18R18G20G21G23R24G26G27
 118785490.210 7  92388740.174 6  22221278.787    22221281.001    22221277.856  
        42.000          39.000                                                  
                                                                                
 114181229.665 8  88807648.976 7  21397513.942    21397516.808    21397513.658  
        49.000          47.000                                                  
                                                                                
 127730280.659 6  99530098.32343  24306261.838    24306264.024    24306261.887  
        39.000          21.0004                                                 
                                                                                
 114542724.588 7  89254089.71347  21796753.086    21796758.295    21796752.428  
        47.000          47.0004                                                 
                                                                                
 120471680.759 7  93700218.964 7  22560475.951    22560477.755    22560476.543  
        45.000          44.000                                                  
                                                                                
 112831926.905 8  87921006.45248  21471200.554    21471205.590    21471199.950  
        51.000          53.0004                                                 
                                                                                
 132868247.205 5 103533713.62741  25283985.343    25283987.031    25283984.848  
        34.000          11.0004                                                 
                                                                                
 128022887.977 6  99758116.82345  24361942.469    24361944.496    24361942.120  
        38.000          30.0004                                                 
                                                                                
 121122362.907 7  94206303.121 7  22666403.023    22666406.232    22666402.956  
        44.000          43.000                                                  
                                                                                
 115689407.593 7  90147599.48146  22014961.204    22014963.401    22014960.130  
        47.000          36.0004                                                 
                                                                                
 111696050.555 7  86874711.727 7  20909730.751    20909733.119    20909730.961  
        45.000          43.000                                                  
                                                                                
 106039142.729 8  82474915.162 8  19815945.703    19815945.911    19815945.271  
        53.000          50.000                                                  
                                                                                
 123708558.625 6  96396307.53244  23540954.294    23540956.886    23540954.012  
        40.000          26.0004                                                 
                                                                                
 107458682.113 8  83578992.458 8  20130624.805    20130628.036    20130624.935  
        53.000          50.000                                                  
                                                                                
 113121741.449 8  88146835.66546  21526349.423    21526351.373    21526348.213  
        49.000          36.0004                                                 
                                                                                
 124205932.625 6  96783865.83043  23635603.067    23635605.393    23635601.520  
        41.000          22.0004                                                 
                                                                                
 113412821.625 8  88373648.49746  21581739.859    21581742.174    21581739.276  
        49.000          37.0004                                                 
                                                                                
 126034183.271 6  98026612.750 6  23569026.765    23569029.727    23569027.470  
        41.000          40.000                                                  
                                                                                
 127610702.763 6  99436923.12945  24283507.183    24283512.733    24283506.341  
        39.000          33.0004                                                 
                                                                                
 106400647.729 8  82909623.42149  20247365.847    20247370.160    20247365.110  
        52.000          57.0004                                                 
                                                                                
 21  1  1  0  6  0.0000000  0 20R01R02G07G08R09G10G13G15R15G16R16R17
                                G18R18G20G21G23R24G26G27
 118810626.842 7  92408290.909 6  22225981.087    22225984.306    22225980.390  
        42.000          39.000                                                  
                                                                                
 114064265.326 8  88716676.743 7  21375594.658    21375597.730    21375594.494  
        50.000          47.000                                                  
                                                                                
 127720342.399 6  99522354.19943  24304371.502    24304372.686    24304371.530  
        36.000          21.0004                                                 
                                                                                
 114435903.019 7  89170852.11648  21776425.574    21776430.843    21776424.921  
        47.000          48.0004                                                 
                                                                                
 120355867.669 7  93610142.110 7  22538787.549    22538790.046    22538788.613  
        44.000          45.000                                                  
                                                                                
 112754473.615 8  87860653.25648  21456461.613    21456466.717    21456461.127  
        52.000          53.0004                                                 
                                                                                
 132861931.955 5 103528792.68941  25282783.279    25282786.124    25282783.680  
        33.000           9.0004                                                 
                                                                                
 127993308.235 6  99735067.68444  24356312.256    24356315.613    24356312.487  
        38.000          29.0004                                                 
                                                                                
 121215135.167 7  94278459.293 7  22683763.405    22683767.509    22683764.200  
        44.000          43.000                                                  
                                                                                
 115742437.707 7  90188921.64046  22025052.517    22025054.624    22025051.454  
        46.000          36.0004                                                 
                                                                                
 111695842.510 7  86874549.896 7  20909692.521    20909694.283    20909692.102  
        45.000          43.000                                                  
                                                                                
 106049642.841 8  82483081.905 8  19817907.512    19817908.216    19817907.339  
        52.000          50.000                                                  
                                                                                
 123771997.947 6  96445740.75544  23553026.310    23553029.054    23553026.281  
        41.000          26.0004                                                 
                                                                                
 107371173.753 8  83510930.406 8  20114231.510    20114234.924    20114231.687  
        52.000          50.000                                                  
                                                                                
 113121769.699 7  88146857.68546  21526354.702    21526356.789    21526353.502  
        47.000          36.0004                                                 
                                                                                
 124087301.002 6  96691425.64543  23613028.083    23613030.437    23613027.454  
        40.000          22.0004                                                 
                                                                                
 113403212.307 8  88366160.71646  21579910.984    21579913.637    21579910.808  
        48.000          37.0004                                                 
                                                                                
 126104259.858 6  98081116.727 6  23582131.780    23582133.766    23582132.590  
        41.000          40.000                                                  
                                                                                
 127688645.276 6  99497657.54045  24298338.555    24298344.716    24298338.069  
        38.000          33.0004                                                 
                                                                                
 106362784.303 8  82880119.45149  20240160.608    20240165.008    20240159.965  
        52.000          57.0004                                                 
                                                                                
 21  1  1  0  6 30.0000000  0 20R01R02G07G08R09G10G13G15R15G16R16R17
                                G18R18G20G21G23R24G26G27
 118836482.375 7  92428400.782 6  22230817.712    22230820.289    22230816.939  
        42.000          39.000                                                  
                                                                                
 113947918.482 8  88626184.779 7  21353791.644    21353794.299    21353791.156  
        50.000          47.000                                                  
                                                                                
 127710910.456 6  99515004.65743  24302576.707    24302578.472    24302576.236  
        38.000          21.0004                                                 
                                                                                
 114329356.624 7  89087828.94848  21756150.455    21756155.676    21756149.880  
        46.000          48.0004                                                 
                                                                                
 120240677.043 7  93520549.393 7  22517217.776    22517217.930    22517217.357  
        45.000          44.000                                                  
                                                                                
 112677563.757 8  87800723.51148  21441826.392    21441831.224    21441825.681  
        51.000          52.0004                                                 
                                                                                
 132856171.594 6 103524304.07141  25281688.334    25281690.566    25281688.822  
        36.000          10.0004                                                 
                                                                                
 127964329.601 6  99712486.92045  24350798.796    24350801.816    24350798.208  
        38.000          30.0004                                                 
                                                                                
 121308143.478 7  94350799.054 7  22701169.282    22701172.680    22701169.786  
        44.000          42.000                                                  
                                                                                
 115795850.513 7  90230541.99546  22035216.350    22035218.931    22035215.539  
        46.000          36.0004                                                 
                                                                                
 111696431.026 7  86875007.607 7  20909802.542    20909804.340    20909802.348  
        45.000          43.000                                                  
                                                                                
 106060515.822 8  82491538.656 8  19819939.888    19819940.137    19819939.470  
        52.000          50.000                                                  
                                                                                
 123835554.326 6  96495265.18344  23565120.045    23565123.483    23565120.512  
        40.000          26.0004                                                 
                                                                                
 107284028.793 8  83443151.004 8  20097906.886    20097909.499    20097906.453  
        52.000          51.000                                                  
                                                                                
 113122349.654 8  88147309.60446  21526464.847    21526467.036    21526463.934  
        48.000          36.0004                                                 
                                                                                
 123968866.196 6  96599138.81843  23590490.507    23590492.934    23590489.040  
        40.000          22.0004                                                 
                                                                                
 113394201.236 7  88359139.10446  21578196.265    21578198.895    21578195.964  
        47.000          37.0004                                                 
                                                                                
 126174391.704 7  98135663.690 6  23595248.182    23595248.909    23595247.811  
        42.000          40.000                                                  
                                                                                
 127766671.687 6  99558457.32445  24313187.125    24313192.626    24313186.265  
        39.000          32.0004                                                 
                                                                                
 106325372.811 8  82850967.64149  20233041.446    20233045.852    20233040.860  
        51.000          56.0004                                                 
                                                                                
 21  1  1  0  7  0.0000000  0 20R01R02G07G08R09G10G13G15R15G16R16R17
                                G18R18G20G21G23R24G26G27
 118863054.783 7  92449068.238 6  22235788.808    22235790.970    22235787.845  
        42.000          39.000                                                  
                                                                                
 113832194.434 8  88536177.208 7  21332105.434    21332107.622    21332104.593  
        50.000          47.000                                                  
                                                                                
 127701984.053 6  99508049.01943  24300878.751    24300879.227    24300877.808  
        40.000          21.0004                                                 
                                                                                
 114223087.575 7  89005021.89148  21735928.028    21735933.350    21735927.596  
        46.000          48.0004                                                 
                                                                                
 120126113.294 7  93431444.249 7  22495763.744    22495763.798    22495763.076  
        45.000          44.000                                                  
                                                                                
 112601199.394 8  87741218.83148  21427294.543    21427299.559    21427293.945  
        52.000          52.0004                                                 
                                                                                
 132850965.439 5 103520247.32741  25280697.276    25280698.991    25280695.677  
        35.000          10.0004                                                 
                                                                                
 127935953.016 6  99690375.29845  24345399.348    24345401.968    24345398.959  
        39.000          31.0004                                                 
                                                                                
 121401384.007 7  94423319.434 7  22718618.263    22718621.357    22718618.293  
        45.000          42.000                                                  
                                                                                
 115849644.362 7  90272459.26946  22045453.109    22045455.478    22045452.083  
        46.000          36.0004                                                 
                                                                                
 111697815.269 7  86876084.223 7  20910061.959    20910063.488    20910061.647  
        44.000          43.000                                                  
                                                                                
 106071761.598 8  82500285.359 8  19822041.152    19822041.534    19822040.767  
        52.000          50.000                                                  
                                                                                
 123899227.061 7  96544880.27444  23577237.676    23577240.193    23577237.204  
        42.000          26.0004                                                 
                                                                                
 107197248.651 8  83375655.360 8  20081649.703    20081652.700    20081649.668  
        52.000          51.000                                                  
                                                                                
 113123480.467 8  88148190.76046  21526680.318    21526682.325    21526678.886  
        50.000          36.0004                                                 
                                                                                
 123850629.750 6  96507006.55743  23567990.777    23567993.379    23567989.629  
        39.000          22.0004                                                 
                                                                                
 113385788.083 8  88352583.40146  21576595.516    21576597.943    21576595.060  
        48.000          37.0004                                                 
                                                                                
 126244579.281 7  98190253.975 6  23608373.047    23608374.833    23608372.447  
        42.000          41.000                                                  
                                                                                
 127844780.305 6  99619321.17645  24328050.494    24328056.103    24328049.721  
        39.000          32.0004                                                 
                                                                                
 106288414.492 8  82822168.95149  20226008.684    20226012.941    20226007.931  
        53.000          57.0004                                                 
                                                                                
 21  1  1  0  7 30.0000000  0 20R01R02G07G08R09G10G13G15R15G16R16R17
                                G18R18G20G21G23R24G26G27
 118890342.409 6  92470291.965 6  22240892.557    22240896.244    22240892.348  
        41.000          39.000                                                  
                                                                                
 113717097.883 8  88446657.685 7  21310535.892    21310538.500    21310535.566  
        50.000          47.000                                                  
                                                                                
 127693562.848 6  99501487.03843  24299275.040    24299277.678    24299274.907  
        40.000          21.0004                                                 
                                                                                
 114117098.087 7  88922432.67447  21715759.091    21715764.236    21715758.550  
        45.000          47.0004                                                 
                                                                                
 120012180.659 7  93342829.964 7  22474427.292    22474428.190    22474427.210  
        46.000          45.000                                                  
                                                                                
 112525382.711 8  87682140.91548  21412867.163    21412872.185    21412866.431  
        52.000          53.0004                                                 
                                                                                
 132846313.512 5 103516622.42542  25279812.135    25279813.841    25279811.295  
        35.000          12.0004                                                 
                                                                                
 127908179.733 6  99668733.79845  24340114.795    24340116.975    24340113.898  
        39.000          31.0004                                                 
                                                                                
 121494853.467 7  94496017.886 6  22736109.717    22736112.669    22736110.165  
        46.000          41.000                                                  
                                                                                
 115903817.836 7  90314672.35846  22055761.978    22055764.474    22055761.064  
        46.000          36.0004                                                 
                                                                                
 111699993.891 7  86877778.690 7  20910469.658    20910471.186    20910469.295  
        45.000          43.000                                                  
                                                                                
 106083380.366 8  82509322.169 8  19824212.114    19824212.769    19824212.146  
        53.000          51.000                                                  
                                                                                
 123963015.323 6  96594585.37044  23589376.126    23589378.507    23589375.583  
        41.000          26.0004                                                 
                                                                                
 107110834.690 8  83308444.519 8  20065461.585    20065464.204    20065461.373  
        52.000          50.000                                                  
                                                                                
 113125161.366 7  88149500.55545  21526999.797    21527002.094    21526998.778  
        47.000          35.0004                                                 
                                                                                
 123732593.450 6  96415030.25543  23545529.535    23545531.702    23545527.888  
        40.000          22.0004                                                 
                                                                                
 113377972.587 8  88346493.41646  21575108.019    21575110.652    21575107.830  
        48.000          37.0004                                                 
                                                                                
 126314822.327 6  98244887.409 6  23621507.276    23621510.857    23621508.135  
        41.000          41.000                                                  
                                                                                
 127922969.712 6  99680247.97245  24342929.087    24342935.227    24342928.663  
        37.000          32.0004                                                 
                                                                                
 106251910.683 8  82793724.42049  20219062.275    20219066.515    20219061.496  
        53.000          57.0004                                                 
                                                                                
 21  1  1  0  8  0.0000000  0 20R01R02G07G08R09G10G13G15R15G16R16R17
                                G18R18G20G21G23R24G26G27
 118918340.432 7  92492068.207 6  22246130.621    22246132.956    22246130.349  
        42.000          39.000                                                  
                                                                                
 113602630.329 8  88357627.381 7  21289084.377    21289087.376    21289084.171  
        49.000          46.000                                                  
                                                                                
 127685643.894 6  99495316.43543  24297769.343    24297770.642    24297769.236  
        39.000          21.0004                                                 
                                                                                
 114011388.258 7  88840061.37248  21695643.445    21695648.374    21695642.649  
        46.000          48.0004                                                 
                                                                                
 119898880.685 7  93254707.759 7  22453209.801    22453210.229    22453209.777  
        45.000          44.000                                                  
                                                                                
 112450113.330 8  87623489.46848  21398543.876    21398548.817    21398543.120  
        50.000          53.0004                                                 
                                                                                
 132842212.998 5 103513427.27541  25279029.292    25279033.715    25279029.471  
        32.000           9.0004                                                 
                                                                                
 127881008.056 6  99647561.08745  24334942.882    24334946.692    24334942.614  
        38.000          30.0004                                                 
                                                                                
 121588546.199 7  94568890.000 6  22753643.513    22753646.206    22753643.549  
        46.000          41.000                                                  
                                                                                
 115958367.201 7  90357178.34446  22066142.792    22066144.810    22066141.567  
        47.000          36.0004                                                 
                                                                                
 111702963.363 7  86880088.267 7  20911025.512    20911027.296    20911025.265  
        45.000          43.000                                                  
                                                                                
 106095369.486 8  82518647.034 8  19826453.061    19826453.207    19826452.711  
        53.000          50.000                                                  
                                                                                
 124026915.996 6  96644378.08444  23601536.056    23601538.832    23601535.495  
        41.000          26.0004                                                 
                                                                                
 107024786.087 8  83241517.850 8  20049341.939    20049344.485    20049341.853  
        53.000          50.000                                                  
                                                                                
 113127389.748 8  88151236.96246  21527424.174    21527426.207    21527422.940  
        48.000          36.0004                                                 
                                                                                
 123614756.156 6  96323209.03643  23523105.446    23523107.602    23523104.292  
        40.000          22.0004                                                 
                                                                                
 113370751.999 8  88340866.98646  21573733.832    21573736.566    21573733.597  
        49.000          36.0004                                                 
                                                                                
 126385118.413 7  98299562.120 6  23634653.105    23634656.520    23634654.019  
        42.000          41.000                                                  
                                                                                
 128001235.844 6  99741234.54745  24357823.358    24357828.750    24357822.419  
        38.000          32.0004                                                 
                                                                                
 106215860.216 8  82765633.14349  20212201.855    20212206.350    20212201.333  
        52.000          57.0004                                                 
                                                                                
 21  1  1  0  8 30.0000000  0 20R01R02G07G08R09G10G13G15R15G16R16R17
                                G18R18G20G21G23R24G26G27
 118947047.413 7  92514395.876 6  22251501.730    22251503.875    22251500.897  
        42.000          39.000                                                  
                                                                                
 113488797.053 8  88269090.418 7  21267751.763    21267754.886    21267751.755  
        50.000          46.000                                                  
                                                                                
 127678226.923 6  99489536.95643  24296356.852    24296359.472    24296356.732  
        39.000          21.0004                                                 
                                                                                
 113905960.852 7  88757910.14148  21675581.161    21675586.123    21675580.473  
        46.000          49.0004                                                 
                                                                                
 119786218.245 7  93167081.409 7  22432111.535    22432112.339    22432111.306  
        45.000          45.000                                                  
                                                                                
 112375393.671 8  87565266.38048  21384325.068    21384330.019    21384324.385  
        51.000          53.0004                                                 
                                                                                
 132838664.227 5 103510661.89341  25278354.127    25278356.889    25278355.072  
        32.000           8.0004                                                 
                                                                                
 127854438.938 6  99626857.89744  24329886.579    24329890.529    24329886.177  
        37.000          29.0004                                                 
                                                                                
 121682458.779 7  94641933.106 6  22771217.905    22771220.482    22771218.173  
        46.000          41.000                                                  
                                                                                
 116013291.194 7  90399976.24745  22076594.208    22076596.772    22076593.331  
        45.000          35.0004                                                 
                                                                                
 111706723.127 7  86883012.514 7  20911729.628    20911731.326    20911729.521  
        45.000          43.000                                                  
                                                                                
 106107729.191 8  82528260.128 8  19828762.776    19828762.938    19828762.302  
        53.000          50.000                                                  
                                                                                
 124090928.633 6  96694258.03844  23613717.189    23613719.624    23613716.744  
        41.000          26.0004                                                 
                                                                                
 106939104.704 9  83174876.803 8  20033291.007    20033293.287    20033290.812  
        54.000          51.000                                                  
                                                                                
 113130165.183 7  88153399.64346  21527952.288    21527954.319    21527951.213  
        46.000          36.0004                                                 
                                                                                
 123497119.744 6  96231544.32743  23500720.350    23500722.456    23500719.055  
        41.000          23.0004                                                 
                                                                                
 113364126.306 8  88335704.11046  21572472.969    21572475.947    21572472.756  
        48.000          36.0004                                                 
                                                                                
 126455467.577 7  98354278.093 6  23647809.704    23647812.591    23647809.595  
        42.000          41.000                                                  
                                                                                
 128079577.527 6  99802280.00845  24372730.653    24372736.418    24372730.340  
        38.000          32.0004                                                 
                                                                                
 106180264.694 8  82737896.37149  20205428.364    20205432.759    20205427.699  
        53.000          56.0004                                                 
                                                                                
 21  1  1  0  9  0.0000000  0 20R01R02G07G08R09G10G13G15R15G16R16R17
                                G18R18G20G21G23R24G26G27
 118976459.022 7  92537271.596 6  22257003.738    22257005.240    22257002.758  
        42.000          38.000                                                  
                                                                                
 113375600.111 8  88181048.385 7  21246538.841    21246541.956    21246538.548  
        49.000          47.000                                                  
                                                                                
 127671309.069 6  99484146.40843  24295041.458    24295043.259    24295040.848  
        41.000          21.0004                                                 
                                                                                
 113800816.280 7  88675979.30148  21655572.771    21655577.893    21655572.173  
        46.000          48.0004                                                 
                                                                                
 119674195.187 7  93079952.345 7  22411133.690    22411135.094    22411133.991  
        46.000          45.000                                                  
                                                                                
 112301223.587 8  87507471.52848  21370211.064    21370215.864    21370210.428  
        52.000          53.0004                                                 
                                                                                
 132835664.413 5 103508324.41341  25277785.613    25277786.943    25277784.795  
        35.000          10.0004                                                 
                                                                                
 127828471.373 6  99606623.43644  24324944.762    24324949.074    24324944.214  
        37.000          29.0004                                                 
                                                                                
 121776585.411 7  94715142.703 6  22788832.654    22788835.180    22788832.659  
        46.000          41.000                                                  
                                                                                
 116068586.089 7  90443063.16545  22087116.259    22087118.879    22087115.467  
        47.000          35.0004                                                 
                                                                                
 111711269.697 7  86886548.718 7  20912581.178    20912582.188    20912580.585  
        45.000          43.000                                                  
                                                                                
 106120457.216 8  82538159.697 8  19831140.957    19831141.423    19831140.841  
        52.000          50.000                                                  
                                                                                
 124155050.320 6  96744222.94844  23625918.896    23625921.655    23625918.493  
        41.000          26.0004                                                 
                                                                                
 106853789.794 8  83108520.785 8  20017308.397    20017311.004    20017308.371  
        53.000          51.000                                                  
                                                                                
 113133484.827 7  88155986.38646  21528584.049    21528586.072    21528582.869  
        47.000          36.0004                                                 
                                                                                
 123379683.590 6  96140035.65543  23478372.620    23478374.770    23478371.320  
        40.000          23.0004                                                 
                                                                                
 113358092.992 7  88331002.83346  21571324.806    21571327.652    21571324.577  
        47.000          36.0004                                                 
                                                                                
 126525867.614 7  98409033.651 6  23660976.218    23660977.686    23660975.562  
        43.000          41.000                                                  
                                                                                
 128157991.056 6  99863381.43945  24387651.768    24387658.274    24387651.672  
        37.000          31.0004                                                 
                                                                                
 106145123.205 9  82710513.39449  20198741.334    20198745.546    20198740.457  
        54.000          58.0004                                                 
                                                                                
 21  1  1  0  9 30.0000000  0 20R01R02G07G08R09G10G13G15R15G16R16R17
                                G18R18G20G21G23R24G26G27
 119006574.033 7  92560694.411 6  22262636.739    22262639.938    22262636.076  
        42.000          39.000                                                  
                                                                                
 113263045.255 8  88093505.747 7  21225445.881    21225449.290    21225445.717  
        50.000          47.000                                                  
                                                                                
 127664890.572 6  99479144.96143  24293819.533    24293820.949    24293818.504  
        39.000          21.0004                                                 
                                                                                
 113695957.634 7  88594271.25948  21635618.821    21635623.832    21635618.175  
        46.000          48.0004                                                 
                                                                                
 119562816.543 7  92993324.506 7  22390275.238    22390276.670    22390275.508  
        45.000          45.000                                                  
                                                                                
 112227606.050 8  87450107.22548  21356201.710    21356206.933    21356201.426  
        52.000          53.0004                                                 
                                                                                
 132833214.338 6 103506415.32441  25277320.438    25277319.771    25277318.992  
        36.000          10.0004                                                 
                                                                                
 127803107.439 6  99586859.35244  24320117.316    24320121.970    24320117.299  
        37.000          29.0004                                                 
                                                                                
 121870924.057 7  94788517.190 6  22806486.249    22806489.419    22806486.745  
        45.000          41.000                                                  
                                                                                
 116124251.032 7  90486438.42745  22097709.402    22097711.586    22097708.218  
        46.000          35.0004                                                 
                                                                                
 111716602.950 7  86890696.797 7  20913578.876    20913580.502    20913578.706  
        45.000          43.000                                                  
                                                                                
 106133554.461 8  82548346.439 8  19833588.763    19833588.860    19833588.299  
        52.000          51.000                                                  
                                                                                
 124219281.293 6  96794273.02844  23638142.155    23638144.535    23638141.668  
        41.000          26.0004                                                 
                                                                                
 106768843.880 8  83042451.758 8  20001395.129    20001397.724    20001395.015  
        53.000          51.000                                                  
                                                                                
 113137348.973 7  88158997.40745  21529319.423    21529321.437    21529318.256  
        47.000          35.0004                                                 
                                                                                
 123262450.254 6  96048685.04243  23456063.905    23456066.572    23456062.880  
        41.000          23.0004                                                 
                                                                                
 113352652.643 8  88326763.60946  21570289.538    21570292.498    21570289.361  
        48.000          36.0004                                                 
                                                                                
 126596319.432 7  98463829.470 6  23674150.572    23674152.415    23674150.481  
        44.000          41.000                                                  
                                                                                
 128236475.695 6  99924538.28945  24402586.949    24402593.330    24402586.736  
        37.000          31.0004                                                 
                                                                                
 106110437.916 9  82683485.90049  20192140.644    20192145.144    20192140.045  
        54.000          57.0004                                                 
                                                                                
 21  1  1  0 10  0.0000000  0 20R01R02G07G08R09G10G13G15R15G16R16R17
                                G18R18G20G21G23R24G26G27
 119037388.428 7  92584661.181 6  22268400.356    22268403.914    22268400.465  
        42.000          39.000                                                  
                                                                                
 113151134.621 8  88006464.176 7  21204473.896    21204477.160    21204473.908  
        49.000          47.000                                                  
                                                                                
 127658968.711 6  99474530.53243  24292692.264    24292693.989    24292691.738  
        38.000          21.0004                                                 
                                                                                
 113591385.255 7  88512786.28648  21615719.166    21615724.506    21615718.679  
        46.000          48.0004                                                 
                                                                                
 119452084.464 7  92907199.543 7  22369538.694    22369540.344    22369538.825  
        46.000          45.000                                                  
                                                                                
 112154540.952 8  87393173.39948  21342297.934    21342303.176    21342297.502  
        51.000          53.0004                                                 
                                                                                
 132831311.307 5 103504932.37441  25276956.588    25276959.955    25276956.696  
        34.000          11.0004                                                 
                                                                                
 127778345.154 6  99567564.07144  24315405.806    24315409.670    24315405.753  
        36.000          29.0004                                                 
                                                                                
 121965468.646 7  94862051.860 6  22824179.044    22824182.484    22824179.145  
        45.000          41.000                                                  
                                                                                
 116180282.618 7  90530099.39145  22108371.706    22108373.977    22108370.591  
        45.000          35.0004                                                 
                                                                                
 111722719.038 7  86895453.747 7  20914724.212    20914725.481    20914723.781  
        46.000          43.000                                                  
                                                                                
 106147018.601 8  82558818.538 8  19836104.663    19836105.089    19836104.395  
        53.000          50.000                                                  
                                                                                
 124283618.646 6  96844405.98944  23650385.145    23650387.702    23650384.323  
        41.000          25.0004                                                 
                                                                                
 106684266.452 8  82976669.324 8  19985550.671    19985553.620    19985550.755  
        53.000          51.000                                                  
                                                                                
 113141754.777 7  88162430.50346  21530157.891    21530159.825    21530156.558  
        45.000          36.0004                                                 
                                                                                
 123145419.027 6  95957491.91443  23433793.575    23433796.303    23433792.393  
        40.000          23.0004                                                 
                                                                                
 113347802.677 7  88322984.41946  21569366.944    21569369.541    21569366.511  
        47.000          37.0004                                                 
                                                                                
 126666820.878 7  98518663.898 6  23687334.739    23687336.190    23687334.295  
        43.000          40.000                                                  
                                                                                
 128315027.939 6  99985747.80145  24417534.949    24417541.238    24417534.922  
        36.000          31.0004                                                 
                                                                                
 106076207.891 8  82656813.15249  20185626.907    20185631.387    20185626.292  
        53.000          56.0004                                                 
                                                                                
 21  1  1  0 10 30.0000000  0 20R01R02G07G08R09G10G13G15R15G16R16R17
                                G18R18G20G21G23R24G26G27
 119068899.106 6  92609169.496 6  22274294.155    22274298.333    22274294.877  
        41.000          38.000                                                  
                                                                                
 113039871.631 8  87919926.322 7  21183623.319    21183626.742    21183623.147  
        50.000          46.000                                                  
                                                                                
 127653542.012 6  99470301.91443  24291659.216    24291661.931    24291658.868  
        39.000          20.0004                                                 
                                                                                
 113487100.658 7  88431525.55448  21595874.326    21595879.783    21595873.935  
        46.000          48.0004                                                 
                                                                                
 119342001.968 7  92821579.813 7  22348923.173    22348924.697    22348923.885  
        45.000          45.000                                                  
                                                                                
 112082029.334 8  87336670.85648  21328499.490    21328504.704    21328498.978  
        52.000          53.0004                                                 
                                                                                
 132829954.395 6 103503874.96741  25276700.206    25276700.906    25276699.016  
        37.000          11.0004                                                 
                                                                                
 127754184.351 6  99548737.48044  24310809.217    24310811.093    24310809.079  
        37.000          29.0004                                                 
                                                                                
 122060214.947 7  94935743.413 7  22841909.531    22841912.779    22841910.106  
        45.000          42.000                                                  
                                                                                
 116236678.090 7  90574043.90145  22119103.599    22119105.507    22119102.319  
        45.000          35.0004                                                 
                                                                                
 111729616.414 7  86900818.349 7  20916015.021    20916016.611    20916014.962  
        45.000          44.000                                                  
                                                                                
 106160848.719 8  82569575.290 8  19838688.873    19838689.712    19838688.843  
        52.000          50.000                                                  
                                                                                
 124348060.749 6  96894620.58644  23662647.847    23662650.654    23662647.371  
        41.000          25.0004                                                 
                                                                                
 106600057.907 8  82911173.794 8  19969775.730    19969778.561    19969775.734  
        53.000          51.000                                                  
                                                                                
 113146700.972 7  88166284.68045  21531098.856    21531101.009    21531097.654  
        46.000          35.0004                                                 
                                                                                
 123028590.771 6  95866456.93143  23411562.467    23411564.843    23411560.474  
        41.000          23.0004                                                 
                                                                                
 113343541.720 8  88319664.19546  21568556.041    21568558.645    21568555.751  
        48.000          37.0004                                                 
                                                                                
 126737370.927 7  98573536.128 6  23700526.622    23700529.579    23700527.084  
        43.000          41.000                                                  
                                                                                
 128393645.226 6 100047008.00545  24432495.962    24432501.559    24432495.597  
        37.000          31.0004                                                 
                                                                                
 106042433.504 9  82630495.45149  20179199.879    20179204.303    20179199.242  
        54.000          56.0004                                                 
                                                                                
 21  1  1  0 11  0.0000000  0 20R01R02G07G08R09G10G13G15R15G16R16R17
                                G18R18G20G21G23R24G26G27
 119101101.839 7  92634216.064 6  22280319.774    22280322.540    22280319.427  
        42.000          38.000                                                  
                                                                                
 112929258.469 8  87833893.893 7  21162894.281    21162897.830    21162894.280  
        49.000          47.000                                                  
                                                                                
 127648607.667 6  99466456.97843  24290720.578    24290722.406    24290720.232  
        39.000          20.0004                                                 
                                                                                
 113383104.096 7  88350489.26948  21576084.817    21576089.914    21576083.932  
        47.000          48.0004                                                 
                                                                                
 119232571.106 7  92736466.933 7  22328431.299    22328432.876    22328431.653  
        46.000          45.000                                                  
                                                                                
 112010071.191 8  87280599.59248  21314806.750    21314811.535    21314805.846  
        52.000          53.0004                                                 
                                                                                
 132829140.687 6 103503240.97141  25276544.799    25276544.676    25276544.533  
        36.000           8.0004                                                 
                                                                                
 127730624.185 6  99530378.91944  24306325.474    24306327.299    24306325.911  
        39.000          29.0004                                                 
                                                                                
 122155157.383 7  95009587.497 6  22859676.208    22859679.684    22859676.792  
        45.000          41.000                                                  
                                                                                
 116293433.785 7  90618269.11045  22129903.581    22129905.872    22129902.659  
        46.000          35.0004                                                 
                                                                                
 111737291.126 7  86906787.557 7  20917451.293    20917453.129    20917451.879  
        45.000          43.000                                                  
                                                                                
 106175042.605 8  82580614.974 8  19841341.787    19841342.134    19841341.551  
        52.000          50.000                                                  
                                                                                
 124412604.925 6  96944914.71544  23674930.518    23674932.729    23674929.959  
        40.000          25.0004                                                 
                                                                                
 106516218.210 8  82845965.133 8  19954069.821    19954072.569    19954069.669  
        53.000          50.000                                                  
                                                                                
 113152184.837 8  88170557.82545  21532142.462    21532144.542    21532141.237  
        48.000          35.0004                                                 
                                                                                
 122911965.069 6  95775579.79544  23389368.643    23389371.691    23389367.885  
        40.000          24.0004                                                 
                                                                                
 113339867.399 8  88316801.08946  21567856.870    21567859.452    21567856.544  
        50.000          37.0004                                                 
                                                                                
 126807967.788 7  98628444.756 6  23713729.675    23713731.549    23713729.484  
        43.000          41.000                                                  
                                                                                
 128472324.067 6 100108316.17645  24447468.427    24447473.932    24447467.524  
        38.000          31.0004                                                 
                                                                                
 106009113.957 8  82604532.16849  20172859.361    20172863.756    20172858.712  
        53.000          57.0004                                                 
                                                                                
 21  1  1  0 11 30.0000000  0 20R01R02G07G08R09G10G13G15R15G16R16R17
                                G18R18G20G21G23R24G26G27
 119133995.527 7  92659800.030 6  22286472.931    22286475.680    22286473.186  
        42.000          38.000                                                  
                                                                                
 112819301.502 8  87748371.825 7  21142288.776    21142291.743    21142288.579  
        51.000          47.000                                                  
                                                                                
 127644166.215 6  99462996.10743  24289875.894    24289877.637    24289875.471  
        39.000          21.0004                                                 
                                                                                
 113279399.211 7  88269680.25548  21556350.470    21556355.619    21556349.614  
        47.000          49.0004                                                 
                                                                                
 119123797.348 7  92651865.110 7  22308061.290    22308062.906    22308061.555  
        46.000          45.000                                                  
                                                                                
 111938669.689 8  87224962.07848  21301219.038    21301224.219    21301218.587  
        51.000          53.0004                                                 
                                                                                
 132828871.258 5 103503031.11641  25276491.385    25276496.553    25276490.167  
        31.000           8.0004                                                 
                                                                                
 127707666.325 6  99512489.68244  24301958.534    24301958.570    24301957.695  
        40.000          29.0004                                                 
                                                                                
 122250293.773 7  95083582.453 6  22877479.615    22877483.208    22877480.152  
        44.000          41.000                                                  
                                                                                
 116350549.902 7  90662775.16445  22140772.368    22140774.765    22140771.558  
        46.000          35.0004                                                 
                                                                                
 111745743.226 7  86913361.403 7  20919033.854    20919035.529    20919034.015  
        45.000          43.000                                                  
                                                                                
 106189601.525 8  82591938.583 8  19844062.353    19844062.799    19844062.229  
        53.000          50.000                                                  
                                                                                
 124477251.672 6  96995288.76744  23687232.261    23687234.497    23687231.902  
        40.000          25.0004                                                 
                                                                                
 106432749.542 8  82781045.055 8  19938433.417    19938435.974    19938433.230  
        53.000          51.000                                                  
                                                                                
 113158206.808 7  88175250.27245  21533288.379    21533290.539    21533287.077  
        46.000          35.0004                                                 
                                                                                
 122795544.444 6  95684862.46044  23367214.575    23367217.349    23367213.584  
        41.000          24.0004                                                 
                                                                                
 113336780.456 7  88314395.67746  21567269.285    21567272.032    21567269.010  
        47.000          36.0004                                                 
                                                                                
 126878612.108 7  98683390.300 6  23726939.393    23726942.568    23726940.399  
        43.000          41.000                                                  
                                                                                
 128551064.035 6 100169671.98045  24462451.626    24462457.685    24462451.080  
        37.000          31.0004                                                 
                                                                                
 105976251.652 8  82578925.17549  20166606.058    20166610.317    20166605.284  
        53.000          57.0004                                                 
                                                                                
 21  1  1  0 12  0.0000000  0 20R01R02G07G08R09G10G13G15R15G16R16R17
                                G18R18G20G21G23R24G26G27
 119167574.723 7  92685917.191 6  22292755.446    22292757.169    22292755.012  
        42.000          38.000                                                  
                                                                                
 112710001.305 8  87663360.588 7  21121805.911    21121808.846    21121805.636  
        50.000          47.000                                                  
                                                                                
 127640213.615 6  99459916.18743  24289123.268    24289125.365    24289122.866  
        39.000          21.0004                                                 
                                                                                
 113175984.600 8  88189097.42848  21536671.239    21536676.436    21536670.580  
        49.000          48.0004                                                 
                                                                                
 119015681.083 7  92567774.682 7  22287814.837    22287815.398    22287814.604  
        45.000          45.000                                                  
                                                                                
 111867823.224 8  87169757.06248  21287737.209    21287742.514    21287736.920  
        52.000          53.0004                                                 
                                                                                
 132829142.207 5 103503242.16541  25276542.847    25276546.987    25276542.346  
        35.000          10.0004                                                 
                                                                                
 127685307.869 6  99495067.53644  24297703.066    24297703.627    24297702.675  
        39.000          29.0004                                                 
                                                                                
 122345617.274 7  95157722.922 6  22895317.800    22895322.015    22895318.320  
        44.000          41.000                                                  
                                                                                
 116408021.092 7  90707557.89745  22151708.913    22151711.118    22151707.964  
        46.000          35.0004                                                 
                                                                                
 111754968.023 7  86920536.219 7  20920760.750    20920762.663    20920760.832  
        45.000          43.000                                                  
                                                                                
 106204521.800 8  82603543.230 8  19846850.772    19846851.018    19846850.410  
        52.000          50.000                                                  
                                                                                
 124541996.769 6  97045739.47144  23699552.509    23699555.469    23699552.372  
        40.000          25.0004                                                 
                                                                                
 106349650.199 8  82716412.220 8  19922865.967    19922868.755    19922865.804  
        53.000          51.000                                                  
                                                                                
 113164762.534 7  88180358.63345  21534535.665    21534538.022    21534534.573  
        46.000          35.0004                                                 
                                                                                
 122679326.878 6  95594303.37744  23345098.915    23345102.111    23345097.878  
        41.000          24.0004                                                 
                                                                                
 113334276.878 7  88312444.83746  21566792.535    21566795.590    21566792.610  
        47.000          36.0004                                                 
                                                                                
 126949300.653 7  98738370.230 6  23740159.987    23740161.455    23740159.062  
        42.000          40.000                                                  
                                                                                
 128629860.203 6 100231071.57345  24477446.267    24477452.020    24477445.418  
        37.000          31.0004                                                 
                                                                                
 105943844.307 8  82553672.69849  20160439.250    20160443.421    20160438.389  
        52.000          57.0004                                                 
                                                                                
 21  1  1  0 12 30.0000000  0 20R01R02G07G08R09G10G13G15R15G16R16R17
                                G18R18G20G21G23R24G26G27
 119201837.745 7  92712566.209 6  22299164.392    22299167.804    22299164.095  
        42.000          38.000                                                  
                                                                                
 112601362.788 8  87578863.987 7  21101447.254    21101450.267    21101446.770  
        50.000          46.000                                                  
                                                                                
 127636749.335 6  99457216.75543  24288463.505    24288466.478    24288463.425  
        38.000          21.0004                                                 
                                                                                
 113072863.655 8  88108743.44048  21517047.510    21517053.189    21517047.406  
        48.000          48.0004                                                 
                                                                                
 118908227.065 7  92484199.335 7  22267691.629    22267693.732    22267692.112  
        46.000          46.000                                                  
                                                                                
 111797534.392 8  87114986.56449  21274361.858    21274367.026    21274361.351  
        53.000          54.0004                                                 
                                                                                
 132829953.650 5 103503874.43041  25276697.904    25276701.960    25276697.201  
        33.000          11.0004                                                 
                                                                                
 127663550.255 6  99478113.54345  24293562.951    24293564.850    24293562.532  
        38.000          30.0004                                                 
                                                                                
 122441125.017 7  95232006.706 6  22913190.799    22913195.073    22913191.542  
        44.000          41.000                                                  
                                                                                
 116465846.367 7  90752616.54345  22162712.634    22162715.032    22162711.793  
        45.000          35.0004                                                 
                                                                                
 111764964.581 7  86928311.312 7  20922632.037    20922633.718    20922632.155  
        45.000          43.000                                                  
                                                                                
 106219804.131 8  82615429.481 8  19849706.375    19849706.839    19849706.206  
        53.000          50.000                                                  
                                                                                
 124606840.185 6  97096266.76344  23711892.336    23711894.944    23711891.629  
        40.000          25.0004                                                 
                                                                                
 106266921.977 8  82652068.039 8  19907368.225    19907371.083    19907368.273  
        52.000          50.000                                                  
                                                                                
 113171852.081 7  88185882.96245  21535884.723    21535887.145    21535883.454  
        46.000          35.0004                                                 
                                                                                
 122563314.483 6  95503904.15444  23323023.110    23323025.256    23323021.762  
        41.000          24.0004                                                 
                                                                                
 113332356.867 7  88310948.73946  21566427.536    21566430.299    21566427.086  
        47.000          37.0004                                                 
                                                                                
 127020034.051 7  98793385.060 6  23753385.353    23753389.058    23753386.300  
        42.000          40.000                                                  
                                                                                
 128708711.601 6 100292514.19845  24492451.427    24492456.736    24492450.598  
        38.000          31.0004                                                 
                                                                                
 105911893.791 8  82528776.18549  20154359.128    20154363.470    20154358.377  
        53.000          56.0004                                                 
                                                                                
 21  1  1  0 13  0.0000000  0 20R01R02G07G08R09G10G13G15R15G16R16R17
                                G18R18G20G21G23R24G26G27
 119236783.988 6  92739746.631 6  22305700.962    22305705.735    22305701.256  
        41.000          38.000                                                  
                                                                                
 112493391.644 8  87494886.453 7  21081213.063    21081216.373    21081213.021  
        50.000          47.000                                                  
                                                                                
 127633774.455 6  99454898.65643  24287897.079    24287900.271    24287897.506  
        39.000          21.0004                                                 
                                                                                
 112970040.512 7  88028621.50348  21497481.323    21497486.632    21497480.905  
        46.000          49.0004                                                 
                                                                                
 118801440.825 7  92401143.360 7  22247694.326    22247695.602    22247694.932  
        46.000          45.000                                                  
                                                                                
 111727806.847 8  87060653.43049  21261093.246    21261098.360    21261092.695  
        49.000          54.0004                                                 
                                                                                
 132831306.938 5 103504928.95741  25276954.802    25276958.950    25276955.773  
        31.000           6.0004                                                 
                                                                                
 127642395.950 6  99461629.66844  24289536.460    24289537.910    24289536.139  
        38.000          29.0004                                                 
                                                                                
 122536815.155 7  95306432.342 6  22931098.831    22931102.007    22931098.443  
        44.000          41.000                                                  
                                                                                
 116524025.573 7  90797950.98445  22173783.839    22173786.057    22173782.803  
        44.000          34.0004                                                 
                                                                                
 111775733.182 7  86936686.869 7  20924648.065    20924649.937    20924647.924  
        45.000          43.000                                                  
                                                                                
 106235450.045 8  82627598.516 8  19852630.490    19852630.652    19852630.106  
        52.000          50.000                                                  
                                                                                
 124671783.020 6  97146871.53344  23724250.175    23724252.916    23724249.641  
        41.000          25.0004                                                 
                                                                                
 106184568.567 8  82588015.382 8  19891940.846    19891943.516    19891940.701  
        53.000          51.000                                                  
                                                                                
 113179476.502 7  88191824.06845  21537335.664    21537337.959    21537334.366  
        46.000          35.0004                                                 
                                                                                
 122447510.854 7  95413667.60644  23300986.222    23300988.570    23300985.101  
        43.000          24.0004                                                 
                                                                                
 113331021.599 7  88309908.27446  21566173.349    21566176.109    21566172.922  
        46.000          36.0004                                                 
                                                                                
 127090814.229 7  98848436.269 6  23766623.173    23766625.493    23766623.474  
        43.000          40.000                                                  
                                                                                
 128787618.657 6 100354000.20545  24507466.628    24507472.429    24507466.153  
        37.000          32.0004                                                 
                                                                                
 105880403.029 8  82504237.91749  20148366.545    20148370.995    20148365.876  
        53.000          56.0004                                                 
                                                                                
 21  1  1  0 13 30.0000000  0 20R01R02G07G08R09G10G13G15R15G16R16R17
                                G18R18G20G21G23R24G26G27
 119272409.282 6  92767455.208 6  22312367.231    22312369.537    22312366.009  
        41.000          38.000                                                  
                                                                                
 112386090.515 8  87411430.050 7  21061104.879    21061108.231    21061105.015  
        51.000          47.000                                                  
                                                                                
 127631286.098 6  99452959.64643  24287425.038    24287428.202    24287424.716  
        39.000          21.0004                                                 
                                                                                
 112867515.337 7  87948731.75848  21477971.617    21477976.714    21477970.901  
        46.000          50.0004                                                 
                                                                                
 118695324.575 7  92318608.496 7  22227822.133    22227823.198    22227822.262  
        46.000          45.000                                                  
                                                                                
 111658640.328 8  87006757.45748  21247931.264    21247936.368    21247930.706  
        51.000          53.0004                                                 
                                                                                
 132833199.275 5 103506403.51641  25277315.318    25277317.126    25277315.221  
        34.000           8.0004                                                 
                                                                                
 127621843.269 6  99445614.59344  24285624.315    24285626.793    24285624.710  
        37.000          28.0004                                                 
                                                                                
 122632682.433 7  95380995.752 6  22949039.308    22949042.034    22949038.635  
        43.000          40.000                                                  
                                                                                
 116582555.382 7  90843558.61345  22184921.366    22184924.090    22184920.662  
        46.000          34.0004                                                 
                                                                                
 111787270.208 7  86945660.095 7  20926808.541    20926809.708    20926808.120  
        45.000          43.000                                                  
                                                                                
 106251457.483 8  82640048.747 8  19855621.264    19855621.863    19855621.539  
        51.000          50.000                                                  
                                                                                
 124736822.533 6  97197551.64744  23736626.470    23736629.515    23736626.156  
        40.000          25.0004                                                 
                                                                                
 106102589.329 8  82524253.758 8  19876583.063    19876585.936    19876583.166  
        52.000          51.000                                                  
                                                                                
 113187633.047 7  88198179.82845  21538887.844    21538890.086    21538886.631  
        47.000          35.0004                                                 
                                                                                
 122331914.787 6  95323592.77944  23278988.716    23278991.673    23278987.808  
        41.000          24.0004                                                 
                                                                                
 113330268.475 7  88309321.42546  21566030.132    21566032.851    21566029.698  
        47.000          36.0004                                                 
                                                                                
 127161638.728 7  98903521.943 6  23779867.434    23779869.840    23779868.393  
        43.000          40.000                                                  
                                                                                
 128866577.481 6 100415526.53145  24522491.359    24522497.976    24522491.473  
        37.000          31.0004                                                 
                                                                                
 105849371.142 8  82480057.21849  20142461.330    20142465.825    20142460.708  
        53.000          56.0004                                                 
                                                                                
 21  1  1  0 14  0.0000000  0 20R01R02G07G08R09G10G13G15R15G16R16R17
                                G18R18G20G21G23R24G26G27
 119308707.297 6  92795687.009 6  22319155.210    22319158.552    22319156.153  
        41.000          38.000                                                  
                                                                                
 112279459.963 8  87328495.199 8  21041122.781    21041125.951    21041122.351  
        51.000          48.000                                                  
                                                                                
 127629279.929 6  99451396.40143  24287043.365    24287044.531    24287042.856  
        40.000          21.0004                                                 
                                                                                
 112765286.977 7  87869073.29348  21458518.103    21458523.215    21458517.378  
        47.000          49.0004                                                 
                                                                                
 118589878.256 7  92236594.698 7  22208075.665    22208076.971    22208075.537  
        46.000          45.000                                                  
                                                                                
 111590033.008 8  86953297.22248  21234876.011    21234880.719    21234875.176  
        50.000          53.0004                                                 
                                                                                
 132835626.594 5 103508294.95241  25277778.295    25277779.446    25277778.271  
        34.000          11.0004                                                 
                                                                                
 127601889.200 6  99430065.96244  24281828.227    24281831.094    24281827.716  
        38.000          29.0004                                                 
                                                                                
 122728719.556 7  95455691.280 6  22967010.385    22967014.144    22967011.093  
        43.000          40.000                                                  
                                                                                
 116641430.340 7  90889435.19045  22196125.334    22196127.544    22196124.260  
        47.000          34.0004                                                 
                                                                                
 111799570.405 7  86955226.903 7  20929111.411    20929112.594    20929110.440  
        45.000          43.000                                                  
                                                                                
 106267822.690 8  82652777.235 8  19858679.610    19858680.288    19858679.614  
        52.000          50.000                                                  
                                                                                
 124801954.269 6  97248303.61744  23749021.334    23749024.001    23749020.725  
        40.000          24.0004                                                 
                                                                                
 106020981.865 8  82460781.298 8  19861295.367    19861298.219    19861295.267  
        52.000          51.000                                                  
                                                                                
 113196317.052 7  88204946.59345  21540540.377    21540542.623    21540539.215  
        46.000          35.0004                                                 
                                                                                
 122216524.438 6  95233678.25144  23257030.559    23257032.993    23257029.164  
        41.000          25.0004                                                 
                                                                                
 113330093.245 7  88309184.88646  21565996.900    21565999.546    21565996.545  
        47.000          36.0004                                                 
                                                                                
 127232503.786 7  98958639.177 6  23793121.102    23793121.781    23793120.314  
        43.000          39.000                                                  
                                                                                
 128945582.955 6 100477089.22245  24537526.515    24537532.339    24537525.656  
        37.000          31.0004                                                 
                                                                                
 105818795.539 8  82456232.06449  20136643.010    20136647.499    20136642.381  
        53.000          56.0004                                                 
                                                                                
 21  1  1  0 14 30.0000000  0 20R01R02G07G08R09G10G13G15R15G16R16R17
                                G18R18G20G21G23R24G26G27
 119345677.809 7  92824441.872 6  22326072.854    22326074.859    22326072.256  
        42.000          38.000                                                  
                                                                                
 112173506.005 8  87246086.588 7  21021267.156    21021270.088    21021266.656  
        51.000          47.000                                                  
                                                                                
 127627756.776 6  99450209.52743  24286752.761    24286755.519    24286752.597  
        38.000          21.0004                                                 
                                                                                
 112663359.845 8  87789649.55548  21439122.258    21439127.119    21439121.358  
        48.000          49.0004                                                 
                                                                                
 118485108.063 7  92155106.770 7  22188456.124    22188455.735    22188455.414  
        46.000          45.000                                                  
                                                                                
 111521988.533 8  86900275.56648  21221927.219    21221932.282    21221926.729  
        53.000          53.0004                                                 
                                                                                
 132838590.147 5 103510604.15341  25278340.358    25278342.988    25278341.823  
        34.000           8.0004                                                 
                                                                                
 127582535.965 6  99414985.50745  24278146.927    24278149.318    24278145.908  
        38.000          30.0004                                                 
                                                                                
 122824925.158 7  95530517.852 6  22985014.765    22985017.289    22985014.747  
        43.000          40.000                                                  
                                                                                
 116700650.773 7  90935580.97145  22207394.366    22207396.936    22207393.357  
        46.000          34.0004                                                 
                                                                                
 111812634.291 7  86965387.696 7  20931555.936    20931558.101    20931556.032  
        45.000          43.000                                                  
                                                                                
 106284547.099 8  82665785.098 8  19861805.367    19861805.539    19861805.103  
        52.000          50.000                                                  
                                                                                
 124867179.446 6  97299128.41144  23761432.616    23761435.772    23761432.799  
        40.000          24.0004                                                 
                                                                                
 105939749.669 8  82397600.708 8  19846077.628    19846080.579    19846077.721  
        52.000          51.000                                                  
                                                                                
 113205529.555 7  88212125.17445  21542293.533    21542295.719    21542292.338  
        45.000          34.0004                                                 
                                                                                
 122101343.230 7  95143926.68744  23235112.134    23235114.993    23235111.234  
        42.000          25.0004                                                 
                                                                                
 113330497.157 7  88309499.62946  21566073.606    21566076.410    21566073.415  
        47.000          36.0004                                                 
                                                                                
 127303411.564 7  99013789.618 6  23806380.245    23806381.881    23806380.376  
        42.000          39.000                                                  
                                                                                
 129024635.520 6 100538688.61245  24552569.271    24552575.146    24552568.965  
        38.000          31.0004                                                 
                                                                                
 105788679.281 8  82432764.84749  20130911.991    20130916.571    20130911.509  
        52.000          57.0004                                                 
                                                                                
 21  1  1  0 15  0.0000000  0 20R01R02G07G08R09G10G13G15R15G16R16R17
                                G18R18G20G21G23R24G26G27
 119383318.286 6  92853717.797 6  22333114.787    22333116.615    22333113.868  
        41.000          37.000                                                  
                                                                                
 112068232.900 8  87164207.528 8  21001538.682    21001541.904    21001538.565  
        51.000          48.000                                                  
                                                                                
 127626715.922 6  99449398.47543  24286555.531    24286556.788    24286554.583  
        41.000          20.0004                                                 
                                                                                
 112561735.939 8  87710462.09748  21419783.659    21419788.703    21419782.981  
        48.000          49.0004                                                 
                                                                                
 118381017.396 7  92074147.370 7  22168962.431    22168963.967    22168962.672  
        46.000          45.000                                                  
                                                                                
 111454508.750 8  86847693.93249  21209086.488    21209091.324    21209085.810  
        51.000          54.0004                                                 
                                                                                
 132842089.340 6 103513330.79441  25279008.078    25279008.850    25279008.360  
        36.000           9.0004                                                 
                                                                                
 127563783.980 6  99400373.59144  24274576.955    24274580.477    24274576.927  
        38.000          29.0004                                                 
                                                                                
 122921295.540 7  95605472.586 6  23003048.956    23003052.195    23003049.376  
        43.000          40.000                                                  
                                                                                
 116760214.706 7  90981994.40945  22218729.246    22218731.328    22218728.032  
        45.000          34.0004                                                 
                                                                                
 111826459.782 7  86976140.842 7  20934144.618    20934146.015    20934144.276  
        45.000          43.000                                                  
                                                                                
 106301631.166 8  82679072.701 8  19864998.083    19864998.298    19864997.660  
        53.000          50.000                                                  
                                                                                
 124932497.460 6  97350025.53044  23773862.359    23773865.965    23773862.370  
        39.000          24.0004                                                 
                                                                                
 105858894.355 8  82334713.247 8  19830930.933    19830933.710    19830930.638  
        53.000          51.000                                                  
                                                                                
 113215269.857 7  88219715.02545  21544147.131    21544149.202    21544145.931  
        45.000          35.0004                                                 
                                                                                
 121986372.565 7  95054339.20544  23213234.402    23213236.422    23213232.756  
        42.000          25.0004                                                 
                                                                                
 113331479.604 8  88310265.17146  21566260.626    21566263.304    21566260.276  
        48.000          36.0004                                                 
                                                                                
 127374361.765 7  99068973.056 6  23819646.691    23819649.670    23819648.146  
        42.000          39.000                                                  
                                                                                
 129103733.437 6 100600323.33545  24567621.421    24567626.920    24567620.703  
        37.000          30.0004                                                 
                                                                                
 105759023.486 8  82409656.43349  20125268.609    20125273.272    20125268.175  
        53.000          57.0004                                                 
                                                                                
 21  1  1  0 15 30.0000000  0 20R01R02G07G08R09G10G13G15R15G16R16R17
                                G18R18G20G21G23R24G26G27
 119421625.298 6  92883512.111 6  22340281.223    22340282.974    22340280.513  
        41.000          37.000                                                  
                                                                                
 111963643.628 8  87082860.338 7  20981939.100    20981941.595    20981938.585  
        51.000          47.000                                                  
                                                                                
 127626155.209 6  99448961.56143  24286449.034    24286450.148    24286448.616  
        39.000          20.0004                                                 
                                                                                
 112460416.974 8  87631512.25248  21400503.556    21400508.324    21400502.673  
        49.000          49.0004                                                 
                                                                                
 118277609.235 7  91993718.792 7  22149597.869    22149598.256    22149597.892  
        46.000          45.000                                                  
                                                                                
 111387594.208 8  86795552.74548  21196352.983    21196357.857    21196352.346  
        52.000          53.0004                                                 
                                                                                
 132846122.705 6 103516473.74041  25279776.061    25279776.795    25279776.291  
        36.000           8.0004                                                 
                                                                                
 127545633.054 6  99386230.04244  24271123.087    24271125.812    24271122.773  
        37.000          29.0004                                                 
                                                                                
 123017826.104 7  95680551.902 6  23021113.274    23021116.609    23021113.851  
        44.000          40.000                                                  
                                                                                
 116820120.037 7  91028673.87445  22230128.759    22230130.938    22230127.750  
        45.000          34.0004                                                 
                                                                                
 111841044.047 7  86987484.139 7  20936874.808    20936876.291    20936874.730  
        45.000          43.000                                                  
                                                                                
 106319073.200 8  82692638.720 8  19868257.209    19868257.611    19868257.093  
        53.000          50.000                                                  
                                                                                
 124997906.369 6  97400993.49244  23786309.117    23786312.342    23786309.528  
        39.000          24.0004                                                 
                                                                                
 105778416.034 8  82272119.009 8  19815854.341    19815857.234    19815854.329  
        52.000          50.000                                                  
                                                                                
 113225535.971 7  88227714.60045  21546101.043    21546102.728    21546099.424  
        46.000          35.0004                                                 
                                                                                
 121871612.871 6  94964916.10544  23191395.703    23191398.240    23191394.712  
        41.000          25.0004                                                 
                                                                                
 113333038.793 8  88311480.12446  21566557.337    21566560.023    21566556.844  
        48.000          36.0004                                                 
                                                                                
 127445353.349 7  99124188.677 6  23832925.149    23832925.819    23832924.191  
        42.000          39.000                                                  
                                                                                
 129182874.124 6 100661991.38745  24582681.689    24582687.260    24582680.802  
        37.000          31.0004                                                 
                                                                                
 105729828.123 8  82386906.79349  20119712.973    20119717.605    20119712.478  
        52.000          56.0004                                                 
                                                                                
 21  1  1  0 16  0.0000000  0 20R01R02G07G08R09G10G13G15R15G16R16R17
                                G18R18G20G21G23R24G26G27
 119460593.172 6  92913820.465 6  22347569.365    22347571.646    22347569.173  
        41.000          37.000                                                  
                                                                                
 111859739.128 8  87002045.748 7  20962467.175    20962469.904    20962466.963  
        51.000          47.000                                                  
                                                                                
 127626070.392 6  99448895.45043  24286432.838    24286434.897    24286431.843  
        40.000          20.0004                                                 
                                                                                
 112359401.750 8  87552799.08948  21381281.019    21381285.808    21381280.183  
        48.000          49.0004                                                 
                                                                                
 118174883.863 7  91913821.270 7  22130360.003    22130361.667    22130359.944  
        45.000          45.000                                                  
                                                                                
 111321243.486 8  86743850.89748  21183726.777    21183731.683    21183726.165  
        53.000          53.0004                                                 
                                                                                
 132850685.990 5 103520029.52641  25280642.124    25280646.783    25280643.072  
        32.000           9.0004                                                 
                                                                                
 127528080.239 6  99372552.56344  24267782.969    24267784.361    24267782.937  
        38.000          29.0004                                                 
                                                                                
 123114510.307 7  95755750.724 6  23039206.406    23039209.695    23039206.861  
        44.000          40.000                                                  
                                                                                
 116880361.540 7  91075615.29545  22241591.847    22241594.533    22241591.184  
        46.000          33.0004                                                 
                                                                                
 111856382.373 7  86999413.933 7  20939746.269    20939747.704    20939745.747  
        45.000          43.000                                                  
                                                                                
 106336870.054 8  82706480.713 8  19871583.037    19871583.565    19871582.723  
        52.000          50.000                                                  
                                                                                
 125063402.399 6  97452029.34144  23798773.076    23798776.066    23798773.080  
        39.000          24.0004                                                 
                                                                                
 105698313.071 8  82209816.714 8  19800848.827    19800851.385    19800848.502  
        52.000          51.000                                                  
                                                                                
 113236323.962 7  88236120.82745  21548153.654    21548155.761    21548152.523  
        47.000          35.0004                                                 
                                                                                
 121757062.322 7  94875655.98344  23169598.420    23169600.452    23169596.731  
        42.000          25.0004                                                 
                                                                                
 113335170.871 7  88313141.48846  21566962.850    21566965.795    21566962.542  
        46.000          36.0004                                                 
                                                                                
 127516382.965 7  99179433.883 6  23846206.913    23846208.885    23846206.568  
        42.000          39.000                                                  
                                                                                
 129262052.943 6 100723689.16345  24597749.756    24597754.417    24597748.251  
        38.000          30.0004                                                 
                                                                                
 105701091.127 8  82364514.32449  20114244.707    20114249.083    20114243.998  
        51.000          57.0004                                                 
                                                                                
 21  1  1  0 16 30.0000000  0 20R01R02G07G08R09G10G13G15R15G16R16R17
                                G18R18G20G21G23R24G26G27
 119500220.985 6  92944642.106 6  22354982.809    22354986.850    22354983.038  
        41.000          38.000                                                  
                                                                                
 111756524.461 8  86921767.704 7  20943124.910    20943127.686    20943124.508  
        50.000          47.000                                                  
                                                                                
 127626462.243 6  99449200.79443  24286507.360    24286508.703    24286506.417  
        39.000          20.0004                                                 
                                                                                
 112258694.112 8  87474325.60248  21362117.091    21362121.848    21362116.151  
        48.000          50.0004                                                 
                                                                                
 118072846.820 7  91834459.116 7  22111252.191    22111253.214    22111252.069  
        46.000          45.000                                                  
                                                                                
 111255459.555 8  86692590.70349  21171208.404    21171213.408    21171207.860  
        51.000          54.0004                                                 
                                                                                
 132855779.930 6 103523998.74941  25281614.017    25281611.649    25281614.113  
        36.000           7.0004                                                 
                                                                                
 127511127.063 6  99359342.31845  24264557.627    24264559.143    24264557.126  
        38.000          30.0004                                                 
                                                                                
 123211346.248 7  95831067.558 6  23057328.583    23057331.118    23057328.668  
        44.000          41.000                                                  
                                                                                
 116940938.606 7  91122818.18945  22253120.060    22253121.958    22253118.760  
        47.000          33.0004                                                 
                                                                                
 111872474.546 7  87011930.040 7  20942758.379    20942760.399    20942758.401  
        45.000          43.000                                                  
                                                                                
 106355022.889 8  82720599.572 8  19874975.444    19874975.896    19874975.090  
        53.000          50.000                                                  
                                                                                
 125128986.122 6  97503133.50444  23811252.853    23811256.205    23811252.980  
        39.000          24.0004                                                 
                                                                                
 105618588.133 8  82147808.428 8  19785913.387    19785916.054    19785913.224  
        52.000          51.000                                                  
                                                                                
 113247634.126 7  88244933.95245  21550305.760    21550308.100    21550304.603  
        46.000          35.0004                                                 
                                                                                
 121642723.580 6  94786560.89044  23147840.045    23147842.277    23147838.545  
        41.000          25.0004                                                 
                                                                                
 113337876.403 7  88315249.70446  21567477.245    21567480.503    21567477.272  
        47.000          36.0004                                                 
                                                                                
 127587452.069 7  99234709.824 6  23859497.863    23859499.109    23859497.436  
        42.000          39.000                                                  
                                                                                
 129341269.427 6 100785416.29045  24612823.022    24612828.984    24612822.323  
        37.000          30.0004                                                 
                                                                                
 105672814.830 8  82342480.84949  20108863.847    20108868.260    20108863.190  
        53.000          56.0004                                                 
                                                                                
 21  1  1  0 17  0.0000000  0 20R01R02G07G08R09G10G13G15R15G16R16R17
                                G18R18G20G21G23R24G26G27
 119540505.493 6  92975974.498 6  22362518.984    22362522.221    22362518.443  
        41.000          38.000                                                  
                                                                                
 111654003.778 8  86842029.421 7  20923912.260    20923915.282    20923912.115  
        51.000          47.000                                                  
                                                                                
 127627329.578 6  99449876.63643  24286672.736    24286673.999    24286672.469  
        41.000          21.0004                                                 
                                                                                
 112158295.991 8  87396093.30048  21343011.743    21343016.681    21343011.013  
        48.000          50.0004                                                 
                                                                                
 117971501.260 7  91755634.797 7  22092273.326    22092274.448    22092273.540  
        46.000          45.000                                                  
                                                                                
 111190243.809 8  86641773.24748  21158798.459    21158803.227    21158797.761  
        52.000          53.0004                                                 
                                                                                
 132861403.448 5 103528380.78941  25282680.998    25282683.842    25282681.014  
        33.000           9.0004                                                 
                                                                                
 127494773.523 6  99346599.31644  24261444.235    24261445.752    24261444.240  
        38.000          29.0004                                                 
                                                                                
 123308329.790 7  95906499.194 6  23075477.859    23075480.392    23075477.975  
        44.000          40.000                                                  
                                                                                
 117001849.583 7  91170281.27845  22264710.857    22264712.914    22264710.046  
        45.000          33.0004                                                 
                                                                                
 111889318.200 7  87025030.641 7  20945911.461    20945913.076    20945911.656  
        45.000          43.000                                                  
                                                                                
 106373531.417 8  82734995.083 8  19878434.258    19878434.600    19878433.835  
        52.000          50.000                                                  
                                                                                
 125194656.617 6  97554305.27744  23823750.228    23823753.166    23823749.693  
        39.000          24.0004                                                 
                                                                                
 105539242.556 8  82086095.197 8  19771049.523    19771052.107    19771049.143  
        52.000          51.000                                                  
                                                                                
 113259465.299 7  88254153.04845  21552557.343    21552559.326    21552556.145  
        47.000          35.0004                                                 
                                                                                
 121528597.841 7  94697631.77444  23126122.442    23126124.980    23126121.205  
        42.000          26.0004                                                 
                                                                                
 113341154.361 7  88317803.96446  21568101.148    21568104.359    21568100.954  
        46.000          36.0004                                                 
                                                                                
 127658560.066 7  99290015.988 6  23872795.190    23872797.193    23872795.292  
        43.000          39.000                                                  
                                                                                
 129420521.859 6 100847171.41845  24627904.643    24627910.357    24627903.679  
        37.000          30.0004                                                 
                                                                                
 105645000.023 8  82320806.96849  20103570.800    20103575.287    20103570.202  
        53.000          57.0004                                                 
                                                                                
 21  1  1  0 17 30.0000000  0 20R01R02G07G08R09G10G13G15R15G16R16R17
                                G18R18G20G21G23R24G26G27
 119581443.247 6  93007814.975 6  22370176.309    22370179.369    22370176.567  
        40.000          37.000                                                  
                                                                                
 111552180.065 8  86762833.215 7  20904830.304    20904833.449    20904830.429  
        50.000          47.000                                                  
                                                                                
 127628669.826 6  99450920.96443  24286927.880    24286928.590    24286927.004  
        40.000          20.0004                                                 
                                                                                
 112058208.571 7  87318103.10048  21323965.206    21323970.765    21323964.897  
        47.000          50.0004                                                 
                                                                                
 117870849.744 7  91677350.286 7  22073424.383    22073426.086    22073424.276  
        45.000          45.000                                                  
                                                                                
 111125596.738 8  86591398.91549  21146496.338    21146501.290    21146495.784  
        51.000          54.0004                                                 
                                                                                
 132867555.145 6 103533174.17342  25283854.152    25283855.667    25283852.897  
        36.000          12.0004                                                 
                                                                                
 127479019.057 6  99334323.11044  24258447.278    24258448.789    24258446.277  
        38.000          29.0004                                                 
                                                                                
 123405456.472 7  95982042.161 6  23093654.452    23093656.125    23093653.495  
        44.000          40.000                                                  
                                                                                
 117063091.408 7  91218002.17345  22276365.041    22276366.770    22276363.903  
        45.000          33.0004                                                 
                                                                                
 111906910.098 7  87038713.203 7  20949205.048    20949206.640    20949204.746  
        45.000          43.000                                                  
                                                                                
 106392394.071 8  82749666.023 8  19881959.108    19881959.525    19881958.834  
        52.000          49.000                                                  
                                                                                
 125260411.930 6  97605543.14143  23836262.575    23836266.469    23836262.604  
        37.000          23.0004                                                 
                                                                                
 105460276.552 8  82024677.205 8  19756256.045    19756259.201    19756256.258  
        52.000          51.000                                                  
                                                                                
 113271815.367 7  88263776.48745  21554907.183    21554909.588    21554906.306  
        47.000          35.0004                                                 
                                                                                
 121414685.273 7  94608868.76244  23104445.432    23104447.898    23104444.349  
        42.000          26.0004                                                 
                                                                                
 113345002.887 7  88320802.82446  21568833.672    21568836.616    21568833.327  
        45.000          36.0004                                                 
                                                                                
 127729706.106 7  99345351.758 6  23886099.591    23886102.131    23886099.767  
        43.000          39.000                                                  
                                                                                
 129499807.463 6 100908952.41145  24642991.875    24642997.714    24642991.365  
        37.000          30.0004                                                 
                                                                                
 105617646.559 8  82299492.56949  20098365.775    20098370.140    20098365.034  
        53.000          56.0004                                                 
                                                                                
 21  1  1  0 18  0.0000000  0 20R01R02G07G08R09G10G13G15R15G16R16R17
                                G18R18G20G21G23R24G26G27
 119623032.000 6  93040161.797 6  22377957.857    22377961.347    22377957.655  
        41.000          38.000                                                  
                                                                                
 111451057.043 8  86684181.998 7  20885880.100    20885882.932    20885879.855  
        50.000          47.000                                                  
                                                                                
 127630482.354 6  99452333.30643  24287272.505    24287273.578    24287271.868  
        40.000          20.0004                                                 
                                                                                
 111958435.033 8  87240357.48348  21304978.963    21304984.458    21304978.614  
        48.000          50.0004                                                 
                                                                                
 117770896.777 7  91599609.088 7  22054706.145    22054707.562    22054706.388  
        45.000          45.000                                                  
                                                                                
 111061520.351 8  86541469.27548  21134303.050    21134308.004    21134302.423  
        52.000          53.0004                                                 
                                                                                
 132874234.138 6 103538378.53441  25285126.414    25285125.351    25285125.937  
        36.000           7.0004                                                 
                                                                                
 127463864.334 6  99322514.24744  24255563.866    24255565.165    24255562.642  
        38.000          29.0004                                                 
                                                                                
 123502723.472 7  96057694.265 6  23111856.071    23111858.703    23111855.880  
        43.000          40.000                                                  
                                                                                
 117124662.561 7  91265979.68345  22288081.216    22288083.470    22288080.406  
        46.000          33.0004                                                 
                                                                                
 111925249.387 7  87052977.061 7  20952638.392    20952639.866    20952638.059  
        45.000          43.000                                                  
                                                                                
 106411611.286 8  82764612.735 8  19885550.251    19885550.754    19885549.935  
        52.000          50.000                                                  
                                                                                
 125326251.911 6  97656846.99743  23848791.720    23848794.619    23848791.716  
        39.000          23.0004                                                 
                                                                                
 105381692.207 8  81963556.041 8  19741535.091    19741537.522    19741534.844  
        52.000          52.000                                                  
                                                                                
 113284683.733 7  88273803.78845  21557356.457    21557358.157    21557354.983  
        46.000          35.0004                                                 
                                                                                
 121300987.743 7  94520273.34144  23082809.999    23082812.081    23082808.436  
        43.000          26.0004                                                 
                                                                                
 113349421.575 7  88324245.96746  21569674.418    21569677.439    21569674.209  
        47.000          36.0004                                                 
                                                                                
 127800890.288 7  99400717.189 6  23899411.147    23899413.887    23899411.131  
        42.000          39.000                                                  
                                                                                
 129579125.128 6 100970758.36645  24658085.962    24658091.706    24658084.923  
        37.000          30.0004                                                 
                                                                                
 105590755.972 8  82278538.86149  20093248.481    20093253.064    20093247.953  
        53.000          56.0004                                                 
                                                                                
 21  1  1  0 18 30.0000000  0 19R01R02G07G08R09G10G13G15G16R16R17G18
                                R18G20G21G23R24G26G27
        40.000          37.000   111944331.086 7  87067818.347 7  20956209.889  
  20956211.918    20956209.969                                                  
                                                                                
        51.000          47.000   123600124.367 7  96133450.504 6  23130082.310  
  23130085.627    23130083.241                                                  
                                                                                
 127632763.702 6  99454110.97043  24287705.762    24287708.008    24287705.660  
        40.000          20.0004                                                 
                                                                                
 111858974.396 7  87162855.68648  21286052.348    21286057.681    21286051.822  
        47.000          50.0004                                                 
                                                                                
 117671642.764 7  91522411.506 7  22036120.472    22036120.788    22036120.104  
        47.000          45.000                                                  
                                                                                
 110998013.567 8  86491983.48849  21122218.171    21122223.079    21122217.455  
        50.000          54.0004                                                 
                                                                                
 132881437.421 4                  25286494.786          28.000   119665266.343 6
  93073010.723 6  22385858.341                                                  
                                                                                
        38.000          29.0004  111350636.640 8  86606077.268 7  20867061.381  
  20867064.104    20867061.111                                                  
                                                                                
 117186558.984 7  91314210.65245  22299859.811    22299862.174    22299859.090  
        45.000          33.0004                                                 
                                                                                
        45.000          43.000   106431180.378 8  82779833.141 8  19889207.210  
  19889207.583    19889207.167                                                  
                                                                                
        53.000          49.000   127449306.621 6  99311170.56744  24252792.695  
  24252796.023    24252792.344                                                  
                                                                                
 125392173.223 6  97708214.24143  23861336.503    23861339.442    23861335.982  
        38.000          23.0004                                                 
                                                                                
 105303487.777 8  81902730.370 8  19726884.575    19726887.261    19726884.317  
        53.000          51.000                                                  
                                                                                
 113298066.949 7  88284232.27445  21559903.104    21559905.184    21559901.802  
        47.000          35.0004                                                 
                                                                                
 121187503.948 6  94431844.43844  23061214.145    23061217.014    23061213.106  
        41.000          26.0004                                                 
                                                                                
 113354406.926 7  88328130.66346  21570623.356    21570626.082    21570622.968  
        46.000          36.0004                                                 
                                                                                
 127872109.996 7  99456110.258 6  23912729.387    23912732.400    23912729.599  
        42.000          38.000                                                  
                                                                                
 129658470.539 6 101032585.95844  24673185.296    24673190.185    24673183.792  
        36.000          29.0004                                                 
                                                                                
 105564326.520 8  82257944.48449  20088219.184    20088223.708    20088218.608  
        52.000          57.0004                                                 
                                                                                
 21  1  1  0 19  0.0000000  0 20R01R02G07G08R09G10G13G15R15G16R16R17
                                G18R18G20G21G23R24G26G27
 119708142.345 6  93106358.747 6  22393880.459    22393881.429    22393878.822  
        41.000          37.000                                                  
                                                                                
 111250920.631 8  86528520.397 7  20848374.302    20848377.302    20848374.336  
        51.000          47.000                                                  
                                                                                
 127635510.809 6  99456251.52943  24288229.271    24288231.403    24288228.742  
        39.000          21.0004                                                 
                                                                                
 111759827.924 8  87085598.70048  21267185.914    21267190.821    21267184.988  
        49.000          51.0004                                                 
                                                                                
 117573090.126 7  91445759.449 7  22017663.058    22017664.486    22017663.295  
        46.000          44.000                                                  
                                                                                
 110935076.281 8  86442941.45949  21110241.452    21110246.497    21110240.941  
        52.000          54.0004                                                 
                                                                                
 132889161.952 6 103550016.66442  25287966.686    25287968.614    25287965.914  
        37.000          14.0004                                                 
                                                                                
 127435345.110 6  99300291.49044  24250137.194    24250138.269    24250136.488  
        39.000          29.0004                                                 
                                                                                
 123697654.169 7  96209307.012 6  23148333.769    23148337.053    23148334.372  
        43.000          39.000                                                  
                                                                                
 117248776.862 7  91362692.10845  22311699.792    22311702.057    22311698.581  
        46.000          33.0004                                                 
                                                                                
 111964151.258 7  87083234.022 7  20959921.229    20959922.343    20959920.713  
        45.000          43.000                                                  
                                                                                
 106451099.117 8  82795325.480 8  19892929.595    19892929.955    19892929.337  
        52.000          50.000                                                  
                                                                                
 125458173.459 6  97759642.99543  23873895.737    23873898.547    23873894.756  
        37.000          22.0004                                                 
                                                                                
 105225663.275 8  81842200.213 8  19712305.231    19712308.159    19712305.281  
        53.000          52.000                                                  
                                                                                
 113311961.925 7  88295059.53545  21562547.042    21562549.200    21562545.756  
        46.000          35.0004                                                 
                                                                                
 121074233.564 6  94343581.84844  23039659.413    23039662.028    23039658.649  
        41.000          26.0004                                                 
                                                                                
 113359956.502 7  88332455.01346  21571679.588    21571682.213    21571679.160  
        47.000          36.0004                                                 
                                                                                
 127943363.447 7  99511529.560 6  23926054.587    23926056.838    23926054.454  
        42.000          38.000                                                  
                                                                                
 129737840.502 6 101094432.68144  24688288.554    24688293.878    24688287.385  
        36.000          29.0004                                                 
                                                                                
 105538357.540 8  82237708.91349  20083277.439    20083281.980    20083276.853  
        53.000          57.0004                                                 
                                                                                
 21  1  1  0 19 30.0000000  0 20R01R02G07G08R09G10G13G15R15G16R16R17
                                G18R18G20G21G23R24G26G27
 119751657.919 6  93140204.219 6  22402019.321    22402022.473    22402019.339  
        41.000          37.000                                                  
                                                                                
 111151914.001 8  86451515.272 7  20829820.556    20829823.408    20829820.399  
        50.000          47.000                                                  
                                                                                
 127638723.889 6  99458755.24643  24288840.631    24288841.634    24288839.991  
        41.000          21.0004                                                 
                                                                                
 111660998.689 8  87008588.90948  21248378.826    21248384.195    21248378.398  
        49.000          50.0004                                                 
                                                                                
 117475242.960 7  91369656.092 7  21999340.014    21999341.823    21999340.578  
        46.000          44.000                                                  
                                                                                
 110872710.922 8  86394345.09049  21098374.012    21098378.742    21098373.182  
        51.000          54.0004                                                 
                                                                                
 132897407.953 5 103556442.10841  25289534.448    25289535.657    25289536.712  
        33.000           6.0004                                                 
                                                                                
 127421980.506 6  99289877.56644  24247591.429    24247594.628    24247592.334  
        37.000          29.0004                                                 
                                                                                
 123795310.251 7  96285261.743 6  23166608.814    23166612.055    23166609.275  
        43.000          39.000                                                  
                                                                                
 117311316.051 7  91411423.92845  22323600.660    22323602.667    22323599.545  
        46.000          33.0004                                                 
                                                                                
 111984709.212 7  87099223.536 7  20963768.904    20963771.200    20963769.150  
        45.000          44.000                                                  
                                                                                
 106471368.548 8  82811090.573 8  19896717.781    19896717.691    19896717.327  
        53.000          50.000                                                  
                                                                                
 125524252.785 6  97811133.33843  23886469.433    23886472.960    23886469.154  
        38.000          22.0004                                                 
                                                                                
 105148221.097 8  81781967.403 8  19697797.712    19697800.580    19697797.583  
        51.000          52.000                                                  
                                                                                
 113326369.059 7  88306285.87445  21565288.621    21565290.770    21565287.298  
        47.000          35.0004                                                 
                                                                                
 120961178.935 6  94255487.38344  23018146.053    23018148.330    23018144.817  
        41.000          26.0004                                                 
                                                                                
 113366070.319 7  88337219.03446  21572843.088    21572845.685    21572842.673  
        47.000          36.0004                                                 
                                                                                
 128014651.386 7  99566975.700 6  23939385.837    23939387.782    23939385.579  
        43.000          38.000                                                  
                                                                                
 129817234.259 5 101156297.94544  24703395.418    24703402.264    24703395.246  
        35.000          29.0004                                                 
                                                                                
 105512850.957 8  82217833.64549  20078423.748    20078428.211    20078423.110  
        53.000          56.0004                                                 
                                                                                
 21  1  1  0 20  0.0000000  0 19R01R02G07G08R09G10G13G15G16R16R17G18
                                R18G20G21G23R24G26G27
        41.000          37.000   112006003.859 7  87115786.024 7  20967755.648  
  20967757.481    20967755.347                                                  
                                                                                
        51.000          47.000   123893090.301 7  96361312.889 6  23184906.851  
  23184910.559    23184907.464                                                  
                                                                                
 127642402.666 6  99461621.81043  24289541.025    24289543.423    24289540.404  
        40.000          21.0004                                                 
                                                                                
 111562489.908 8  86931828.82048  21229633.732    21229638.659    21229632.894  
        49.000          50.0004                                                 
                                                                                
 117378106.136 7  91294105.228 7  21981149.810    21981149.878    21981150.192  
        46.000          44.000                                                  
                                                                                
 110810920.062 8  86346196.38249  21086615.419    21086620.342    21086614.827  
        52.000          54.0004                                                 
                                                                                
 132906176.101 5                  25291204.066          32.000   119795811.777 6
  93174546.097 6  22410280.437                                                  
                                                                                
        37.000          30.0004  111053621.762 8  86375065.781 7  20811400.476  
  20811403.596    20811400.529                                                  
                                                                                
 117374175.296 7  91460405.14645  22335562.061    22335564.437    22335561.187  
        45.000          33.0004                                                 
                                                                                
        45.000          43.000   106491989.411 8  82827129.011 8  19900571.112  
  19900571.297    19900570.930                                                  
                                                                                
        53.000          50.000   127409214.101 6  99279929.70645  24245163.542  
  24245166.942    24245162.467                                                  
                                                                                
 125590411.702 6  97862685.71243  23899059.958    23899062.466    23899058.849  
        38.000          22.0004                                                 
                                                                                
 105071163.642 8  81722033.832 8  19683362.054    19683365.250    19683362.178  
        53.000          52.000                                                  
                                                                                
 113341288.066 7  88317911.08345  21568127.614    21568129.660    21568126.406  
        47.000          35.0004                                                 
                                                                                
 120848342.423 7  94167562.87744  22996673.946    22996676.145    22996672.626  
        42.000          26.0004                                                 
                                                                                
 113372748.527 7  88342422.83846  21574113.561    21574116.568    21574113.489  
        46.000          36.0004                                                 
                                                                                
 128085974.777 7  99622449.418 6  23952722.947    23952725.798    23952723.460  
        42.000          38.000                                                  
                                                                                
 129896651.434 6 101218181.44644  24718509.519    24718514.723    24718508.106  
        36.000          29.0004                                                 
                                                                                
 105487808.761 8  82198320.24149  20073658.307    20073662.816    20073657.742  
        52.000          56.0004                                                 
                                                                                
 21  1  1  0 20 30.0000000  0 20R01R02G07G08R09G10G13G15R15G16R16R17
                                G18R18G20G21G23R24G26G27
 119840599.597 6  93209381.079 6  22418658.892    22418660.291    22418658.158  
        41.000          37.000                                                  
                                                                                
 110956045.739 8  86299173.349 7  20793115.140    20793117.872    20793114.773  
        51.000          47.000                                                  
                                                                                
 127646544.524 6  99464849.23843  24290330.055    24290330.758    24290329.054  
        40.000          21.0004                                                 
                                                                                
 111464302.617 7  86855319.24648  21210948.951    21210954.237    21210948.494  
        47.000          50.0004                                                 
                                                                                
 117281681.492 7  91219108.286 7  21963091.761    21963093.535    21963092.445  
        46.000          45.000                                                  
                                                                                
 110749703.576 8  86298495.23348  21074966.523    21074971.217    21074965.717  
        52.000          53.0004                                                 
                                                                                
 132915463.521 6 103570515.47242  25292972.340    25292973.589    25292972.524  
        36.000          12.0004                                                 
                                                                                
 127397044.404 6  99270446.81245  24242847.494    24242850.785    24242847.167  
        38.000          30.0004                                                 
                                                                                
 123990989.440 7  96437456.657 6  23203227.739    23203230.386    23203227.789  
        42.000          38.000                                                  
                                                                                
 117437351.429 7  91509633.28945  22347583.777    22347586.533    22347583.208  
        46.000          33.0004                                                 
                                                                                
 112028031.453 7  87132918.589 7  20971879.439    20971881.097    20971878.842  
        45.000          43.000                                                  
                                                                                
 106512960.270 8  82843439.676 8  19904490.013    19904490.231    19904489.645  
        52.000          50.000                                                  
                                                                                
 125656647.874 6  97914298.27843  23911663.056    23911667.604    23911663.748  
        37.000          22.0004                                                 
                                                                                
 104994490.851 8  81662399.451 8  19668998.874    19669001.904    19668998.971  
        53.000          51.000                                                  
                                                                                
 113356716.487 7  88329933.23545  21571063.424    21571065.693    21571062.376  
        46.000          35.0004                                                 
                                                                                
 120735723.742 7  94079808.11444  22975243.737    22975245.212    22975242.343  
        42.000          26.0004                                                 
                                                                                
 113379988.724 7  88348064.56046  21575491.336    21575494.309    21575491.236  
        47.000          36.0004                                                 
                                                                                
 128157332.361 7  99677949.757 6  23966067.200    23966070.460    23966068.453  
        42.000          38.000                                                  
                                                                                
 129976088.784 6 101280080.67444  24733626.584    24733631.135    24733624.621  
        36.000          29.0004                                                 
                                                                                
 105463230.364 8  82179168.23549  20068981.308    20068985.716    20068980.610  
        52.000          56.0004                                                 
                                                                                
 21  1  1  0 21  0.0000000  0 20R01R02G07G08R09G10G13G15R15G16R16R17
                                G18R18G20G21G23R24G26G27
 119886016.286 6  93244705.166 6  22427154.253    22427156.429    22427154.398  
        41.000          37.000                                                  
                                                                                
 110859188.335 8  86223839.847 8  20774964.105    20774966.949    20774963.875  
        50.000          48.000                                                  
                                                                                
 127651145.838 6  99468434.66843  24291205.025    24291207.282    24291204.433  
        41.000          21.0004                                                 
                                                                                
 111366436.495 8  86779059.92748  21192325.738    21192330.883    21192325.109  
        49.000          50.0004                                                 
                                                                                
 117185970.179 7  91144666.148 7  21945168.513    21945169.336    21945168.813  
        46.000          45.000                                                  
                                                                                
 110689060.659 8  86251241.02449  21063426.083    21063431.227    21063425.646  
        51.000          54.0004                                                 
                                                                                
 132925267.327 4 103578154.66241  25294836.077    25294839.502    25294835.116  
        29.000           6.0004                                                 
                                                                                
 127385469.407 6  99261427.38244  24240645.367    24240645.741    24240644.785  
        38.000          29.0004                                                 
                                                                                
 124089001.758 7  96513688.460 6  23221569.411    23221572.452    23221569.457  
        42.000          38.000                                                  
                                                                                
 117500840.376 7  91559105.18445  22359665.779    22359668.164    22359664.513  
        46.000          33.0004                                                 
                                                                                
 112050787.317 7  87150617.572 7  20976138.607    20976140.784    20976138.621  
        44.000          43.000                                                  
                                                                                
 106534278.334 8  82860020.385 8  19908473.395    19908474.076    19908473.417  
        52.000          50.000                                                  
                                                                                
 125722958.392 6  97965968.81443  23924282.145    23924285.300    23924281.932  
        37.000          22.0004                                                 
                                                                                
 104918201.461 8  81603063.262 8  19654707.300    19654710.203    19654707.239  
        52.000          52.000                                                  
                                                                                
 113372651.119 7  88342349.83345  21574095.830    21574097.755    21574094.553  
        46.000          35.0004                                                 
                                                                                
 120623321.800 7  93992222.23044  22953853.781    22953856.059    22953852.707  
        42.000          26.0004                                                 
                                                                                
 113387787.625 8  88354141.62846  21576975.917    21576978.501    21576975.328  
        48.000          36.0004                                                 
                                                                                
 128228721.489 7  99733474.604 6  23979417.425    23979420.214    23979418.191  
        42.000          38.000                                                  
                                                                                
 130055542.314 5 101341992.51444  24748745.358    24748750.575    24748743.987  
        35.000          28.0004                                                 
                                                                                
 105439114.392 8  82160376.56649  20064392.187    20064396.612    20064391.535  
        52.000          57.0004                                                 
                                                                                
 21  1  1  0 21 30.0000000  0 20R01R02G07G08R09G10G13G15R15G16R16R17
                                G18R18G20G21G23R24G26G27
 119932059.170 6  93280516.307 6  22435767.216    22435769.590    22435766.816  
        40.000          37.000                                                  
                                                                                
 110763052.465 8  86149067.534 8  20756948.400    20756950.981    20756948.075  
        51.000          48.000                                                  
                                                                                
 127656205.419 6  99472377.21143  24292167.054    24292168.905    24292166.980  
        38.000          20.0004                                                 
                                                                                
 111268893.695 8  86703052.55348  21173764.297    21173769.096    21173763.336  
        49.000          50.0004                                                 
                                                                                
 117090975.578 7  91070781.457 7  21927379.136    21927380.529    21927379.006  
        46.000          45.000                                                  
                                                                                
 110628992.624 8  86204434.77748  21051995.635    21052000.637    21051995.013  
        51.000          53.0004                                                 
                                                                                
 132935586.023 5 103586195.2354   25296800.548    25296803.958    25296798.024  
        33.000           3.0004                                                 
                                                                                
 127374489.001 6  99252871.24945  24238555.718    24238558.435    24238554.701  
        38.000          30.0004                                                 
                                                                                
 124187123.921 7  96590005.692 6  23239931.997    23239934.417    23239931.736  
        42.000          38.000                                                  
                                                                                
 117564640.030 7  91608819.18245  22371806.145    22371808.791    22371805.329  
        46.000          33.0004                                                 
                                                                                
 112074269.346 7  87168881.356 7  20980534.694    20980536.817    20980534.550  
        45.000          43.000                                                  
                                                                                
 106555943.520 8  82876871.074 8  19912521.967    19912522.920    19912521.831  
        51.000          50.000                                                  
                                                                                
 125789342.447 6  98017696.60643  23936914.897    23936917.467    23936914.482  
        38.000          22.0004                                                 
                                                                                
 104842297.156 8  81544026.573 8  19640488.216    19640490.697    19640487.830  
        52.000          51.000                                                  
                                                                                
 113389090.431 8  88355159.69145  21577224.099    21577226.073    21577222.903  
        48.000          35.0004                                                 
                                                                                
 120511138.056 7  93904806.37544  22932506.437    22932508.443    22932504.908  
        43.000          26.0004                                                 
                                                                                
 113396144.261 7  88360653.29846  21578565.653    21578568.703    21578565.552  
        46.000          36.0004                                                 
                                                                                
 128300142.230 7  99789024.056 6  23992774.924    23992776.055    23992774.776  
        43.000          37.000                                                  
                                                                                
 130135010.572 5 101403915.81844  24763866.723    24763872.944    24763866.686  
        35.000          28.0004                                                 
                                                                                
 105415461.694 8  82141945.88749  20059891.416    20059895.636    20059890.598  
        53.000          56.0004                                                 
                                                                                
 21  1  1  0 22  0.0000000  0 20R01R02G07G08R09G10G13G15R15G16R16R17
                                G18R18G20G21G23R24G26G27
 119978725.332 6  93316812.218 6  22444496.636    22444499.510    22444496.444  
        40.000          36.000                                                  
                                                                                
 110667641.966 8  86074859.399 8  20739068.012    20739071.267    20739067.949  
        50.000          48.000                                                  
                                                                                
 127661722.276 6  99476676.06943  24293216.981    24293219.230    24293216.594  
        38.000          20.0004                                                 
                                                                                
 111171676.983 8  86627299.26848  21155264.042    21155269.350    21155263.600  
        48.000          51.0004                                                 
                                                                                
 116996701.397 7  90997457.092 7  21909725.254    21909725.914    21909724.972  
        47.000          44.000                                                  
                                                                                
 110569501.149 8  86158077.80249  21040674.986    21040679.748    21040674.173  
        50.000          54.0004                                                 
                                                                                
 132946419.320 5 103594636.92541  25298861.105    25298862.441    25298860.698  
        34.000           8.0004                                                 
                                                                                
 127364103.471 6  99244778.62545  24236579.468    24236583.562    24236578.752  
        39.000          31.0004                                                 
                                                                                
 124285352.570 7  96666405.741 6  23258313.927    23258317.032    23258313.710  
        42.000          39.000                                                  
                                                                                
 117628748.581 7  91658773.89145  22384005.206    22384008.390    22384004.577  
        44.000          32.0004                                                 
                                                                                
 112098476.117 7  87187708.823 7  20985066.830    20985068.530    20985066.360  
        45.000          43.000                                                  
                                                                                
 106577955.814 8  82893991.745 8  19916636.219    19916636.394    19916635.618  
        52.000          50.000                                                  
                                                                                
 125855799.687 6  98069481.45443  23949561.495    23949563.769    23949561.048  
        37.000          22.0004                                                 
                                                                                
 104766779.398 8  81485290.534 8  19626340.638    19626343.596    19626340.720  
        53.000          51.000                                                  
                                                                                
 113406033.709 7  88368362.25145  21580448.308    21580450.296    21580447.159  
        46.000          35.0004                                                 
                                                                                
 120399174.290 7  93817561.92644  22911200.310    22911201.855    22911198.937  
        42.000          27.0004                                                 
                                                                                
 113405057.865 7  88367598.97046  21580261.570    21580264.849    21580261.731  
        46.000          36.0004                                                 
                                                                                
 128371594.626 7  99844598.156 6  24006136.422    24006137.980    24006136.299  
        42.000          37.000                                                  
                                                                                
 130214492.087 5 101465849.45944  24778991.684    24778997.961    24778991.330  
        35.000          28.0004                                                 
                                                                                
 105392273.429 8  82123877.10949  20055478.629    20055483.088    20055478.068  
        51.000          57.0004                                                 
                                                                                
 21  1  1  0 22 30.0000000  0 20R01R02G07G08R09G10G13G15R15G16R16R17
                                G18R18G20G21G23R24G26G27
 120026012.057 6  93353590.784 6  22453343.527    22453345.655    22453343.095  
        41.000          37.000                                                  
                                                                                
 110572960.010 8  86001217.914 7  20721324.588    20721327.819    20721324.494  
        51.000          47.000                                                  
                                                                                
 127667694.898 6  99481330.03543  24294352.942    24294354.461    24294352.657  
        39.000          20.0004                                                 
                                                                                
 111074788.123 8  86551801.45148  21136826.939    21136832.022    21136826.264  
        49.000          50.0004                                                 
                                                                                
 116903150.472 7  90924695.245 7  21892204.577    21892206.390    21892205.289  
        45.000          45.000                                                  
                                                                                
 110510587.035 8  86112170.71449  21029463.927    21029468.805    21029463.199  
        51.000          54.0004                                                 
                                                                                
 132957765.739 4 103603478.1134   25301018.905    25301025.490    25301018.360  
        29.000           2.0004                                                 
                                                                                
 127354312.541 6  99237149.31345  24234716.680    24234719.202    24234716.165  
        39.000          31.0004                                                 
                                                                                
 124383683.698 6  96742885.499 6  23276715.248    23276718.820    23276714.903  
        41.000          39.000                                                  
                                                                                
 117693164.407 7  91708968.02245  22396263.172    22396266.085    22396262.674  
        46.000          32.0004                                                 
                                                                                
 112123404.399 7  87207097.463 7  20989733.427    20989735.171    20989733.102  
        45.000          43.000                                                  
                                                                                
 106600314.500 8  82911381.828 8  19920814.080    19920814.659    19920813.777  
        52.000          50.000                                                  
                                                                                
 125922328.846 6  98121322.34943  23962221.572    23962224.472    23962221.021  
        38.000          22.0004                                                 
                                                                                
 104691649.218 8  81426855.948 8  19612266.723    19612269.218    19612266.462  
        53.000          51.000                                                  
                                                                                
 113423479.319 8  88381956.23445  21583767.907    21583770.053    21583766.961  
        48.000          35.0004                                                 
                                                                                
 120287430.854 7  93730489.19744  22889935.872    22889937.809    22889934.545  
        43.000          27.0004                                                 
                                                                                
 113414526.950 7  88374977.48546  21582064.322    21582066.688    21582063.502  
        47.000          36.0004                                                 
                                                                                
 128443078.156 7  99900196.440 6  24019503.737    24019506.081    24019504.374  
        42.000          37.000                                                  
                                                                                
 130293984.746 5 101527791.79344  24794118.437    24794124.683    24794118.247  
        35.000          28.0004                                                 
                                                                                
 105369549.971 9  82106170.51149  20051154.567    20051158.923    20051153.974  
        54.000          57.0004                                                 
                                                                                
 21  1  1  0 23  0.0000000  0 20R01R02G07G08R09G10G13G15R15G16R16R17
                                G18R18G20G21G23R24G26G27
 120073915.420 6  93390848.955 6  22462305.684    22462306.607    22462304.588  
        41.000          36.000                                                  
                                                                                
 110479009.889 8  85928145.626 7  20703718.863    20703721.617    20703718.423  
        51.000          47.000                                                  
                                                                                
 127674121.371 6  99486337.66443  24295575.830    24295578.352    24295575.687  
        39.000          20.0004                                                 
                                                                                
 110978228.404 8  86476560.10648  21118452.327    21118457.287    21118451.589  
        48.000          51.0004                                                 
                                                                                
 116810325.392 7  90852497.963 7  21874822.153    21874822.926    21874821.928  
        46.000          45.000                                                  
                                                                                
 110452251.030 8  86066714.10649  21018362.831    21018367.854    21018362.217  
        52.000          54.0004                                                 
                                                                                
 132969623.351 5 103612717.85841  25303277.177    25303276.168    25303276.277  
        34.000           8.0004                                                 
                                                                                
 127345115.115 6  99229982.52044  24232966.761    24232966.660    24232966.146  
        39.000          29.0004                                                 
                                                                                
 124482113.537 6  96819442.027 6  23295134.661    23295138.459    23295134.673  
        41.000          40.000                                                  
                                                                                
 117757885.025 7  91759399.66245  22408579.294    22408582.190    22408578.396  
        45.000          32.0004                                                 
                                                                                
 112149051.442 7  87227045.143 7  20994534.748    20994536.298    20994534.282  
        45.000          43.000                                                  
                                                                                
 106623018.758 8  82929040.683 8  19925056.880    19925057.466    19925056.736  
        52.000          49.000                                                  
                                                                                
 125988928.713 6  98173218.31443  23974895.080    23974898.179    23974894.038  
        36.000          21.0004                                                 
                                                                                
 104616906.974 8  81368723.091 8  19598264.826    19598267.438    19598264.646  
        52.000          51.000                                                  
                                                                                
 113441425.494 7  88395940.27745  21587183.040    21587184.967    21587181.897  
        45.000          34.0004                                                 
                                                                                
 120175908.805 7  93643588.93244  22868713.919    22868716.291    22868712.800  
        43.000          27.0004                                                 
                                                                                
 113424549.828 7  88382787.52946  21583970.890    21583973.956    21583970.813  
        47.000          36.0004                                                 
                                                                                
 128514592.173 6  99955818.439 6  24032877.310    24032880.089    24032877.388  
        41.000          37.000                                                  
                                                                                
 130373486.271 5 101589741.02044  24809246.931    24809253.537    24809246.883  
        34.000          28.0004                                                 
                                                                                
 105347291.561 8  82088826.28949  20046918.999    20046923.302    20046918.264  
        53.000          57.0004                                                 
                                                                                
 21  1  1  0 23 30.0000000  0 20R01R02G07G08R09G10G13G15R15G16R16R17
                                G18R18G20G21G23R24G26G27
 120122430.738 6  93428583.089 6  22471381.036    22471383.334    22471380.466  
        41.000          37.000                                                  
                                                                                
 110385793.579 8  85855644.085 8  20686250.225    20686252.742    20686249.849  
        51.000          48.000                                                  
                                                                                
 127680998.330 6  99491696.32143  24296884.775    24296887.122    24296884.065  
        38.000          20.0004                                                 
                                                                                
 110881998.999 8  86401576.15948  21100140.511    21100145.449    21100139.755  
        48.000          50.0004                                                 
                                                                                
 116718227.818 7  90780866.523 7  21857574.996    21857576.337    21857574.927  
        46.000          45.000                                                  
                                                                                
 110394492.596 8  86021707.55049  21007371.838    21007376.757    21007371.198  
        51.000          54.0004                                                 
                                                                                
 132981989.328 5 103622353.7374   25305631.033    25305630.236    25305627.916  
        30.000           2.0004                                                 
                                                                                
 127336509.497 6  99223276.87344  24231326.431    24231329.196    24231326.561  
        37.000          28.0004                                                 
                                                                                
 124580636.456 6  96896070.945 6  23313572.022    23313575.460    23313571.982  
        40.000          40.000                                                  
                                                                                
 117822906.271 7  91810065.55745  22420952.625    22420955.333    22420951.763  
        46.000          32.0004                                                 
                                                                                
 112175413.187 7  87247548.696 7  20999469.139    20999471.321    20999469.216  
        45.000          43.000                                                  
                                                                                
 106646066.559 8  82946966.739 8  19929364.025    19929364.331    19929363.697  
        52.000          50.000                                                  
                                                                                
 126055596.682 6  98225167.35743  23987581.527    23987585.005    23987581.179  
        37.000          22.0004                                                 
                                                                                
 104542552.607 8  81310891.926 8  19584335.471    19584338.495    19584335.426  
        52.000          51.000                                                  
                                                                                
 113459868.965 8  88410311.81045  21590692.849    21590694.675    21590691.683  
        48.000          35.0004                                                 
                                                                                
 120064607.495 7  93556860.65344  22847533.957    22847536.217    22847532.425  
        42.000          27.0004                                                 
                                                                                
 113435123.653 7  88391026.88046  21585983.171    21585985.997    21585982.965  
        46.000          36.0004                                                 
                                                                                
 128586134.430 6 100011462.417 6  24046257.364    24046258.997    24046256.026  
        40.000          38.000                                                  
                                                                                
 130452993.364 5 101651694.59244  24824376.697    24824383.138    24824376.606  
        35.000          28.0004                                                 
                                                                                
 105325497.196 8  82071843.66249  20042771.575    20042776.032    20042770.930  
        52.000          57.0004                                                 
                                                                                
 21  1  1  0 24  0.0000000  0 20R01R02G07G08R09G10G13G15R15G16R16R17
                                G18R18G20G21G23R24G26G27
 120171553.694 6  93466789.827 6  22480569.546    22480573.277    22480569.161  
        41.000          37.000                                                  
                                                                                
 110293312.222 8  85783714.164 7  20668919.148    20668921.636    20668918.871  
        51.000          47.000                                                  
                                                                                
 127688322.921 6  99497403.81043  24298278.820    24298280.783    24298278.645  
        39.000          20.0004                                                 
                                                                                
 110786100.344 8  86326849.93548  21081891.385    21081896.579    21081890.775  
        49.000          50.0004                                                 
                                                                                
 116626859.339 7  90709802.132 7  21840465.143    21840465.528    21840464.943  
        46.000          44.000                                                  
                                                                                
 110337311.442 8  85977150.83048  20996490.473    20996495.496    20996490.005  
        52.000          53.0004                                                 
                                                                                
 132994861.467 4 103632383.9494   25308079.928    25308079.255    25308076.886  
        29.000           3.0004                                                 
                                                                                
 127328494.156 6  99217031.12244  24229802.197    24229805.861    24229801.869  
        37.000          29.0004                                                 
                                                                                
 124679247.630 6  96972768.493 6  23332025.071    23332029.394    23332025.382  
        40.000          40.000                                                  
                                                                                
 117888224.929 7  91860963.20645  22433382.555    22433385.006    22433381.624  
        44.000          32.0004                                                 
                                                                                
 112202485.460 7  87268604.879 7  21004537.929    21004539.385    21004537.279  
        45.000          43.000                                                  
                                                                                
 106669456.022 8  82965158.540 8  19933734.588    19933735.344    19933734.642  
        52.000          50.000                                                  
                                                                                
 126122330.513 6  98277167.74243  24000280.763    24000284.017    24000279.978  
        38.000          22.0004                                                 
                                                                                
 104468585.728 8  81253362.139 8  19570478.952    19570482.042    19570478.878  
        53.000          51.000                                                  
                                                                                
 113478807.140 7  88425068.83745  21594296.578    21594298.632    21594295.454  
        47.000          35.0004                                                 
                                                                                
 119953526.350 7  93470303.95244  22826396.074    22826398.021    22826394.676  
        42.000          27.0004                                                 
                                                                                
 113446245.804 7  88399693.49345  21588099.998    21588102.474    21588099.459  
        45.000          35.0004                                                 
                                                                                
 128657703.609 6 100067127.333 6  24059638.941    24059642.893    24059639.574  
        40.000          38.000                                                  
                                                                                
 130532502.774 5 101713649.97244  24839506.878    24839513.171    24839506.435  
        35.000          28.0004                                                 
                                                                                
 105304166.180 8  82055222.08549  20038712.344    20038716.899    20038711.771  
        53.000          57.0004                                                 
                                                                                
 21  1  1  0 24 30.0000000  0 20R01R02G07G08R09G10G13G15R15G16R16R17
                                G18R18G20G21G23R24G26G27
 121823840.411 6  94751901.737 6  22789664.123    22789666.991    22789663.830  
        41.000          37.000                                                  
                                                                                
 111801321.284 8  86956610.120 7  20951519.437    20951522.012    20951519.325  
        51.000          47.000                                                  
                                                                                
 129271511.990 6 100731057.66443  24599549.504    24599551.159    24599549.454  
        39.000          19.0004                                                 
                                                                                
 112265956.381 8  87479984.50548  21363498.610    21363503.794    21363497.962  
        49.000          51.0004                                                 
                                                                                
 118137099.609 7  91884433.452 7  22123284.510    22123285.640    22123284.661  
        46.000          45.000                                                  
                                                                                
 111856129.117 8  87160645.13848  21285512.013    21285516.870    21285511.352  
        53.000          53.0004                                                 
                                                                                
 134583656.186 5 104870405.71141  25610418.822    25610417.152    25610417.219  
        34.000           9.0004                                                 
                                                                                
 128896487.716 6 100438844.28045  24528183.199    24528185.805    24528183.284  
        39.000          31.0004                                                 
                                                                                
 126379938.906 6  98295528.356 6  23650287.329    23650290.446    23650287.210  
        40.000          40.000                                                  
                                                                                
 119529255.139 7  93139688.04345  22745660.081    22745662.620    22745659.032  
        45.000          32.0004                                                 
                                                                                
 113831701.056 7  88535772.553 7  21309529.938    21309531.866    21309529.863  
        44.000          43.000                                                  
                                                                                
 108297434.746 8  84231364.207 8  20237961.533    20237962.084    20237961.257  
        52.000          50.000                                                  
                                                                                
 127764545.836 6  99556816.02043  24312784.566    24312786.701    24312783.391  
        38.000          22.0004                                                 
                                                                                
 105995320.832 8  82440822.782 8  19856488.028    19856490.974    19856487.849  
        52.000          51.000                                                  
                                                                                
 115073656.943 7  89667808.94045  21897786.463    21897788.358    21897785.348  
        46.000          35.0004                                                 
                                                                                
 121418088.844 7  94611521.54044  23105092.204    23105095.168    23105090.988  
        42.000          27.0004                                                 
                                                                                
 115033333.224 7  89636384.99845  21890112.126    21890115.261    21890112.009  
        47.000          35.0004                                                 
                                                                                
 130332420.536 6 101369684.934 6  24372820.735    24372822.662    24372820.496  
        40.000          37.000                                                  
                                                                                
 132187428.646 6 103003202.60344  25154429.423    25154434.864    25154428.768  
        36.000          28.0004                                                 
                                                                                
 106858718.444 8  83266561.50749  20334534.036    20334538.359    20334533.266  
        53.000          57.0004                                                 
                                                                                
 21  1  1  0 25  0.0000000  0 20R01R02G07G08R09G10G13G15R15G16R16R17
                                G18R18G20G21G23R24G26G27
 121874169.337 6  94791046.441 6  22799081.682    22799082.095    22799079.425  
        40.000          37.000                                                  
                                                                                
 111710321.060 8  86885832.188 8  20934465.853    20934468.573    20934465.747  
        51.000          48.000                                                  
                                                                                
 129279727.705 6 100737459.51343  24601113.539    24601114.548    24601112.809  
        38.000          19.0004                                                 
                                                                                
 112170725.815 8  87405778.86548  21345376.510    21345382.035    21345376.130  
        49.000          50.0004                                                 
                                                                                
 118047198.477 7  91814510.356 7  22106449.646    22106449.518    22106449.294  
        46.000          45.000                                                  
                                                                                
 111800105.773 8  87116990.60849  21274850.910    21274856.017    21274850.398  
        50.000          54.0004                                                 
                                                                                
 134597536.172 5 104881221.3784   25613058.413    25613059.881    25613056.806  
        32.000           5.0004                                                 
                                                                                
 128889652.135 6 100433517.87644  24526881.035    24526881.007    24526880.987  
        37.000          28.0004                                                 
                                                                                
 126478715.879 6  98372354.868 6  23668772.419    23668775.026    23668772.186  
        41.000          40.000                                                  
                                                                                
 119595162.082 7  93191044.09345  22758201.787    22758204.228    22758200.964  
        45.000          32.0004                                                 
                                                                                
 113860187.034 7  88557928.288 7  21314862.833    21314864.667    21314862.309  
        44.000          43.000                                                  
                                                                                
 108321506.724 8  84250086.853 8  20242459.744    20242460.477    20242459.713  
        51.000          50.000                                                  
                                                                                
 127831408.998 6  99608917.17143  24325507.806    24325510.291    24325507.531  
        38.000          21.0004                                                 
                                                                                
 105922132.407 8  82383898.457 8  19842777.312    19842780.367    19842777.260  
        52.000          51.000                                                  
                                                                                
 115093581.133 7  89683334.28645  21901577.631    21901579.880    21901576.803  
        46.000          34.0004                                                 
                                                                                
 121307451.559 7  94525310.71544  23084038.949    23084041.664    23084037.678  
        42.000          27.0004                                                 
                                                                                
 115045548.218 7  89645903.18245  21892436.834    21892439.743    21892436.480  
        46.000          35.0004                                                 
                                                                                
 130404042.835 6 101425391.158 6  24386212.907    24386216.579    24386213.864  
        40.000          38.000                                                  
                                                                                
 132266937.346 6 103065157.43544  25169559.077    25169565.320    25169558.638  
        36.000          29.0004                                                 
                                                                                
 106838316.070 8  83250663.54949  20330651.397    20330655.911    20330650.835  
        52.000          56.0004                                                 
                                                                                
 21  1  1  0 25 30.0000000  0 20R01R02G07G08R09G10G13G15R15G16R16R17
                                G18R18G20G21G23R24G26G27
 121925096.710 6  94830656.633 6  22808606.383    22808610.139    22808605.663  
        40.000          37.000                                                  
                                                                                
 111620065.778 8  86815633.658 8  20917552.067    20917554.762    20917551.762  
        51.000          48.000                                                  
                                                                                
 129288386.682 6 100744206.77143  24602760.718    24602763.317    24602760.894  
        39.000          20.0004                                                 
                                                                                
 112075831.527 8  87331835.26348  21327318.917    21327324.228    21327318.341  
        48.000          51.0004                                                 
                                                                                
 117958035.356 7  91745161.259 7  22089750.968    22089752.698    22089751.750  
        47.000          46.000                                                  
                                                                                
 111744662.784 8  87073788.29749  21264300.706    21264305.482    21264299.945  
        52.000          54.0004                                                 
                                                                                
 134611918.150 5 104892428.0004   25615794.806    25615794.144    25615795.721  
        32.000           5.0004                                                 
                                                                                
 128883406.173 6 100428650.90044  24525692.411    24525693.256    24525691.805  
        37.000          27.0004                                                 
                                                                                
 126577570.168 6  98449241.518 6  23687270.398    23687274.438    23687271.264  
        41.000          40.000                                                  
                                                                                
 119661360.013 7  93242626.88245  22770799.049    22770801.348    22770798.002  
        45.000          32.0004                                                 
                                                                                
 113889375.675 7  88580630.538 7  21320326.892    21320328.966    21320326.632  
        44.000          42.000                                                  
                                                                                
 108345919.064 8  84269074.221 8  20247021.817    20247022.403    20247021.627  
        51.000          50.000                                                  
                                                                                
 127898335.453 6  99661067.63643  24338243.589    24338246.249    24338243.317  
        38.000          22.0004                                                 
                                                                                
 105849334.678 8  82327278.005 8  19829139.764    19829142.776    19829139.895  
        53.000          51.000                                                  
                                                                                
 115113995.601 7  89699241.66645  21905462.786    21905464.624    21905461.503  
        46.000          35.0004                                                 
                                                                                
 121197038.121 7  94439274.30344  23063027.929    23063030.514    23063026.410  
        43.000          27.0004                                                 
                                                                                
 115058307.667 7  89655845.61946  21894864.903    21894867.756    21894864.625  
        47.000          36.0004                                                 
                                                                                
 130475691.071 6 101481117.583 6  24399611.537    24399615.334    24399611.976  
        40.000          38.000                                                  
                                                                                
 132346442.957 5 103127109.84444  25184688.054    25184694.589    25184687.825  
        35.000          28.0004                                                 
                                                                                
 106818378.889 8  83235128.07749  20326857.562    20326861.983    20326856.914  
        53.000          57.0004                                                 
                                                                                
 21  1  1  0 26  0.0000000  0 20R01R02G07G08R09G10G13G15R15G16R16R17
                                G18R18G20G21G23R24G26G27
 121976618.436 6  94870729.085 6  22818244.358    22818247.943    22818244.223  
        40.000          37.000                                                  
                                                                                
 111530558.246 8  86746016.717 8  20900778.494    20900781.054    20900777.859  
        51.000          48.000                                                  
                                                                                
 129297486.765 6 100751297.75143  24604492.605    24604494.394    24604491.790  
        38.000          19.0004                                                 
                                                                                
 111981276.021 8  87258155.64448  21309325.597    21309330.859    21309325.071  
        49.000          52.0004                                                 
                                                                                
 117869612.993 7  91676388.301 7  22073192.789    22073193.572    22073192.956  
        46.000          45.000                                                  
                                                                                
 111689800.616 8  87031038.57148  21253860.688    21253865.562    21253860.046  
        51.000          53.0004                                                 
                                                                                
 134626800.069 5 104904024.35041  25618626.448    25618629.286    25618626.979  
        32.000           8.0004                                                 
                                                                                
 128877748.369 6 100424242.25445  24524618.121    24524619.115    24524617.146  
        39.000          30.0004                                                 
                                                                                
 126676497.709 6  98526185.135 6  23705785.043    23705787.048    23705784.963  
        41.000          40.000                                                  
                                                                                
 119727846.963 7  93294434.88945  22783451.314    22783453.324    22783450.054  
        46.000          32.0004                                                 
                                                                                
 113919263.873 7  88603876.898 7  21325921.798    21325923.783    21325921.773  
        44.000          42.000                                                  
                                                                                
 108370671.034 8  84288325.745 8  20251647.064    20251648.096    20251646.997  
        51.000          50.000                                                  
                                                                                
 127965323.878 6  99713266.38043  24350990.963    24350994.111    24350990.581  
        38.000          22.0004                                                 
                                                                                
 105776928.681 8  82270962.237 8  19815575.720    19815578.669    19815575.639  
        53.000          51.000                                                  
                                                                                
 115134898.580 7  89715529.70545  21909440.411    21909442.306    21909439.220  
        45.000          34.0004                                                 
                                                                                
 121086848.509 7  94353412.31944  23042059.876    23042062.315    23042058.257  
        43.000          27.0004                                                 
                                                                                
 115071609.582 7  89666210.75045  21897396.395    21897398.933    21897395.956  
        46.000          35.0004                                                 
                                                                                
 130547364.627 6 101536863.663 6  24413016.012    24413018.618    24413015.717  
        39.000          37.000                                                  
                                                                                
 132425943.179 6 103189058.06044  25199817.628    25199823.035    25199816.755  
        36.000          29.0004                                                 
                                                                                
 106798906.953 8  83219955.13249  20323151.937    20323156.623    20323151.512  
        52.000          56.0004                                                 
                                                                                
 21  1  1  0 26 30.0000000  0 20R01R02G07G08R09G10G13G15R15G16R16R17
                                G18R18G20G21G23R24G26G27
 122028730.735 6  94911260.902 6  22827991.786    22827995.833    22827992.370  
        39.000          36.000                                                  
                                                                                
 111441801.056 8  86676983.390 8  20884145.178    20884148.102    20884144.866  
        51.000          48.000                                                  
                                                                                
 129307025.006 6 100758730.17243  24606307.577    24606309.847    24606306.532  
        39.000          19.0004                                                 
                                                                                
 111887059.781 8  87184740.39348  21291397.025    21291402.129    21291396.426  
        49.000          51.0004                                                 
                                                                                
 117781932.780 7  91608192.580 7  22056774.152    22056774.632    22056773.658  
        47.000          46.000                                                  
                                                                                
 111635519.143 8  86988741.33849  21243531.269    21243536.004    21243530.633  
        50.000          54.0004                                                 
                                                                                
 134642179.652 5 104916008.4344   25621553.537    25621558.142    25621552.195  
        33.000           4.0004                                                 
                                                                                
 128872677.620 6 100420291.03945  24523650.600    24523654.902    24523650.858  
        37.000          30.0004                                                 
                                                                                
 126775493.877 7  98603182.143 6  23724310.558    23724312.992    23724311.072  
        42.000          40.000                                                  
                                                                                
 119794619.571 7  93346465.48045  22796157.258    22796159.770    22796156.416  
        45.000          31.0004                                                 
                                                                                
 113949847.668 7  88627664.273 7  21331646.797    21331649.128    21331647.228  
        45.000          42.000                                                  
                                                                                
 108395761.009 8  84307840.164 8  20256336.047    20256336.742    20256335.930  
        51.000          50.000                                                  
                                                                                
 128032372.278 6  99765511.87243  24363749.725    24363752.568    24363748.824  
        38.000          22.0004                                                 
                                                                                
 105704914.018 9  82214950.839 8  19802085.176    19802087.902    19802085.096  
        54.000          51.000                                                  
                                                                                
 115156287.634 7  89732196.50545  21913510.769    21913512.527    21913509.260  
        47.000          34.0004                                                 
                                                                                
 120976882.930 7  94267724.90644  23021133.723    23021136.428    23021132.355  
        44.000          28.0004                                                 
                                                                                
 115085451.623 7  89676996.76046  21900030.298    21900033.060    21900029.992  
        47.000          36.0004                                                 
                                                                                
 130619062.070 6 101592628.354 6  24426424.566    24426426.292    24426423.682  
        39.000          37.000                                                  
                                                                                
 132505435.024 6 103250999.74944  25214943.848    25214949.656    25214943.181  
        36.000          28.0004                                                 
                                                                                
 106779899.753 8  83205144.31649  20319535.163    20319539.678    20319534.619  
        51.000          57.0004                                                 
                                                                                
 21  1  1  0 27  0.0000000  0 20R01R02G07G08R09G10G13G15R15G16R16R17
                                G18R18G20G21G23R24G26G27
 122081429.191 6  94952248.576 6  22837850.529    22837854.214    22837850.798  
        40.000          36.000                                                  
                                                                                
 111353795.982 8  86608535.032 8  20867652.680    20867655.802    20867652.648  
        51.000          48.000                                                  
                                                                                
 129316999.293 6 100766502.34943  24608205.727    24608206.965    24608205.082  
        38.000          19.0004                                                 
                                                                                
 111793184.151 8  87111590.55448  21273533.211    21273538.145    21273532.573  
        49.000          51.0004                                                 
                                                                                
 117694996.703 7  91540575.625 7  22040493.052    22040493.691    22040492.907  
        47.000          46.000                                                  
                                                                                
 111581818.432 8  86946896.64848  21233312.316    21233317.066    21233311.686  
        52.000          53.0004                                                 
                                                                                
 134658054.678 5 104928378.59941  25624574.783    25624576.333    25624574.558  
        31.000           7.0004                                                 
                                                                                
 128868192.113 6 100416795.82944  24522796.017    24522801.327    24522795.985  
        37.000          29.0004                                                 
                                                                                
 126874554.128 7  98680228.982 6  23742848.872    23742850.112    23742848.251  
        42.000          39.000                                                  
                                                                                
 119861674.272 7  93398715.87845  22808917.663    22808919.831    22808916.478  
        44.000          31.0004                                                 
                                                                                
 113981123.713 7  88651990.062 7  21337501.809    21337504.092    21337502.092  
        44.000          42.000                                                  
                                                                                
 108421187.682 8  84327616.459 8  20261087.916    20261088.517    20261087.431  
        50.000          50.000                                                  
                                                                                
 128099478.937 6  99817802.75043  24376518.782    24376522.683    24376518.919  
        37.000          22.0004                                                 
                                                                                
 105633291.265 8  82159244.263 8  19788667.596    19788670.660    19788667.623  
        52.000          51.000                                                  
                                                                                
 115178160.378 7  89749240.20645  21917672.725    21917674.706    21917671.417  
        46.000          34.0004                                                 
                                                                                
 120867141.432 7  94182212.09044  23000250.382    23000252.999    23000249.345  
        43.000          28.0004                                                 
                                                                                
 115099831.457 7  89688201.83246  21902766.917    21902769.550    21902766.373  
        46.000          36.0004                                                 
                                                                                
 130690782.249 6 101648410.761 6  24439834.653    24439839.016    24439835.916  
        38.000          37.000                                                  
                                                                                
 132584915.801 6 103312932.80744  25230068.733    25230074.376    25230067.999  
        36.000          28.0004                                                 
                                                                                
 106761356.954 8  83190695.37349  20316006.592    20316011.140    20316006.009  
        52.000          56.0004                                                 
                                                                                
 21  1  1  0 27 30.0000000  0 20R01R02G07G08R09G10G13G15R15G16R16R17
                                G18R18G20G21G23R24G26G27
 122134709.908 6  94993689.143 6  22847820.090    22847820.747    22847818.961  
        41.000          36.000                                                  
                                                                                
 111266545.049 8  86540673.222 8  20851301.966    20851304.990    20851301.971  
        51.000          49.000                                                  
                                                                                
 129327407.174 6 100774612.37443  24610185.751    24610188.334    24610185.377  
        38.000          19.0004                                                 
                                                                                
 111699650.672 8  87038707.32348  21255734.381    21255739.342    21255733.728  
        48.000          50.0004                                                 
                                                                                
 117608807.250 7  91473539.375 7  22024352.446    22024353.392    22024352.317  
        47.000          45.000                                                  
                                                                                
 111528698.693 8  86905504.65348  21223203.836    21223208.810    21223203.340  
        51.000          53.0004                                                 
                                                                                
 134674423.006 5 104941133.0914   25627690.504    25627693.450    25627694.224  
        32.000           5.0004                                                 
                                                                                
 128864291.121 6 100413756.07844  24522055.543    24522056.383    24522054.784  
        38.000          28.0004                                                 
                                                                                
 126973674.095 7  98757322.289 6  23761397.475    23761398.867    23761397.149  
        42.000          40.000                                                  
                                                                                
 119929008.752 7  93451184.30045  22821730.874    22821732.845    22821730.030  
        44.000          31.0004                                                 
                                                                                
 114013088.506 7  88676851.557 7  21343486.802    21343488.018    21343485.980  
        44.000          42.000                                                  
                                                                                
 108446949.985 8  84347653.798 8  20265901.616    20265902.768    20265901.728  
        51.000          49.000                                                  
                                                                                
 128166642.342 6  99870137.84743  24389299.286    24389304.050    24389299.733  
        38.000          21.0004                                                 
                                                                                
 105562060.625 8  82103842.665 8  19775323.764    19775326.619    19775323.603  
        52.000          51.000                                                  
                                                                                
 115200514.427 7  89766658.94445  21921926.572    21921928.545    21921925.396  
        46.000          34.0004                                                 
                                                                                
 120757624.458 7  94096874.24044  22979410.197    22979412.647    22979409.314  
        43.000          28.0004                                                 
                                                                                
 115114747.070 7  89699824.39646  21905604.951    21905607.774    21905604.617  
        45.000          36.0004                                                 
                                                                                
 130762524.593 6 101704210.376 6  24453252.974    24453255.027    24453252.393  
        39.000          36.000                                                  
                                                                                
 132664383.163 6 103374855.41544  25245190.554    25245196.341    25245190.149  
        36.000          28.0004                                                 
                                                                                
 106743278.445 8  83176608.20749  20312566.502    20312570.912    20312565.761  
        53.000          57.0004                                                 
                                                                                
 21  1  1  0 28  0.0000000  0 20R01R02G07G08R09G10G13G15R15G16R16R17
                                G18R18G20G21G23R24G26G27
 122188570.260 6  95035580.525 6  22857893.504    22857897.495    22857894.063  
        40.000          36.000                                                  
                                                                                
 111180052.547 8  86473401.308 8  20835093.342    20835096.213    20835093.248  
        52.000          48.000                                                  
                                                                                
 129338246.968 6 100783058.96143  24612248.107    24612251.391    24612247.402  
        36.000          19.0004                                                 
                                                                                
 111606461.190 7  86966092.14348  21238000.759    21238005.957    21238000.320  
        47.000          51.0004                                                 
                                                                                
 117523367.295 7  91407086.071 7  22008352.454    22008353.409    22008352.278  
        46.000          45.000                                                  
                                                                                
 111476161.021 8  86864566.21948  21213206.202    21213211.198    21213205.731  
        52.000          53.0004                                                 
                                                                                
 134691283.710 5 104954271.32041  25630898.597    25630898.759    25630898.689  
        33.000           6.0004                                                 
                                                                                
 128860974.105 6 100411171.45745  24521426.610    24521424.971    24521425.962  
        39.000          30.0004                                                 
                                                                                
 127072850.556 7  98834459.524 6  23779956.993    23779958.768    23779956.759  
        42.000          39.000                                                  
                                                                                
 119996621.251 7  93503869.35945  22834597.429    22834599.357    22834596.220  
        44.000          31.0004                                                 
                                                                                
 114045739.405 7  88702246.679 7  21349598.578    21349600.313    21349598.443  
        44.000          42.000                                                  
                                                                                
 108473047.674 8  84367951.985 8  20270778.861    20270779.752    20270778.675  
        51.000          50.000                                                  
                                                                                
 128233861.831 6  99922516.64443  24402091.777    24402095.460    24402091.644  
        37.000          22.0004                                                 
                                                                                
 105491223.643 8  82048747.239 8  19762053.666    19762056.536    19762053.609  
        53.000          52.000                                                  
                                                                                
 115223348.849 7  89784452.00245  21926271.625    21926273.930    21926270.546  
        45.000          34.0004                                                 
                                                                                
 120648333.224 7  94011712.28944  22958613.110    22958615.183    22958611.615  
        44.000          28.0004                                                 
                                                                                
 115130197.240 7  89711863.49446  21908545.173    21908547.868    21908544.771  
        45.000          36.0004                                                 
                                                                                
 130834288.501 6 101760026.767 5  24466672.139    24466673.708    24466672.957  
        38.000          35.000                                                  
                                                                                
 132743835.446 6 103436766.27344  25260310.514    25260315.878    25260309.220  
        36.000          28.0004                                                 
                                                                                
 106725664.993 8  83162883.43149  20309214.674    20309219.141    20309214.007  
        51.000          56.0004                                                 
                                                                                
 21  1  1  0 28 30.0000000  0 20R01R02G07G08R09G10G13G15R15G16R16R17
                                G18R18G20G21G23R24G26G27
 122243006.844 6  95077920.097 6  22868076.476    22868081.096    22868077.664  
        40.000          37.000                                                  
                                                                                
 111094321.305 8  86406721.474 8  20819027.645    20819030.434    20819027.289  
        51.000          49.000                                                  
                                                                                
 129349517.576 6 100791841.22643  24614392.669    24614395.295    24614392.842  
        38.000          18.0004                                                 
                                                                                
 111513618.580 8  86893747.25048  21220333.339    21220338.628    21220332.879  
        49.000          50.0004                                                 
                                                                                
 117438679.615 7  91341217.871 7  21992493.264    21992493.763    21992492.918  
        47.000          45.000                                                  
                                                                                
 111424206.648 8  86824082.30348  21203319.837    21203324.568    21203319.096  
        53.000          53.0004                                                 
                                                                                
 134708635.397 5 104967792.1314   25634200.983    25634201.492    25634197.161  
        31.000           3.0004                                                 
                                                                                
 128858241.138 5 100409041.87244  24520901.471    24520907.887    24520902.249  
        35.000          28.0004                                                 
                                                                                
 127172080.454 7  98911638.322 6  23798527.252    23798528.656    23798526.307  
        42.000          39.000                                                  
                                                                                
 120064509.290 7  93556769.12045  22847515.808    22847518.027    22847514.838  
        44.000          31.0004                                                 
                                                                                
 114079074.031 7  88728173.579 7  21355838.735    21355840.562    21355838.877  
        45.000          42.000                                                  
                                                                                
 108499480.555 8  84388510.881 8  20275718.626    20275719.228    20275718.350  
        51.000          50.000                                                  
                                                                                
 128301136.947 6  99974938.80343  24414893.663    24414896.976    24414893.073  
        37.000          21.0004                                                 
                                                                                
 105420781.657 8  81993959.023 8  19748857.320    19748860.412    19748857.456  
        53.000          52.000                                                  
                                                                                
 115246662.532 7  89802618.51145  21930708.158    21930710.171    21930706.949  
        46.000          34.0004                                                 
                                                                                
 120539269.171 7  93926727.35544  22937858.801    22937860.773    22937857.469  
        44.000          29.0004                                                 
                                                                                
 115146180.889 7  89724318.28646  21911586.695    21911589.448    21911586.429  
        47.000          36.0004                                                 
                                                                                
 130906074.280 6 101815860.165 6  24480095.188    24480098.574    24480096.992  
        39.000          36.000                                                  
                                                                                
 132823271.233 6 103498664.28444  25275425.835    25275431.832    25275425.448  
        36.000          28.0004                                                 
                                                                                
 106708517.485 8  83149521.73649  20305951.610    20305956.022    20305950.959  
        53.000          56.0004                                                 
                                                                                
 21  1  1  0 29  0.0000000  0 20R01R02G07G08R09G10G13G15R15G16R16R17
                                G18R18G20G21G23R24G26G27
 122298015.190 6  95120704.367 6  22878368.852    22878371.646    22878368.871  
        41.000          37.000                                                  
                                                                                
 111009352.381 8  86340634.565 8  20803104.061    20803107.118    20803104.009  
        51.000          48.000                                                  
                                                                                
 129361215.895 6 100800956.80743  24616619.863    24616622.074    24616619.773  
        38.000          19.0004                                                 
                                                                                
 111421122.759 7  86821672.58148  21202732.102    21202737.233    21202731.461  
        47.000          51.0004                                                 
                                                                                
 117354745.661 7  91275935.910 7  21976774.414    21976775.914    21976774.814  
        47.000          46.000                                                  
                                                                                
 111372834.840 8  86784052.33848  21193543.772    21193548.820    21193543.334  
        52.000          53.0004                                                 
                                                                                
 134726474.920 5 104981693.01141  25637594.970    25637596.720    25637592.772  
        34.000           7.0004                                                 
                                                                                
 128856090.093 6 100407365.65944  24520493.279    24520498.646    24520493.417  
        36.000          29.0004                                                 
                                                                                
 127271358.270 7  98988854.397 6  23817104.699    23817107.268    23817104.841  
        42.000          39.000                                                  
                                                                                
 120132669.461 7  93609880.93645  22860486.397    22860488.690    22860485.266  
        45.000          31.0004                                                 
                                                                                
 114113087.374 7  88754628.385 7  21362206.961    21362207.842    21362206.551  
        45.000          42.000                                                  
                                                                                
 108526246.973 8  84409329.198 8  20280720.362    20280721.092    20280720.341  
        51.000          49.000                                                  
                                                                                
 128368465.245 6 100027402.39043  24427705.622    24427708.873    24427705.261  
        38.000          21.0004                                                 
                                                                                
 105350734.346 8  81939477.785 8  19735735.164    19735738.019    19735735.245  
        52.000          51.000                                                  
                                                                                
 115270452.347 7  89821156.03645  21935235.426    21935237.268    21935234.104  
        46.000          33.0004                                                 
                                                                                
 120430431.448 7  93841918.80944  22917147.821    22917149.977    22917146.458  
        44.000          28.0004                                                 
                                                                                
 115162694.965 7  89737186.40446  21914729.363    21914731.989    21914728.874  
        46.000          36.0004                                                 
                                                                                
 130977880.189 6 101871709.222 6  24493526.411    24493527.386    24493525.589  
        38.000          37.000                                                  
                                                                                
 132902687.081 6 103560546.76344  25290538.077    25290544.535    25290537.732  
        36.000          29.0004                                                 
                                                                                
 106691834.839 8  83136522.26549  20302776.988    20302781.466    20302776.352  
        51.000          56.0004                                                 
                                                                                
