     3.04           OBSERVATION DATA    M: MIXED            RINEX VERSION / TYPE
HEADER CHANGED BY EPN CB ON 2021-12-28                      COMMENT
TO BE CONFORM WITH THE INFORMATION IN                       COMMENT
ftp://epncb.oma.be/pub/station/log/acor.log                 COMMENT
                                                            COMMENT
Mdb2Rinex 4.97.35L                      20211222 025042 UTC PGM / RUN BY / DATE
gfzrnx-1.15-8044    HEADER EDIT         20211222 025043 UTC COMMENT
ACOR                                                        MARKER NAME
13434M001                                                   MARKER NUMBER
IGNE                                                        OBSERVER / AGENCY
1833574             LEICA GR50          4.50/7.710          REC # / TYPE / VERS
103033              LEIAT504        LEIS                    ANT # / TYPE
        3.0460        0.0000        0.0000                  ANTENNA: DELTA H/E/N
  4594489.8680  -678367.9920  4357065.8700                  APPROX POSITION XYZ
SNR is mapped to RINEX snr flag value [1-9]                 COMMENT
LX:     < 12dBHz -> 1; 12-17dBHz -> 2; 18-23dBHz -> 3       COMMENT
       24-29dBHz -> 4; 30-35dBHz -> 5; 36-41dBHz -> 6       COMMENT
       42-47dBHz -> 7; 48-53dBHz -> 8; >= 54dBHz -> 9       COMMENT
G   12 C1C L1C S1C C2S L2S S2S C2W L2W S2W C5Q L5Q S5Q      SYS / # / OBS TYPES
R   12 C1C L1C S1C C2P L2P S2P C2C L2C S2C C3Q L3Q S3Q      SYS / # / OBS TYPES
E   15 C1C L1C S1C C5Q L5Q S5Q C6C L6C S6C C7Q L7Q S7Q C8Q  SYS / # / OBS TYPES
       L8Q S8Q                                              SYS / # / OBS TYPES
C    9 C2I L2I S2I C6I L6I S6I C7I L7I S7I                  SYS / # / OBS TYPES
DBHZ                                                        SIGNAL STRENGTH UNIT
    30.000                                                  INTERVAL
  2021    12    21     0     0    0.0000000     GPS         TIME OF FIRST OBS
  2021    12    21    23    59   30.0000000     GPS         TIME OF LAST OBS
     0                                                      RCV CLOCK OFFS APPL
 22 R01  1 R02 -4 R03  5 R04  6 R05  1 R06 -4 R07  5 R08  6 GLONASS SLOT / FRQ #
    R09 -2 R10 -7 R12 -1 R13 -2 R14 -7 R15  0 R17  4 R18 -3 GLONASS SLOT / FRQ #
    R19  3 R20  2 R21  4 R22 -3 R23  3 R24  2               GLONASS SLOT / FRQ #
 C1C  -71.940 C1P  -71.940 C2C  -71.940 C2P  -71.940        GLONASS COD/PHS/BIS
    18    18  2185     7                                    LEAP SECONDS
                                                            END OF HEADER
> 2021 12 21 00 00  0.0000000  0 38
G01  24600158.420   129274705.78406        38.300    24600162.420   100733552.50006        39.200    24600162.100   100733552.49806        37.150    24600160.900    96536320.75806        40.800
G07  23818653.240   125167854.81207        43.400    23818653.000    97533394.66807        42.950    23818652.720    97533382.65007        42.350
G08  20980381.160   110252666.62308        52.300    20980383.780    85911190.59408        53.050    20980383.040    85911187.58008        50.700    20980381.260    82331548.95808        51.050
G10  21746265.920   114277424.81808        52.100    21746267.840    89047360.40108        51.600    21746267.900    89047364.39008        52.000    21746265.740    85337044.17108        49.550
G16  21389146.080   112400729.55108        50.950                                                    21389145.280    87584972.23408        48.750
G18  25102873.240   131916486.61706        38.950    25102874.100   102792071.26707        42.350    25102874.240   102792073.24506        38.850    25102875.900    98509081.27616        38.650
G21  22102016.060   116146899.49008        48.800                                                    22102015.080    90504076.15907        44.350
G23  22693452.340   119254907.31107        46.200    22693452.760    92925911.42408        48.750    22693452.500    92925911.41407        45.000    22693455.480    89054011.06907        45.750
G26  23978428.500   126007541.19606        41.700    23978431.660    98187726.34307        42.400    23978431.320    98187731.33106        41.300    23978429.560    94096567.99207        42.200
G30  25069396.360   131740562.82506        38.100    25069398.620   102654991.17506        40.000    25069398.080   102654992.15806        37.500    25069397.400    98377696.87006        39.300
R04  22900311.340   122630143.16806        39.650    22900314.400    95379006.78306        40.850    22900314.380    95379001.77306        41.900
R05  22093490.540   118102366.16207        43.300    22093494.660    91857418.12107        45.250    22093494.740    91857409.12307        46.100
R10  21676363.300   115547229.07907        47.050
R12  22710639.000   121316148.78607        42.100    22710643.120    94357016.34507        42.050    22710643.120    94357017.35407        43.200
R20  20773143.720   111083349.71506        36.500    20773148.620    86398186.53508        48.900    20773149.720    86398198.53408        49.000
R21  20240115.380   108308971.37908        49.150    20240118.440    84240329.21908        49.350    20240118.620    84240331.22708        49.550    20240109.360    81153235.13709        56.100
E02  27688711.320   145505160.07446        40.600    27688713.600   108656456.44706        36.950    27688711.420   118104837.13505        35.050    27688713.340   111490972.17507        42.300    27688714.300   110073712.70907        43.600
E11  22406152.280   117745135.55648        50.950    22406151.680    87926565.68107        46.050    22406148.560    95572335.68107        45.550    22406151.420    90220305.22708        51.850    22406152.760    89073450.84108        53.100
E12  22571067.580   118611771.40248        49.900    22571067.280    88573726.26107        46.050    22571063.820    96275773.17607        45.350    22571067.840    90884379.35908        52.550    22571068.360    89729067.70008        53.550
E24  24774441.500   130190598.05548        52.750    24774443.500    97220276.95107        47.750    24774441.040   105674192.47207        46.800    24774443.080    99756454.43708        53.450    24774444.260    98488359.08309        54.700
E25  24416364.120   128308865.53748        52.700    24416367.680    95815078.42908        48.650    24416362.580   104146798.92907        47.250    24416367.220    98314602.40609        54.450    24416368.440    97064828.30909        55.650
E31  28064441.720   147479695.56446        41.700    28064446.260   110130981.24606        37.500    28064441.440   119707482.02405        34.450    28064447.040   113003970.99606        40.000    28064446.640   111567475.51507        42.000
E33  28220284.040   148298627.71446        37.650    28220287.040   110742457.55405        35.100    28220286.080   120372252.80405        35.350    28220286.820   113631503.82907        43.700    28220287.280   112187027.58407        44.200
E36  27683668.740   145478664.56647        42.750    27683673.820   108636680.66606        38.950    27683668.300   118083327.13306        36.700    27683672.580   111470682.41307        44.350    27683674.280   110053684.92307        45.550
C05  40593343.060   211380189.55115        35.150                                                    40593342.420   163452566.45906        38.950
C11  21913541.980   114109591.09508        50.550    21913535.540    92723378.80708        50.150    21913541.760    88236778.69909        55.000
C14  26415938.540   137554716.94706        36.000    26415927.100   111774446.86505        35.700    26415937.140   106366035.67707        42.200
C21  24427140.220   127198542.99907        46.750    24427131.700   103359198.09607        44.100
C22  26043003.400   135612765.29006        41.250    26042993.700   110196445.47206        38.900
C23  23717422.060   123502839.43008        49.900    23717410.140   100356109.73807        47.000
C25  24551077.700   127843921.17607        46.250    24551073.300   103883643.06407        43.600
C28  26221241.200   136540869.01506        38.550    26221238.120   110950643.10306        36.450
C34  22359562.760   116432146.88108        52.600    22359559.800    94610687.04808        49.750
C37  25995544.860   135365618.40506        41.000    25995544.500   109995652.02106        38.750
C42  25517916.540   132878502.25107        43.850    25517921.080   107974693.20706        40.750
C43  22574242.060   117550032.39008        53.050    22574238.580    95519023.22108        48.700
C44  25942857.260   135091421.80306        40.800    25942852.960   109772821.00006        36.250
C58  32534076.080   169413483.26907        46.550
> 2021 12 21 00 00 30.0000000  0 38
G01  24579530.600   129166303.65106        41.650    24579534.120   100649083.26406        40.650    24579533.940   100649083.26206        37.100    24579532.340    96455371.10406        37.750
G07  23818981.960   125169581.98207        43.150    23818981.720    97534740.49606        41.850    23818981.420    97534728.48206        41.750
G08  20971651.880   110206794.01508        52.500    20971654.500    85875445.70708        53.000    20971653.760    85875442.69308        50.450    20971652.000    82297293.44108        50.150
G10  21743409.120   114262412.21408        51.850    21743411.040    89035662.26608        51.700    21743411.100    89035666.26708        52.000    21743408.920    85325833.46708        48.600
G16  21403271.620   112474959.73308        51.250                                                    21403270.840    87642813.93608        48.850
G18  25122366.420   132018923.78806        38.550    25122366.820   102871892.52906        37.500    25122367.140   102871894.52205        35.300    25122369.740    98585576.42306        39.000
G21  22089560.180   116081443.88208        48.200                                                    22089559.240    90453071.81807        43.800
G23  22703159.960   119305921.32707        45.850    22703160.420    92965662.60508        48.650    22703160.380    92965662.60307        44.600    22703163.060    89092105.96507        44.800
G26  23999197.280   126116682.79907        42.800    23999200.540    98272771.74007        43.650    23999200.260    98272776.73207        42.750    23999199.260    94178069.82306        41.550
G30  25062448.780   131704052.97706        40.000    25062451.040   102626541.91406        41.250    25062450.700   102626542.92406        38.650    25062449.760    98350433.01406        38.650
R04  22907157.740   122666807.99606        38.800    22907160.440    95407523.84606        38.000    22907160.320    95407518.83806        37.100
R05  22081472.420   118038123.70607        43.850    22081476.740    91807451.78107        44.800    22081476.800    91807442.78507        45.450
R10  21698813.560   115666901.49707        47.400
R12  22691579.780   121214337.54407        42.200    22691583.820    94277829.84906        41.750    22691583.960    94277830.84907        42.600
R20  20785844.540   111151267.36806        36.750    20785849.660    86451011.37008        48.800    20785850.780    86451023.38308        48.800
R21  20233506.540   108273606.25608        49.700    20233509.620    84212823.01508        49.150    20233509.740    84212825.02008        49.650    20233500.560    81126736.92209        55.850
E02  27673069.340   145422960.46046        40.300    27673071.620   108595073.61806        36.600    27673069.320   118038116.61905        34.800    27673071.100   111427988.03007        43.150    27673072.240   110011529.21307        43.700
E11  22400183.580   117713769.97348        50.850    22400183.040    87903143.33407        45.050    22400179.940    95546876.60307        45.400    22400182.740    90196271.85608        52.300    22400184.080    89049722.98308        52.750
E12  22579317.760   118655126.40148        49.650    22579317.360    88606101.74807        44.950    22579314.020    96310963.92807        45.400    22579318.060    90917599.41908        52.900    22579318.560    89761865.46908        53.150
E24  24786645.280   130254729.48548        52.850    24786647.360    97268167.29707        47.250    24786644.780   105726247.20107        46.700    24786646.800    99805594.10908        53.900    24786648.060    98536874.09409        54.450
E25  24411566.220   128283652.43448        52.600    24411569.780    95796250.44907        47.700    24411564.640   104126333.74607        47.500    24411569.340    98295283.26509        55.000    24411570.540    97045754.74809        55.350
E31  28082632.000   147575287.24246        40.650    28082636.880   110202364.50005        35.000    28082631.280   119785072.65705        33.200    28082636.840   113077216.52906        41.950    28082637.480   111639789.91707        42.600
E33  28234918.560   148375535.73146        39.850    28234922.100   110799888.85905        35.250    28234919.880   120434678.09305        33.200    28234921.000   113690433.29606        40.750    28234922.120   112245207.97406        41.700
E36  27669769.580   145405625.70646        41.700    27669775.040   108582138.69206        37.650    27669769.520   118024042.34006        36.400    27669774.040   111414717.59007        45.550    27669775.240   109998431.53107        45.650
C05  40593279.720                          34.550                                                    40593279.100   163452311.21206        39.400
C11  21914284.620   114113458.73208        50.300    21914278.320    92726521.58308        50.250    21914284.520    88239769.39709        55.350
C14  26397338.920   137457867.49706        38.650    26397329.640   111695748.86906        37.150    26397337.560   106291145.58505        35.350
C21  24419902.480   127160854.11707        47.400    24419894.020   103328572.80707        44.300
C22  26050844.060   135653602.40006        39.400    26050836.360   110229628.88206        37.550
C23  23720803.020   123520445.16908        49.700    23720791.200   100370415.84107        46.950
C25  24567880.840   127931419.67307        45.400    24567876.280   103954742.77607        43.700
C28  26206371.740   136463438.63706        39.450    26206368.320   110887724.60606        38.050
C34  22366472.240   116468126.56708        52.550    22366469.300    94639923.50308        49.800
C37  25984096.460   135306003.58706        41.250    25984096.140   109947210.14506        38.600
C42  25500275.920   132786642.49207        43.250    25500280.880   107900049.63806        40.950
C43  22567272.260   117513738.77108        53.050    22567268.800    95489531.68908        48.750
C44  25957870.140   135169600.87306        39.400    25957867.000   109836347.82906        37.250
C58  32521634.680   169348697.68907        45.750
> 2021 12 21 00 01  0.0000000  0 38
G01  24558925.840   129058023.66106        39.300    24558929.260   100564709.31406        39.850    24558929.280   100564709.31206        37.600    24558926.920    96374512.68306        38.300
G07  23819409.520   125171828.15507        43.950    23819409.220    97536490.73206        41.900    23819408.920    97536478.72707        42.550
G08  20962970.940   110161175.38308        52.800    20962973.560    85839898.71908        52.950    20962972.820    85839895.70708        50.250    20962971.080    82263227.57908        51.000
G10  21740661.020   114247970.91908        52.250    21740662.900    89024409.31808        51.250    21740662.960    89024413.31608        52.200    21740660.820    85315049.38908        49.450
G16  21417475.840   112549603.10608        52.100                                                    21417475.120    87700977.60308        48.300
G18  25141856.200   132121343.21806        39.350    25141856.860   102951699.80207        42.750    25141856.660   102951701.78006        38.200    25141859.980    98662058.43005        33.200
G21  22077164.960   116016307.21308        48.650                                                    22077163.940    90402315.98607        44.200
G23  22712967.200   119357459.11607        45.850    22712967.740    93005821.91008        48.400    22712967.780    93005821.90807        44.700    22712970.440    89130591.97607        45.750
G26  24019986.440   126225929.23207        43.550    24019989.460    98357898.78207        42.050    24019989.180    98357903.78207        43.300    24019988.320    94259649.93606        41.600
G30  25055595.640   131668039.45206        39.200    25055597.840   102598479.43506        40.850    25055597.500   102598480.42006        38.300    25055596.700    98323539.79206        39.550
R04  22914143.540   122704212.91606        40.850    22914144.600    95436616.66606        40.400    22914144.440    95436611.66406        40.800
R05  22069571.720   117974507.01907        44.100    22069575.700    91757972.15007        45.000    22069575.820    91757963.14807        45.650
R10  21721327.920   115786915.23308        48.700
R12  22672607.980   121112993.34507        43.050    22672611.960    94199006.58107        42.350    22672612.060    94199007.60007        43.150
R20  20798579.020   111219363.43806        37.100    20798584.040    86503974.98608        49.000    20798585.200    86503986.98508        49.250
R21  20226958.500   108238566.14608        49.650    20226961.540    84185569.59608        49.550    20226961.720    84185571.60208        49.800    20226952.500    81100482.24309        54.800
E02  27657454.080   145340902.20446        40.950    27657456.500   108533796.33306        36.900    27657453.980   117971510.89405        34.900    27657456.140   111365112.23007        42.850    27657457.000   109949452.66707        42.900
E11  22394259.440   117682638.49748        51.200    22394258.940    87879895.81207        46.050    22394255.780    95521607.56307        45.650    22394258.640    90172417.87208        51.800    22394259.940    89026172.23008        51.850
E12  22587597.920   118698639.21148        50.000    22587597.460    88638595.07007        45.900    22587594.280    96346282.76107        45.400    22587598.160    90950940.39408        52.150    22587598.760    89794782.62008        52.050
E24  24798907.960   130319170.08848        52.850    24798910.160    97316288.50908        48.300    24798907.400   105778552.88707        46.350    24798909.400    99854970.66908        53.700    24798910.780    98585622.98608        53.800
E25  24406843.020   128258831.81448        52.950    24406846.560    95777715.57408        48.600    24406841.440   104106187.14307        47.600    24406846.160    98276264.87109        54.350    24406847.340    97026978.11409        54.400
E31  28100828.200   147670907.14547        42.900    28100831.720   110273769.09305        34.900    28100827.320   119862686.21206        36.550    28100833.180   113150483.65307        42.550    28100833.520   111712125.71506        41.800
E33  28249546.340   148452404.31946        40.250    28249549.340   110857290.69206        38.050    28249546.040   120497051.49115        32.050    28249547.000   113749332.68306        39.550    28249549.720   112303358.61006        40.700
E36  27655890.600   145332692.95847        43.550    27655896.160   108527675.95806        38.850    27655891.000   117964843.72506        36.700    27655895.520   111358834.11807        44.950    27655896.640   109943258.43607        44.950
C05  40593216.440                          34.950                                                    40593215.960   163452059.43716        38.700
C11  21915066.940   114117532.47208        50.600    21915060.680    92729831.84008        50.200    21915066.820    88242919.47709        54.750
C14  26378719.100   137360917.81905        34.650    26378711.200   111616969.51204        29.800    26378719.300   106216178.17907        43.600
C21  24412749.720   127123607.95207        47.050    24412741.240   103298307.25707        44.000
C22  26058773.060   135694888.28907        43.900    26058762.900   110263177.13506        37.750
C23  23724278.040   123538540.63708        49.650    23724266.360   100385119.88307        46.950
C25  24584720.260   128019107.62107        44.650    24584715.940   104025996.39507        44.000
C28  26191509.880   136386049.85206        38.100    26191506.720   110824839.93006        37.000
C34  22373417.240   116504290.98408        52.550    22373414.280    94669310.05408        49.650
C37  25972720.860   135246767.68806        41.300    25972720.520   109899076.11506        38.700
C42  25482651.340   132694868.06907        42.200    25482656.740   107825475.38306        41.100
C43  22560339.980   117477640.50208        52.950    22560336.540    95460198.89708        48.750
C44  25972886.240   135247792.00407        42.000    25972882.980   109899884.52705        35.950
C58  32509215.800   169284029.35807        46.500
> 2021 12 21 00 01 30.0000000  0 38
G01  24538345.180   128949871.59706        39.600    24538348.260   100480434.94306        38.850    24538348.440   100480434.92906        36.700    24538346.600    96293749.81206        40.550
G07  23819936.420   125174597.05907        43.150    23819936.120    97538648.29207        42.050    23819935.940    97538636.29807        42.100
G08  20954339.260   110115815.54908        52.100    20954341.880    85804553.38508        52.900    20954341.140    85804550.37808        50.850    20954339.400    82229354.97808        50.400
G10  21738022.600   114234105.93708        51.850    21738024.500    89013605.44508        51.350    21738024.540    89013609.43808        51.900    21738022.380    85304695.66808        48.900
G16  21431759.160   112624662.26208        51.100                                                    21431758.460    87759465.24908        48.650
G18  25161343.260   132223747.83705        34.550    25161344.060   103031495.51606        37.450    25161344.040   103031497.51705        34.700    25161346.340    98738529.50506        39.350
G21  22064831.540   115951494.28508        48.650                                                    22064830.760    90351812.41007        45.550
G23  22722874.700   119409523.22207        46.250    22722875.200    93046391.33807        47.550    22722875.020    93046391.33607        44.950    22722877.840    89169471.01207        44.800
G26  24040795.760   126335282.72606        41.650    24040798.540    98443109.31107        42.550    24040798.120    98443114.30506        41.200    24040797.480    94341310.01006        40.700
G30  25048837.880   131632527.38906        38.750    25048840.200   102570807.70006        40.650    25048839.460   102570808.67206        37.350    25048838.940    98297021.06206        38.700
R04  22921266.480   122742360.71006        40.250    22921269.500    95466287.10207        42.350    22921269.180    95466282.09607        42.900
R05  22057789.420   117911524.48807        43.900    22057793.340    91708985.76007        45.300    22057793.560    91708976.75807        45.650
R10  21743906.500   115907271.00708        48.050
R12  22653725.100   121012124.56307        43.750    22653729.180    94120553.08007        42.350    22653729.160    94120554.07407        42.500
R20  20811347.180   111287640.98006        36.900    20811352.280    86557079.74708        48.800    20811353.360    86557091.74408        49.450
R21  20220471.920   108203854.95108        49.700    20220474.940    84158572.00408        49.700    20220475.080    84158574.00608        50.100    20220465.880    81074474.00209        54.350
E02  27641866.940   145258991.40346        40.900    27641869.360   108472629.17706        36.550    27641866.680   117905024.85105        35.350    27641869.060   111302349.40107        42.100    27641870.000   109887487.67407        42.250
E11  22388380.640   117651745.07648        50.550    22388380.160    87856826.03607        45.350    22388377.020    95496531.72407        45.750    22388379.900    90148746.28808        51.350    22388381.120    89002801.55308        51.300
E12  22595908.720   118742313.15148        49.400    22595908.260    88671208.72307        45.300    22595905.060    96381732.38407        45.450    22595908.880    90984404.84408        51.700    22595909.660    89827821.67608        51.500
E24  24811230.000   130383923.05148        52.200    24811232.200    97364642.98007        47.250    24811229.520   105831112.10307        46.850    24811231.640    99904586.55708        53.550    24811232.900    98634608.15908        53.350
E25  24402195.540   128234408.99748        52.550    24402199.040    95759477.75407        47.850    24402193.940   104086363.42007        47.650    24402198.660    98257551.28308        53.950    24402199.840    97008502.40808        53.850
E31  28119029.820   147766558.32946        40.500    28119033.880   110345196.80306        36.200    28119030.000   119940325.07505        34.050    28119034.800   113223774.82806        39.300    28119035.280   111784485.21406        39.950
E33  28264167.380   148529237.31046        41.000    28264169.900   110914665.95805        35.050    28264167.520   120559415.90606        36.250    28264169.180   113808204.66607        43.050    28264170.920   112361482.20307        42.750
E36  27642033.260   145259871.00247        43.800    27642038.720   108473295.93006        38.050    27642033.540   117905735.00806        37.650    27642038.320   111303035.48507        44.350    27642039.180   109888169.10307        44.250
C05                                                                                                  40593153.700   163451808.31906        38.550
C11  21915889.740   114121816.33608        51.000    21915883.360    92733312.82808        50.100    21915889.520    88246232.01909        54.450
C14  26360083.100   137263874.86506        39.550    26360075.120   111538114.16906        38.500    26360083.740   106141138.53406        40.200
C21  24405682.880   127086810.35807        47.700    24405674.440   103268406.19407        44.000
C22  26066789.620   135736626.22107        42.300    26066778.740   110297092.64106        39.150
C23  23727847.820   123557129.41608        50.100    23727836.140   100400224.76907        46.850
C25  24601596.440   128106986.90807        45.300    24601592.260   104097405.49107        44.150
C28  26176656.840   136308707.00606        39.050    26176653.860   110761992.58906        36.950
C34  22380398.520   116540644.08108        52.850    22380395.540    94698849.90208        49.650
C37  25961419.220   135187916.60706        41.000    25961418.740   109851254.80706        38.900
C42  25465043.920   132603185.69507        42.500    25465050.420   107750975.98006        40.400
C43  22553446.060   117441741.96308        53.050    22553442.620    95431028.38508        48.700
C44  25987905.640   135325999.38306        39.700    25987900.880   109963434.47605        35.350
C58  32496820.320   169219482.72407        46.050
> 2021 12 21 00 02  0.0000000  0 38
G01  24517788.720   128841847.84206        37.500    24517792.240   100396260.61606        41.800    24517792.280   100396260.62806        37.250    24517790.580    96213082.74006        38.100
G07  23820562.440   125177887.11107        43.700    23820562.260    97541211.94007        42.250    23820561.980    97541199.95006        41.900
G08  20945756.900   110070715.00108        52.200    20945759.520    85769410.10308        53.000    20945758.780    85769407.09508        50.900    20945757.000    82195675.99508        50.150
G10  21735493.780   114220816.81608        52.400    21735495.680    89003250.29508        51.700    21735495.720    89003254.28908        52.550    21735493.540    85294772.00208        48.600
G16  21446121.140   112700134.84508        50.950                                                    21446120.240    87818275.04208        48.350
G18  25180826.680   132326135.59216        39.600    25180827.580   103111279.20616        41.100    25180827.500   103111279.21316        38.200    25180830.420    98814987.65506        37.250
G21  22052559.520   115887004.38508        48.300                                                    22052558.860    90301560.54807        45.250
G23  22732881.860   119462110.88207        46.100    22732882.220    93087368.75807        47.800    22732881.900    93087368.75007        45.050    22732884.680    89208741.04207        44.450
G26  24061624.700   126444740.20706        41.100    24061627.620    98528400.86607        42.800    24061627.300    98528405.85806        41.300    24061626.760    94423047.73306        40.850
G30  25042175.580   131597516.94206        39.550    25042177.960   102543526.82206        41.000    25042177.480   102543527.79906        37.200    25042176.620    98270876.85806        38.450
R04  22928528.760   122781248.96106        40.400    22928531.760    95496533.52306        41.100    22928531.560    95496528.53606        41.750
R05  22046126.040   117849178.36007        42.900    22046130.420    91660494.34607        45.450    22046130.440    91660485.34807        45.950
R10  21766548.080   116027963.20208        48.150
R12  22634931.720   120911734.27007        43.600    22634935.880    94042471.74607        42.650    22634935.900    94042472.73207        44.350
R20  20824148.720   111356097.67906        36.800    20824153.900    86610323.83408        48.700    20824155.000    86610335.84508        49.000
R21  20214046.520   108169471.51408        50.300    20214049.620    84131829.33508        49.650    20214049.720    84131831.33908        50.050    20214040.560    81048711.34009        54.900
E02  27626308.080   145177228.77746        40.550    27626310.480   108411572.70906        36.750    27626307.740   117838659.07805        35.200    27626310.040   111239700.13607        42.600    27626311.120   109825634.80607        42.900
E11  22382546.900   117621088.51848        50.600    22382546.360    87833933.15607        45.200    22382543.260    95471648.15807        45.900    22382546.140    90125256.19608        51.600    22382547.360    88979610.06408        51.900
E12  22604249.820   118786146.27748        49.350    22604249.460    88703941.25807        45.000    22604246.180    96417311.21307        45.600    22604249.900    91017991.26108        51.850    22604250.820    89860981.14908        51.900
E24  24823611.080   130448986.28348        52.200    24823613.140    97413229.15807        46.900    24823610.620   105883923.16507        46.900    24823612.800    99954440.19208        53.350    24823613.980    98683828.06208        53.600
E25  24397623.780   128210384.03448        52.650    24397627.240    95741537.03107        47.650    24397622.160   104066862.63307        47.850    24397626.880    98239142.54409        54.150    24397628.040    96990327.67709        54.400
E31  28137237.380   147862238.29446        41.750    28137241.180   110416646.01205        32.550    28137236.880   120018002.39415        35.600    28137241.200   113297087.99906        41.950    28137243.020   111856866.41106        41.700
E33  28278781.340   148606033.25046        40.500    28278783.940   110972013.63205        35.350    28278781.480   120621750.20505        35.550    28278784.140   113867048.22207        42.550    28278784.600   112419577.79506        41.950
E36  27628196.880   145187159.11547        42.350    27628201.360   108418998.10206        37.550    27628196.960   117846715.64206        37.500    27628201.660   111247321.20607        43.900    27628202.780   109833163.04507        44.150
C05  40593092.580   211378885.44715        35.800                                                    40593092.160   163451560.28006        38.300
C11  21916752.680   114126309.23008        50.800    21916746.160    92736963.66308        49.850    21916752.320    88249706.20709        54.450
C14  26341429.040   137166739.52905        33.950    26341421.660   111459183.89405        32.000    26341428.880   106066027.31106        38.050
C21  24398702.140   127050461.89107        47.900    24398693.880   103238870.11007        43.750
C22  26074890.500   135778814.18807        42.100    26074882.060   110331373.73506        39.550
C23  23731512.120   123576209.73408        49.700    23731500.320   100415729.09307        46.700
C25  24618508.760   128195054.16607        45.200    24618504.700   104168967.33007        43.950
C28  26161812.900   136231409.43406        40.100    26161809.420   110699181.95406        36.600
C34  22387415.780   116577184.54008        52.700    22387412.760    94728542.01408        49.300
C37  25950191.560   135129451.15106        41.650    25950191.080   109803746.81906        38.500
C42  25447454.860   132511597.12706        41.950    25447462.020   107676552.75206        40.700
C43  22546590.320   117406042.33108        52.950    22546586.860    95402019.51808        48.450
C44  26002927.300   135404221.93906        40.350    26002922.960   110026996.65306        36.800
C58  32484448.060   169155057.02807        46.600
> 2021 12 21 00 02 30.0000000  0 38
G01  24497256.420   128733952.24206        38.800    24497260.620   100312186.23106        40.250    24497260.820   100312186.24906        37.500    24497258.240    96132511.38606        38.950
G07  23821287.300   125181696.07607        43.550    23821287.040    97544179.95807        43.100    23821286.740    97544167.95007        42.100
G08  20937223.640   110025872.55608        52.600    20937226.300    85734467.95008        53.200    20937225.580    85734464.94108        50.550    20937223.760    82162189.76308        50.950
G10  21733074.360   114208102.75208        52.650    21733076.280    88993343.24208        51.500    21733076.340    88993347.23908        52.550    21733074.120    85285277.73908        49.300
G16  21460561.100   112776017.66008        51.350                                                    21460560.180    87877404.50408        48.000
G18                                                                                                                                                  25200310.200    98891430.28616        36.950
G21  22040348.860   115822836.45508        49.250                                                    22040347.820    90251559.55407        44.150
G23  22742988.020   119515218.90907        45.200    22742988.340    93128751.63808        48.400    22742988.020    93128751.63007        45.100    22742990.760    89248399.62607        45.600
G26  24082472.560   126554298.21106        41.100    24082475.620    98613770.70507        42.450    24082475.280    98613775.69906        41.050    24082474.160    94504860.52106        39.400
G30  25035608.720   131563007.57306        39.100    25035611.100   102516636.39906        40.650    25035610.500   102516637.38106        37.850    25035609.700    98245106.86206        39.400
R04  22935928.240   122820874.72506        40.700    22935931.320    95527353.58706        40.700    22935931.300    95527348.58106        40.700
R05  22034582.180   117787470.96807        43.200    22034586.760    91612499.72807        45.300    22034586.860    91612490.73407        45.950
R10  21789251.520   116148986.01107        46.000
R12  22616228.560   120811825.08707        44.100    22616232.700    93964764.60407        42.450    22616232.740    93964765.61507        43.400
R20  20836983.420   111424730.23006        36.950    20836988.420    86663704.69708        48.700    20836989.760    86663716.70408        48.400
R21  20207682.140   108135413.89108        49.800    20207685.160    84105340.07208        49.650    20207685.240    84105342.07808        50.050    20207676.040    81023192.80609        55.350
E02  27610777.440   145095614.63746        41.300    27610779.860   108350627.09506        37.300    27610777.360   117772413.84905        35.300    27610779.460   111177164.63407        43.100    27610780.460   109763894.25107        43.350
E11  22376757.880   117590667.08448        50.750    22376757.420    87811215.85707        46.000    22376754.300    95446955.43507        45.900    22376757.160    90101946.27208        52.200    22376758.360    88956596.45708        52.300
E12  22612620.820   118830136.20348        49.650    22612620.620    88736790.87407        45.950    22612617.120    96453017.32207        45.550    22612620.840    91051697.82308        52.300    22612621.820    89894259.23408        52.400
E24  24836050.720   130514357.19348        53.050    24836052.880    97462045.08907        47.750    24836050.180   105936983.95707        46.900    24836052.340   100004529.58908        53.650    24836053.620    98733280.72908        53.850
E25  24393127.620   128186756.48248        52.800    24393131.060    95723893.07408        48.450    24393126.020   104047684.42207        47.850    24393130.720    98221038.31309        54.800    24393131.880    96972453.58209        54.900
E31  28155449.200   147957944.24346        38.850    28155451.500   110488040.76515        34.600    28155449.080   120095685.70905        35.750    28155453.980   113370421.00006        41.300    28155455.260   111929267.23406        40.750
E33  28293387.760   148682790.28546        40.250    28293391.220   111029332.11606        38.900                                                    28293389.340   113925862.03206        37.200    28293390.640   112477643.96506        39.950
E36  27614380.720   145114556.10247        42.100    27614385.560   108364781.60806        39.050    27614380.920   117787784.64906        37.300    27614385.340   111191690.35207        43.750    27614386.980   109778239.37307        44.150
C05                                                                                                  40593030.980   163451314.17506        39.000
C11  21917655.300   114131009.44308        50.450    21917648.740    92740782.97608        50.150    21917654.900    88253340.71009        55.150
C14  26322757.620   137069512.54006        40.800    26322749.260   111380179.01405        33.650    26322757.500   105990845.42307        44.350
C21  24391807.960   127014562.78707        47.950    24391799.680   103209699.14907        44.150
C22  26083078.760   135821449.39107        43.750    26083069.500   110366018.32406        37.200
C23  23735270.260   123595779.42308        50.000    23735258.440   100431631.05507        46.950
C25  24635456.340   128283305.56307        45.550    24635452.440   104240678.79207        44.150
C28  26146977.040   136154155.70206        40.000    26146973.720   110636407.06206        36.600
C34  22394468.680   116613910.59108        52.750    22394465.620    94758384.93008        49.650
C37  25939038.020   135071371.54106        41.750    25939037.460   109756552.36806        39.250
C42  25429883.900   132420103.33206        41.950    25429891.360   107602206.58706        40.250
C43  22539772.560   117370540.34608        53.250    22539769.040    95373171.23908        48.800
C44  26017952.200   135482457.93006        40.300    26017947.960   110090569.77705        35.900
C58  32472098.700   169090751.04807        46.850
> 2021 12 21 00 03  0.0000000  0 38
G01  24476749.120   128626184.93606        39.850    24476752.640   100228211.63106        37.350    24476752.460   100228211.61806        37.300    24476750.840    96052035.81806        41.550
G07  23822110.400   125186021.88007        43.150    23822110.260    97547550.70207        42.700    23822109.960    97547538.68807        42.050
G08  20928739.520   109981288.12308        52.350    20928742.160    85699726.83808        53.350    20928741.460    85699723.82608        50.900    20928739.640    82128896.20108        50.750
G10  21730764.220   114195962.88208        52.350    21730766.160    88983883.61508        51.700    21730766.240    88983887.60808        52.350    21730763.920    85276212.26108        49.100
G16  21475078.500   112852307.35808        50.650                                                    21475077.820    87936851.01208        49.250
G18  25219782.740   132530844.60816        39.550    25219783.100   103270792.85416        38.700    25219783.460   103270821.83416        36.550    25219785.880    98967856.79206        39.800
G21  22028199.240   115758989.64808        49.000                                                    22028198.400    90201808.81507        45.600
G23  22753192.580   119568843.98907        46.050    22753192.880    93170537.40308        48.400    22753192.760    93170537.40107        45.050    22753195.680    89288444.31707        45.400
G26  24103339.140   126663953.16007        42.100    24103341.960    98699216.08506        39.850    24103341.260    98699221.09107        42.750    24103340.160    94586745.73206        40.550
G30  25029137.060   131528998.73406        37.800    25029139.500   102490136.00406        41.700    25029138.840   102490136.99506        37.700    25029138.000    98219710.65806        39.150
R04  22943465.660   122861234.60806        40.500    22943468.280    95558744.56606        40.550    22943468.240    95558739.54906        39.950
R05  22023158.240   117726404.40507        43.550    22023163.060    91565003.52707        45.600    22023162.960    91564994.53107        46.350
R10  21812016.000   116270333.79807        46.300
R12  22597615.840   120712399.26707        43.800    22597620.080    93887433.41307        42.750    22597620.060    93887434.40907        42.950
R20  20849850.480   111493536.19806        36.700    20849855.440    86717220.42708        48.700    20849856.820    86717232.43008        48.750
R21  20201378.240   108101680.30708        50.150    20201381.200    84079102.84008        49.550    20201381.280    84079104.84008        50.050    20201372.080    80997917.06809        55.400
E02  27595275.020   145014149.27246        40.750    27595277.420   108289792.56906        37.400    27595275.040   117706289.39505        35.000    27595277.000   111114743.14407        42.350    27595278.160   109702266.23707        43.300
E11  22371013.280   117560479.00248        50.350    22371012.860    87788672.79907        45.700    22371009.680    95422452.12007        45.800    22371012.540    90078815.14408        51.800    22371013.760    88933759.36308        52.400
E12  22621021.220   118874280.47148        49.300    22621021.200    88769755.75107        45.550    22621017.600    96488848.70907        45.400    22621021.200    91085522.65608        51.850    22621022.200    89927654.09408        52.350
E24  24848548.540   130580033.21848        52.150    24848550.560    97511088.87007        47.350    24848547.900   105990292.41307        46.800    24848549.960   100054852.78108        53.150    24848551.380    98782964.21808        53.850
E25  24388707.000   128163525.87848        52.700    24388710.420    95706545.54308        48.200    24388705.320   104028828.41007        47.700    24388710.060    98203238.23109        54.400    24388711.260    96954879.77909        55.000
E31  28173666.080   148053673.18546        40.700    28173669.000   110559526.57116        36.050    28173665.260   120173384.77115        31.600    28173670.380   113443771.81106        40.800    28173671.980   112001685.58106        41.800
E33  28307987.140   148759506.31947        42.400    28307989.940   111086620.03306        36.200    28307987.620   120746319.55416        36.000    28307987.240   113984644.50407        42.700    28307989.560   112535679.16907        43.250
E36  27600585.380   145042060.89347        43.200    27600590.480   108310645.63006        39.450    27600585.600   117728941.15006        36.950    27600589.700   111136142.08507        44.550    27600591.360   109723397.24207        45.300
C05  40592970.640                          34.950                                                    40592970.160   163451068.93706        38.250
C11  21918597.220   114135915.33208        50.000    21918590.880    92744769.39808        50.100    21918597.000    88257134.25109        54.700
C14  26304068.280   136972194.72905        35.000    26304061.000   111301100.48206        37.400    26304068.560   105915593.26706        39.700
C21  24385000.320   126979113.07708        48.000    24384991.960   103180893.37107        44.150
C22  26091351.860   135864529.32106        40.550    26091340.720   110401024.33506        36.950
C23  23739122.000   123615836.26208        49.850    23739110.120   100447928.87707        46.950
C25  24652438.680   128371737.28007        44.800    24652434.620   104312536.80407        43.050
C28  26132149.360   136076944.66206        39.000    26132146.160   110573666.80306        37.250
C34  22401556.800   116650820.48208        52.300    22401553.780    94788377.23808        49.650
C37  25927958.480   135013678.05506        40.750    25927958.020   109709671.69406        39.400
C42  25412331.700   132328705.55007        42.650    25412338.520   107527938.40306        40.350
C43  22532992.480   117335234.66708        53.150    22532988.900    95344482.48508        48.800
C44  26032978.820   135560705.89506        38.950    26032973.920   110154152.66005        35.350
C58  32459772.140   169026563.50907        46.600
> 2021 12 21 00 03 30.0000000  0 38
G01  24456266.200   128518547.11906        38.700    24456269.740   100144338.07006        41.100    24456269.180   100144338.05406        38.900    24456268.400    95971657.04006        40.300
G07  23823031.780   125190863.75407        43.250    23823031.640    97551323.58907        42.250    23823031.360    97551311.58506        41.550
G08  20920304.680   109936962.60008        53.050    20920307.260    85665187.45908        53.150    20920306.600    85665184.45008        50.250    20920304.740    82095795.96108        51.250
G10  21728563.460   114184397.76308        52.650    21728565.400    88974871.84208        51.750    21728565.480    88974875.83708        52.500    21728563.080    85267575.98108        49.600
G16  21489673.100   112929002.33608        51.650                                                    21489672.340    87996613.32807        47.800
G18  25239254.620   132633165.93906        37.300    25239255.020   103350523.71706        40.700    25239254.280   103350552.72916        36.250    25239257.060    99044265.65105        33.400
G21  22016110.800   115695464.15408        49.300                                                    22016109.840    90152308.45907        44.100
G23  22763495.200   119622984.35807        46.050    22763495.480    93212724.70608        48.250    22763495.440    93212724.69807        44.200    22763498.560    89328873.81007        45.850
G26  24124223.960   126773702.99406        40.900    24124226.640    98784735.45907        42.450    24124225.880    98784740.45906        40.900    24124225.160    94668701.74106        40.150
G30  25022760.920   131495491.32406        39.950    25022763.180   102464026.34706        40.800    25022762.540   102464027.34606        37.900    25022761.860    98194688.90506        39.950
R04  22951139.240   122902327.30106        40.500    22951141.360    95590705.59106        39.850    22951141.040    95590700.58006        40.150
R05  22011854.940   117665982.01007        43.950    22011859.800    91518008.34307        45.450    22011859.780    91517999.34107        46.050
R10  21834840.940   116392003.25507        45.750
R12  22579094.320   120613460.84507        42.800    22579098.480    93810481.31507        42.650    22579098.620    93810482.31607        43.800
R20  20862749.780   111562514.41305        35.600    20862754.600    86770870.14608        48.250    20862755.900    86770882.14808        48.200
R21  20195134.760   108068270.22208        49.450    20195137.720    84053117.22108        49.550    20195137.800    84053119.22008        50.000    20195128.620    80972883.71309        55.850
E02  27579801.320   144932834.42246        41.950    27579803.860   108229070.43906        38.200    27579801.180   117640287.08305        35.250    27579803.280   111052436.95207        42.900    27579804.400   109640752.08907        43.700
E11  22365313.020   117530524.00948        50.950    22365312.620    87766303.81707        46.250    22365309.480    95398137.99807        46.050    22365312.260    90055862.61908        51.950    22365313.520    88911098.61008        52.700
E12  22629450.780   118918578.16148        49.550    22629450.920    88802835.18907        46.150    22629447.340    96524804.62107        45.650    22629450.740    91119465.03908        52.050    22629451.760    89961165.00308        52.700
E24  24861104.100   130646013.19948        52.450    24861106.320    97560359.63808        48.050    24861103.580   106043847.59207        46.800    24861105.540   100105408.87008        53.600    24861107.000    98832877.64309        54.400
E25  24384362.100   128140693.22248        53.000    24384365.520    95689495.17708        48.750    24384360.440   104010295.40307        47.850    24384365.140    98185743.07309        54.600    24384366.340    96937607.01309        55.300
E31  28191886.000   148149423.94346        37.350    28191890.340   110631028.63905        31.950    28191885.660   120251104.46216        36.150    28191891.120   113517139.14007        42.650    28191893.080   112074120.26307        42.400
E33  28322577.860   148836181.05746        38.200    28322579.160   111143884.16715        32.300    28322580.540   120808555.45305        35.800    28322579.140   114043395.20907        44.400    28322580.560   112593683.04307        43.950
E36  27586810.660   144969673.78647        42.800    27586815.900   108256590.31506        39.600    27586810.780   117670185.36006        36.650    27586814.980   111080676.63707        44.950    27586816.320   109668636.85807        45.750
C05  40592909.960   211377934.09815        35.700                                                    40592909.460   163450824.61006        38.950
C11  21919578.640   114141026.67708        50.350    21919572.500    92748922.77808        50.300    21919578.580    88261086.65709        54.900
C14  26285362.440   136874788.37306        39.350    26285354.800   111221949.90005        31.850    26285361.680   105840272.50806        40.000
C21  24378279.160   126944114.37707        47.350    24378270.920   103152454.06007        44.500
C22  26099709.740   135908052.84407        43.600    26099699.920   110436390.74406        39.350
C23  23743067.140   123636379.49208        50.000    23743055.280   100464621.91607        47.050
C25  24669455.060   128460346.95007        43.850    24669451.060   104384539.43407        42.550
C28  26117330.000   135999776.47506        40.850    26117326.840   110510961.35606        36.850
C34  22408680.120   116687913.89508        52.550    22408677.200    94818518.66408        49.850
C37  25916953.420   134956372.33006        41.550    25916952.920   109663106.10506        39.750
C42  25394799.220   132237406.30907        44.600    25394805.440   107453750.27906        41.450
C43  22526250.160   117300125.51708        53.250    22526246.540    95315953.42108        48.900
C44  26048008.020   135638965.62107        42.050    26048003.060   110217745.08306        37.550
C58  32447468.400   168962494.63007        46.550
> 2021 12 21 00 04  0.0000000  0 38
G01  24435810.020   128411047.72006        39.500    24435813.700   100060572.37606        41.650    24435813.480   100060572.38106        38.800    24435812.020    95891381.50506        38.500
G07  23824052.760   125196228.81707        42.900    23824052.580    97555504.16107        42.550    23824052.200    97555492.15106        41.350
G08  20911920.720   109892904.55608        52.700    20911923.300    85630856.52008        53.350    20911922.660    85630853.50808        50.750    20911920.740    82062895.47608        50.500
G10  21726473.560   114173415.38508        52.650    21726475.520    88966314.14708        51.900    21726475.620    88966318.14608        52.550    21726473.160    85259374.86008        48.750
G16  21504345.880   113006108.04208        51.750                                                    21504345.060    88056695.69608        48.100
G18  25258721.380   132735469.95806        40.200    25258721.940   103430241.06306        38.400    25258721.460   103430270.01505        35.350    25258725.240    99120661.44916        38.500
G21  22004084.820   115632267.65508        49.400                                                    22004083.700    90103064.45407        44.700
G23  22773896.760   119677645.64907        45.650    22773897.180    93255317.91507        47.650    22773897.000    93255317.91907        44.150    22773900.040    89369692.30407        44.700
G26  24145127.660   126883553.15506        41.950    24145130.840    98870332.92507        42.350    24145130.640    98870337.93106        41.700    24145127.900    94750732.67406        37.600
G30  25016481.760   131462493.79206        40.200    25016484.060   102438313.98206        41.250    25016483.340   102438314.96906        39.350    25016482.780    98170047.91706        39.000
R04  22958951.160   122944159.04406        40.300    22958953.500    95623241.41606        41.200    22958953.280    95623236.42006        41.200
R05  22000674.420   117606214.81207        43.900    22000679.040    91471522.75707        45.000    22000679.080    91471513.75907        45.450
R10  21857726.700   116513996.77307        46.000
R12  22560666.340   120515021.32007        43.800    22560670.440    93733917.23407        42.550    22560670.460    93733918.24307        42.450
R20  20875682.360   111631670.81306        37.100    20875687.060    86824658.45908        48.000    20875688.340    86824670.46608        48.100
R21  20188953.000   108035191.04708        49.700    20188956.100    84027388.97608        49.250    20188956.160    84027390.98108        49.600    20188946.980    80948098.29809        55.450
E02  27564357.940   144851679.29046        41.250    27564360.600   108168467.57506        36.750    27564357.680   117574414.40505        35.350    27564360.020   110990253.15607        42.750    27564361.040   109579358.76107        43.300
E11  22359658.500   117500809.29348        51.000    22359658.060    87744114.27807        45.450    22359654.940    95374018.93007        46.000    22359657.680    90033094.21908        51.750    22359658.980    88888619.64008        52.250
E12  22637910.720   118963035.74048        49.550    22637910.920    88836034.02807        45.300    22637907.360    96560890.32507        45.700    22637910.700    91153529.93808        51.750    22637911.760    89994796.87308        52.200
E24  24873718.720   130712303.47248        52.200    24873721.040    97609862.10207        47.150    24873718.280   106097654.62107        46.600    24873720.300   100156202.70008        53.350    24873721.620    98883025.79208        53.900
E25  24380094.520   128118266.92748        53.000    24380097.940    95672748.26308        48.050    24380092.900   103992092.24408        48.000    24380097.560    98168559.28509        54.350    24380098.760    96920641.66509        54.850
E31  28210112.020   148245202.28046        39.350    28210115.980   110702554.47216        36.000    28210111.880   120328846.58005        32.700    28210116.820   113590527.70106        36.850    28210118.900   112146575.94906        38.200
E33  28337161.620   148912821.52246        41.600    28337163.840   111201114.62716        36.950    28337164.460   120870782.56115        30.800    28337164.300   114102119.62806        38.900    28337164.440   112651661.01106        40.200
E36  27573057.880   144897402.47947        43.100    27573063.100   108202621.49806        38.650    27573057.960   117611523.58906        36.750    27573062.820   111025299.94807        45.000    27573063.480   109613964.10907        45.400
C05  40592850.940   211377626.73115        35.250                                                    40592850.440   163450586.95506        38.800
C11  21920601.140   114146350.67608        50.700    21920594.920    92753248.96708        50.100    21920601.040    88265203.51009        54.750
C14  26266641.300   136777303.07005        34.500    26266633.780   111142735.14606        37.600    26266640.940   105764890.84506        41.600
C21  24371646.200   126909575.56307        46.650    24371638.260   103124388.46407        44.400
C22  26108155.560   135952026.07907        43.300    26108145.180   110472122.62706        38.050
C23  23747106.940   123657415.65108        49.700    23747095.020   100481715.52207        46.950
C25  24686506.700   128549139.58207        43.700    24686502.440   104456690.75506        41.250
C28  26102520.260   135922658.68606        41.100    26102517.140   110448296.86106        36.600
C34  22415840.060   116725197.93308        52.550    22415837.240    94848814.99308        49.700
C37  25906024.620   134899463.48706        41.700    25906024.280   109616863.02106        39.500
C42  25377287.700   132146215.57807        43.200    25377293.700   107379650.36206        40.900
C43  22519547.020   117265220.43008        53.100    22519543.360    95287590.18008        48.850
C44  26063040.920   135717244.37406        40.000    26063036.320   110281352.96005        35.350
C58  32435188.920   168898552.05907        46.850
> 2021 12 21 00 04 30.0000000  0 38
G01  24415378.520   128303679.77006        38.600    24415382.180    99976909.03706        41.100    24415382.120    99976909.01906        37.750    24415380.460    95811204.16406        39.800
G07  23825171.400   125202107.84007        42.400    23825171.260    97560085.19807        42.300    23825171.040    97560073.18207        42.250
G08  20903586.240   109849106.58108        52.700    20903588.820    85596728.23008        53.150    20903588.160    85596725.21808        50.800    20903586.260    82030189.19808        50.350
G10  21724493.120   114163007.91808        52.550    21724495.060    88958204.44508        51.600    21724495.160    88958208.43808        52.600    21724492.600    85251603.05708        48.600
G16  21519095.060   113083615.21708        51.350                                                    21519094.240    88117090.88508        48.550
G18  25278184.440   132837746.59606        38.250    25278184.800   103509937.25206        40.500    25278184.840   103509966.27905        34.700    25278188.240    99197036.84606        37.300
G21  21992120.080   115569392.43208        49.150                                                    21992119.120    90054070.78207        45.250
G23  22784395.540   119732817.67607        45.550    22784396.020    93298309.10408        48.300    22784395.760    93298309.10007        44.150    22784398.660    89410892.18907        44.600
G26  24166048.720   126993493.16006        41.550    24166051.480    98956000.52507        42.200    24166050.900    98956005.50907        42.000    24166047.880    94832830.75806        38.300
G30  25010298.220   131429998.70006        39.700    25010300.340   102412993.13506        40.750    25010299.720   102412994.11406        39.100    25010298.960    98145782.05806        38.600
R04  22966897.680   122986719.35606        38.900    22966901.780    95656343.83506        41.550    22966901.440    95656338.82607        42.850
R05  21989615.500   117547097.79307        43.850    21989619.740    91425542.86407        45.200    21989619.920    91425533.86607        45.600
R10  21880670.860   116636302.25707        45.200
R12  22542330.820   120417076.32807        44.300    22542334.900    93657737.78707        42.700    22542334.880    93657738.78807        43.250
R20  20888646.560   111700995.78106        37.150    20888651.240    86878577.86808        48.400    20888652.460    86878589.87508        48.400
R21  20182831.500   108002433.89408        50.100    20182834.580    84001911.18608        49.600    20182834.660    84001913.19208        49.800    20182825.520    80923554.17009        55.350
E02  27548943.700   144770677.28346        41.500    27548946.280   108107979.09806        36.900    27548943.340   117508666.05705        35.200    27548945.600   110928186.69507        42.250    27548946.900   109518081.28807        43.100
E11  22354048.040   117471326.16948        50.950    22354047.560    87722097.67107        45.200    22354044.460    95350087.83307        45.850    22354047.180    90010503.26308        51.450    22354048.520    88866315.85508        52.150
E12  22646399.360   119007643.96248        49.600    22646399.480    88869345.34407        44.950    22646396.040    96597098.28707        45.400    22646399.300    91187710.25008        51.400    22646400.420    90028542.68908        52.050
E24  24886390.500   130778894.53048        52.550    24886392.860    97659589.18707        47.100    24886390.080   106151705.81107        46.350    24886392.260   100207227.00708        53.050    24886393.460    98933401.48508        53.750
E25  24375902.860   128096239.66048        52.850    24375906.300    95656299.32607        47.900    24375901.260   103974212.95907        47.800    24375905.920    98151681.24109        54.100    24375907.120    96903978.17209        54.850
E31  28228341.600   148340998.68746        39.450    28228346.740   110774090.60206        36.250    28228341.020   120406603.39705        34.550    28228345.960   113663930.15506        40.600    28228348.540   112219045.27906        41.650
E33  28351737.900   148989418.77746        41.700    28351740.840   111258313.82106        38.350    28351738.700   120932953.77015        34.250    28351739.020   114160811.17806        40.000    28351740.420   112709606.41906        41.750
E36  27559325.500   144825238.95246        41.350    27559330.660   108148733.15206        38.050    27559325.820   117552949.31506        37.050    27559330.700   110970005.83107        43.950    27559331.320   109559372.87407        44.700
C05  40592792.280   211377321.78415        35.550                                                    40592791.460   163450349.57606        38.200
C11  21921663.040   114151878.89608        50.950    21921656.540    92757741.08608        50.450    21921662.740    88269478.26809        54.600
C14  26247903.920   136679732.62606        39.750    26247896.220   111063451.31605        35.450    26247902.980   105689443.33705        33.750
C21  24365100.200   126875489.91707        46.700    24365092.560   103096691.08007        44.650
C22  26116684.260   135996439.63706        41.350    26116673.820   110508212.23506        39.850
C23  23751239.620   123678935.71208        49.750    23751227.620   100499202.31807        47.050
C25  24703591.520   128638104.59807        44.700    24703587.160   104528982.10107        42.050
C28  26087718.600   135845583.19906        40.550    26087715.600   110385666.76006        36.600
C34  22423035.080   116762664.00408        52.650    22423032.240    94879259.24608        50.050
C37  25895170.780   134842944.91506        41.550    25895170.580   109570937.06906        39.850
C42  25359795.660   132055127.63707        44.800    25359801.320   107305633.97806        41.850
C43  22512881.480   117230511.27908        53.150    22512877.880    95259386.14808        49.250
C44  26078075.480   135795533.82006        40.750    26078070.780   110344969.54205        35.650
C58  32422932.140   168834727.70307        46.650
> 2021 12 21 00 05  0.0000000  0 38
G01  24394973.120   128196447.80806        40.250    24394976.800    99893351.72307        42.050    24394976.960    99893351.72106        37.100    24394975.220    95731128.44506        38.650
G07  23826388.440   125208503.26607        42.950    23826388.220    97565068.62806        41.850    23826388.020    97565056.62406        41.000
G08  20895302.060   109805572.91108        52.800    20895304.640    85562805.88908        53.150    20895303.960    85562802.87808        50.500    20895302.120    81997680.29008        50.650
G10  21722622.760   114153179.02108        52.550    21722624.700    88950545.57008        51.600    21722624.780    88950549.56308        52.550    21722622.120    85244263.30808        48.650
G16  21533920.780   113161525.10708        51.250                                                    21533920.040    88177799.88207        47.800
G18  25297642.120   132939998.18006        37.500    25297642.840   103589613.68406        40.800    25297643.040   103589642.67606        37.250    25297645.440    99273393.55205        33.550
G21  21980216.940   115506841.69808        48.600                                                    21980216.020    90005329.97307        44.100
G23  22794991.860   119788501.73107        45.700    22794992.320    93341699.26507        47.300    22794992.140    93341699.26907        44.150    22794994.980    89452474.44907        44.750
G26  24186987.040   127103524.27507        42.250    24186989.840    99041739.02207        42.750    24186989.280    99041743.99907        42.000    24186986.420    94914996.76006        39.600
G30  25004210.820   131398010.03506        39.200    25004213.140   102388066.91506        40.750    25004212.700   102388067.89606        37.300    25004211.760    98121894.43006        39.050
R04  22974982.180   123030009.71406        40.700    22974986.120    95690014.12106        41.150    22974985.900    95690009.12106        41.950
R05  21978679.300   117488637.40207        43.900    21978683.320    91380073.70507        45.200    21978683.580    91380064.70507        45.600
R10  21903673.180   116758918.20307        43.700
R12  22524089.200   120319632.71807        43.800    22524093.140    93581948.30107        42.800    22524093.240    93581949.29307        44.550
R20  20901642.340   111770491.22306        36.150    20901647.280    86932629.86508        48.050    20901648.540    86932641.86608        48.200
R21  20176770.800   107970001.69308        49.000    20176773.920    83976686.14308        49.400    20176773.940    83976688.15008        49.850    20176764.840    80899253.52909        55.650
E02  27533559.600   144689833.42646        41.750    27533562.200   108047608.67406        37.150    27533559.480   117443045.99205        35.250    27533561.440   110866241.38607        42.850    27533562.740   109456923.42307        43.650
E11  22348482.200   117442077.57748        51.000    22348481.660    87700256.19607        45.600    22348478.640    95326347.10607        46.000    22348481.360    89988092.01308        51.650    22348482.680    88844189.49508        52.400
E12  22654917.120   119052405.02048        49.800    22654917.140    88902770.81507        45.250    22654913.640    96633430.31207        45.450    22654917.020    91222007.67908        51.650    22654918.180    90062404.13908        52.300
E24  24899119.980   130845788.40748        52.750    24899122.240    97709542.39107        47.150    24899119.460   106206002.78307        46.650    24899121.700   100258483.35008        53.200    24899122.960    98984006.26508        53.900
E25  24371787.900   128074615.52848        52.850    24371791.400    95640151.43108        48.100    24371786.360   103956660.89907        47.950    24371791.000    98135112.09909        54.300    24371792.200    96887619.65309        55.000
E31  28246575.240   148436814.73946        41.700    28246580.240   110845641.54705        33.200    28246574.620   120484376.12605        34.550    28246579.620   113737347.54106        40.300    28246581.940   112291529.40306        40.550
E33  28366305.920   149065975.80246        37.650    28366309.620   111315482.94405        33.850    28366306.640   120995094.10405        35.600    28366307.000   114219471.63107        43.150    28366309.120   112767521.18807        43.250
E36  27545614.340   144753186.67047        43.600    27545619.380   108094927.88606        39.050    27545614.900   117494465.34706        37.500    27545619.360   110914796.95107        43.800    27545620.360   109504865.81207        44.900
C05  40592734.000   211377017.48215        35.250                                                    40592733.180   163450115.08006        38.800
C11  21922764.600   114157614.18808        50.750    21922757.900    92762401.47408        50.050    21922764.200    88273913.16409        54.700
C14  26229151.740   136582082.60406        37.500    26229143.260   110984102.62605        35.000    26229150.180   105613934.07207        42.900
C21  24358642.020   126841862.07207        45.350    24358634.640   103069365.71007        44.250
C22  26125297.680   136041295.34707        42.200    26125289.080   110544661.14006        39.650
C23  23755465.680   123700941.92308        49.600    23755453.720   100517084.16007        46.750
C25  24720709.760   128727242.72207        45.850    24720705.400   104601414.09807        42.850
C28  26072925.700   135768553.46806        39.400    26072922.740   110323073.80506        37.350
C34  22430265.600   116800314.94508        52.700    22430262.740    94909853.71408        49.650
C37  25884392.940   134786821.47806        41.450    25884392.580   109525332.17706        39.600
C42  25342324.880   131964148.29507        44.700    25342330.080   107231705.81106        41.700
C43  22506254.220   117196001.39808        53.200    22506250.660    95231344.04408        48.950
C44  26093112.760   135873836.83906        39.750    26093108.220   110408597.14606        37.500
C58  32410698.640   168771024.90907        46.900
> 2021 12 21 00 05 30.0000000  0 38
G01  24374593.080   128089350.50306        38.500    24374596.840    99809899.32706        38.700    24374596.860    99809899.32505        34.450    24374594.480    95651153.14406        38.150
G07  23827703.000   125215411.40407        43.150    23827702.820    97570451.59507        42.300    23827702.560    97570439.58706        41.650
G08  20887067.800   109762301.67008        52.900    20887070.440    85529088.03908        53.350    20887069.740    85529085.02908        50.800    20887067.920    81965367.35408        51.050
G10  21720862.060   114143926.48808        52.650    21720863.960    88943335.80608        51.800    21720864.080    88943339.79908        52.550    21720861.440    85237353.95408        49.100
G16  21548822.200   113239832.78608        51.100                                                    21548821.420    88238818.85307        47.650
G18  25317094.620   133042220.52306        37.600    25317094.680   103669267.45205        34.950    25317094.580   103669296.46605        34.300    25317097.620    99349728.44416        36.800
G21  21968375.300   115444613.21508        49.900                                                    21968374.320    89956840.24607        44.400
G23  22805684.720   119844693.24507        46.350    22805685.260    93385484.88307        47.550    22805685.180    93385484.87507        43.700    22805687.900    89494435.65407        45.150
G26  24207941.880   127213641.51006        41.450    24207944.660    99127544.63906        41.750    24207944.340    99127549.64106        40.700    24207942.100    94997227.16006        39.150
G30  24998219.500   131366525.96406        39.550    24998221.840   102363533.86006        40.750    24998221.480   102363534.86206        38.100    24998220.360    98098383.60006        39.400
R04  22983201.600   123074025.89606        39.550    22983205.480    95724248.89406        40.550    22983205.380    95724243.90206        41.650
R05  21967866.080   117430834.62707        43.800    21967870.200    91335115.99107        45.350    21967870.360    91335106.99507        45.600
R10  21926732.600   116881838.45507        43.200
R12  22505941.820   120222692.03107        44.600    22505945.660    93506549.99207        42.600    22505945.720    93506550.99707        43.500
R20  20914669.400   111840153.12506        36.350    20914674.400    86986811.34508        48.100    20914675.640    86986823.34608        48.700
R21  20170770.220   107937891.35008        49.300    20170773.300    83951711.43608        49.550    20170773.380    83951713.44408        50.100    20170764.260    80875194.04609        56.100
E02  27518205.360   144609146.68146        41.950    27518208.000   107987355.59906        37.550    27518205.420   117377553.56205        35.150    27518207.420   110804416.51207        42.950    27518208.540   109395884.45307        44.100
E11  22342960.440   117413060.48048        51.150    22342959.880    87678587.59007        45.950    22342956.780    95302794.25407        45.850    22342959.560    89965858.13108        51.700    22342960.920    88822238.24408        52.850
E12  22663463.360   119097315.33048        49.900    22663463.280    88936307.74307        45.650    22663459.800    96669883.49507        45.300    22663463.200    91256419.48408        51.700    22663464.340    90096378.50308        52.750
E24  24911906.480   130912981.19848        53.000    24911908.500    97759718.83407        47.250    24911905.760   106260542.39007        46.350    24911907.980   100309968.73708        53.100    24911909.340    99034837.17309        54.200
E25  24367749.340   128053392.79448        53.000    24367752.840    95624303.28208        48.550    24367747.820   103939434.65607        47.850    24367752.440    98118850.52009        54.400    24367753.660    96871564.79209        55.450
E31  28264811.640   148532646.50146        40.550    28264816.360   110917204.13205        35.850                                                    28264813.780   113810777.00006        36.600    28264817.880   112364025.45506        39.200
E33  28380865.560   149142489.28746        41.350    28380867.920   111372624.74815        34.850    28380866.420   121057199.18005        30.350    28380867.420   114278098.77206        39.950    28380869.020   112825403.11606        40.350
E36  27531924.420   144681243.26647        43.300    27531929.000   108041203.92106        39.600    27531924.820   117436069.75906        36.650    27531928.660   110859671.49407        43.800    27531930.020   109450441.09807        45.350
C05                                                                                                  40592675.160   163449881.30006        38.500
C11  21923905.120   114163553.81208        50.350    21923898.560    92767227.92108        50.250    21923904.860    88278506.05709        54.700
C14  26210383.840   136484352.52906        40.100    26210376.200   110904689.04606        38.800    26210382.720   105538363.16106        39.700
C21  24352271.660   126808690.82707        45.100    24352264.360   103042411.36607        44.500
C22  26133996.140   136086589.31906        41.200    26133987.900   110581466.19306        36.400
C23  23759784.400   123723430.82108        49.700    23759772.480   100535358.22207        46.950
C25  24737860.400   128816548.87107        47.150    24737855.920   104673982.62607        43.300
C28  26058141.380   135691566.91806        41.000    26058138.240   110260515.92706        36.900
C34  22437531.040   116838147.80008        52.550    22437528.160    94940596.00808        49.700
C37  25873690.700   134731092.07206        41.100    25873690.460   109480047.45306        39.800
C42  25324873.960   131873277.38207        43.850    25324879.120   107157865.76306        41.100
C43  22499664.700   117161688.26708        53.200    22499661.240    95203461.82508        49.050
C44  26108151.860   135952150.81106        39.950    26108147.880   110472233.57205        35.300
C58  32398488.080   168707441.28507        47.100
> 2021 12 21 00 06  0.0000000  0 38
G01  24354239.940   127982393.85906        39.750    24354243.220    99726556.44506        39.000    24354243.460    99726556.44306        37.900    24354241.300    95571282.96806        39.450
G07  23829115.880   125222836.42207        43.050    23829115.820    97576237.31307        42.100    23829115.540    97576225.29906        40.150
G08  20878884.520   109719298.25308        53.000    20878887.160    85495578.88308        53.250    20878886.460    85495575.87208        50.750    20878884.640    81933254.41908        49.850
G10  21719211.980   114135255.31408        52.450    21719213.880    88936579.05408        51.600    21719214.000    88936583.04408        52.400    21719211.380    85230878.73307        47.900
G16  21563800.000   113318541.61508        50.900                                                    21563799.200    88300150.38507        47.950
G18  25336541.940   133144417.47005        34.650    25336541.980   103748901.45906        40.300    25336541.700   103748930.45505        31.600    25336545.320    99426044.21706        37.250
G21  21956595.760   115382711.84508        48.650                                                    21956594.780    89908605.42307        44.100
G23  22816474.780   119901394.94907        46.100    22816475.220    93429668.02707        47.650    22816474.920    93429668.01407        44.500    22816477.860    89536777.84707        43.700
G26  24228913.180   127323847.57006        41.550    24228916.260    99213419.47906        41.350    24228915.960    99213424.47006        41.050    24228913.780    95079523.92506        39.400
G30  24992325.440   131335551.89206        40.200    24992327.600   102339398.22606        41.100    24992327.020   102339399.21106        39.000    24992326.320    98075253.63006        38.500
R04  22991557.980   123118770.64306        38.850    22991560.120    95759050.44306        39.400    22991560.340    95759045.45406        38.850
R05  21957177.380   117373697.46707        43.800    21957181.660    91290676.00407        45.550    21957181.800    91290667.00407        45.400
R10  21949849.180   117005063.35207        42.550
R12  22487889.900   120126262.64307        44.150    22487893.940    93431549.36607        42.800    22487893.980    93431550.36607        43.000
R20  20927728.340   111909984.73406        36.950    20927733.320    87041124.80908        48.050    20927734.480    87041136.81808        48.400
R21  20164830.640   107906107.23908        49.900    20164833.660    83926990.46008        49.550    20164833.760    83926992.47008        50.000    20164824.640    80851379.00909        55.850
E02  27502882.280   144528623.43147        42.200    27502884.900   107927224.62406        36.550    27502882.100   117312193.76405        35.550    27502884.300   110742716.89907        42.850    27502885.520   109334969.15107        44.000
E11  22337483.540   117384279.16548        50.950    22337482.960    87657095.06007        44.650    22337479.840    95279432.81107        46.000    22337482.660    89943804.93408        51.700    22337484.000    88800465.39008        52.700
E12  22672038.620   119142378.50848        49.700    22672038.600    88969958.81707        44.350    22672035.040    96706460.74507        45.400    22672038.560    91290948.41808        51.600    22672039.580    90130468.51008        52.550
E24  24924750.400   130980476.35148        52.350    24924752.360    97810121.07007        45.900    24924749.820   106315327.41207        46.800    24924751.800   100361685.81208        52.750    24924753.240    99085896.83108        53.750
E25  24363788.240   128032576.97948        52.950    24363791.720    95608759.01207        47.350    24363786.720   103922538.70008        48.200    24363791.320    98102900.74709        54.200    24363792.540    96855817.76709        55.250
E31  28283051.380   148628496.91146        39.400    28283056.060   110988780.66805        32.450    28283052.340   120639959.24215        35.950    28283054.100   113884220.83106        41.150    28283058.000   112436535.65006        41.850
E33  28395418.040   149218963.42246        39.800    28395420.780   111429732.02906        37.100    28395417.900   121119263.38315        33.900    28395420.300   114336695.93106        38.650    28395421.300   112883255.38206        41.200
E36  27518255.320   144609413.50546        40.850    27518260.320   107987564.86906        37.450    27518255.540   117377766.40805        35.950    27518259.300   110804633.14607        43.650    27518261.200   109396102.39807        44.850
C05  40592619.020   211376419.43015        34.800                                                    40592618.200   163449651.86706        38.600
C11  21925085.660   114169702.09708        50.300    21925079.320    92772223.90808        50.100    21925085.560    88283260.31509        54.400
C14  26191602.400   136386549.16906        39.650    26191593.680   110825215.85405        32.100    26191599.200   105462735.31106        36.750
C21  24345990.380   126775982.23307        45.450    24345982.960   103015832.93407        44.350
C22  26142778.660   136132324.93607        43.300    26142767.560   110618630.19906        37.500
C23  23764196.500   123746406.03408        49.600    23764184.620   100554027.46607        46.700
C25  24755043.780   128906025.18107        46.600    24755039.120   104746689.44607        43.350
C28  26043366.040   135614628.26406        40.000    26043363.120   110197996.99806        36.000
C34  22444832.180   116876166.80208        52.350    22444829.280    94971489.54608        49.350
C37  25863065.360   134675762.90906        40.500    25863065.100   109435088.00306        39.800
C42  25307445.220   131782522.02107        43.850    25307450.180   107084119.60806        41.050
C43  22493113.880   117127576.60008        53.050    22493110.460    95175743.30608        48.850
C44  26123194.040   136030479.92806        40.050    26123189.840   110535882.49805        35.550
C58  32386301.220   168643981.53307        46.700
> 2021 12 21 00 06 30.0000000  0 38
G01  24333913.000   127875576.90006        39.250    24333916.480    99643322.48706        40.850    24333916.660    99643322.50206        38.050    24333914.540    95491517.12606        39.700
G07  23830626.700   125230775.57707        43.000    23830626.580    97582423.64806        41.500    23830626.220    97582411.63306        40.550
G08  20870752.060   109676561.85108        53.000    20870754.700    85462277.78208        53.350    20870754.000    85462274.77708        50.750    20870752.100    81901340.86208        50.050
G10  21717672.220   114127163.68108        52.550    21717674.100    88930273.88508        51.800    21717674.180    88930277.87608        52.350    21717671.580    85224836.28408        48.200
G16  21578853.420   113397647.36408        51.700                                                    21578852.620    88361791.23107        47.650
G18  25355983.680   133246585.08906        38.000    25355984.180   103828512.53806        40.350    25355983.960   103828541.55205        35.650    25355987.000    99502338.24805        34.950
G21  21944878.220   115321135.84608        49.700                                                    21944877.140    89860624.13107        45.050
G23  22827361.120   119958602.70207        46.550    22827361.420    93474245.48908        48.200    22827360.980    93474245.48307        42.950    22827364.160    89579497.89707        43.950
G26  24249900.780   127434138.07406        41.550    24249904.020    99299360.14507        42.950    24249903.980    99299365.13306        41.100    24249902.300    95161883.67006        39.800
G30  24986528.080   131305086.43106        39.950    24986530.280   102315658.88906        40.900    24986529.840   102315659.88806        38.300    24986528.860    98052503.41506        38.800
R04  23000049.300   123164240.26406        39.650    23000052.160    95794415.69806        41.750    23000052.140    95794410.70207        43.050
R05  21946613.180   117317226.64307        44.100    21946617.720    91246754.26707        45.800    21946617.760    91246745.26507        46.600
R10  21973021.820   117128586.14207        43.000
R12  22469934.360   120030346.54607        44.000    22469938.140    93356947.95107        42.800    22469938.340    93356948.95807        43.550
R20  20940818.380   111979982.68406        37.000    20940823.340    87095567.63308        48.350    20940824.580    87095579.64208        48.300
R21  20158951.560   107874646.62308        49.800    20158954.480    83902521.08808        49.600    20158954.600    83902523.08808        49.850    20158945.480    80827806.33209        55.450
E02  27487590.100   144448263.20846        41.850    27487592.900   107867215.37206        36.950    27487589.940   117246966.31406        36.000    27487592.260   110681142.17007        43.600    27487593.460   109274177.16607        43.850
E11  22332051.040   117355731.10448        51.100    22332050.460    87635776.70207        45.000    22332047.260    95256260.68707        45.950    22332050.200    89921930.44308        52.050    22332051.480    88778868.96308        52.250
E12  22680642.380   119187591.41748        49.750    22680642.380    89003721.68607        44.750    22680638.780    96743159.52607        45.500    22680642.460    91325592.05808        52.100    22680643.300    90164671.76208        52.200
E24  24937651.060   131048270.47848        51.900    24937653.240    97860746.54107        46.450    24937650.680   106370355.09607        46.450    24937652.720   100413631.94408        53.250    24937654.000    99137182.63108        53.550
E25  24359904.340   128012166.83648        53.000    24359907.800    95593517.65207        47.650    24359902.880   103905972.02108        48.300    24359907.400    98087261.78809        54.750    24359908.620    96840377.60909        54.900
E31  28301293.500   148724362.64746        36.200    28301298.380   111060372.70115        33.900                                                    28301296.900   113957676.25606        38.300    28301300.660   112509057.34306        38.750
E33  28409962.020   149295395.66346        39.700    28409966.080   111486807.89905        35.500    28409962.360   121181302.45105        35.250    28409964.860   114395260.80907        43.200    28409966.220   112941075.76307        43.300
E36  27504607.940   144537695.57747        42.900    27504612.880   107934009.25606        37.700    27504607.380   117319553.78405        35.500    27504612.040   110749680.45007        44.400    27504613.660   109341848.24507        44.600
C05  40592562.840   211376126.18916        36.600                                                    40592561.920   163449425.08006        39.700
C11  21926306.020   114176056.75708        50.800    21926299.720    92777387.59308        50.250    21926305.840    88288174.12809        54.800
C14  26172806.480   136288672.53006        40.100    26172797.540   110745683.05606        37.000    26172803.980   105387050.99107        43.850
C21  24339798.140   126743735.51307        46.500    24339790.360   102989629.83007        44.500
C22  26151646.720   136178498.59907        43.650    26151636.040   110656150.08606        40.500
C23  23768701.460   123769864.51708        49.850    23768689.680   100573089.38807        46.800
C25  24772258.540   128995667.10207        46.000    24772253.860   104819530.85907        43.150
C28  26028599.440   135537735.48906        41.600    26028596.420   110135515.35405        35.600
C34  22452168.560   116914369.44008        52.450    22452165.620    95002532.32108        49.600
C37  25852516.720   134620833.41706        41.800    25852516.540   109390453.29506        40.050
C42  25290038.760   131691882.66607        44.650    25290043.460   107010467.69606        41.100
C43  22486601.420   117093664.40508        53.300    22486598.000    95148186.87208        49.150
C44  26138238.480   136108822.08006        39.600    26138234.780   110599541.80506        36.900
C58  32374137.880   168580643.69507        47.000
> 2021 12 21 00 07  0.0000000  0 38
G01  24313613.200   127768901.50906        40.150    24313616.840    99560198.84706        41.050    24313616.840    99560198.84506        39.600    24313614.840    95411856.92906        40.100
G07  23832235.100   125239227.98407        42.200    23832235.040    97589009.92806        41.900    23832234.560    97588997.91206        40.550
G08  20862670.640   109634093.79108        52.750    20862673.280    85429185.79408        53.700    20862672.580    85429182.78008        51.100    20862670.640    81869627.70108        50.200
G10  21716242.880   114119652.38908        52.350    21716244.740    88924420.93008        52.150    21716244.800    88924424.92508        52.300    21716242.260    85219227.19408        48.300
G16  21593982.000   113477148.42808        51.200                                                    21593981.140    88423740.11207        47.800
G18  25375419.700   133348722.87306        37.500    25375420.320   103908100.41506        37.800    25375420.220   103908129.40506        36.350    25375423.280    99578609.93206        37.100
G21  21933222.760   115259885.76508        48.850                                                    21933221.680    89812896.80707        45.750
G23  22838343.480   120016314.90207        45.450    22838343.640    93519216.04207        47.950    22838343.380    93519216.03807        44.500    22838346.400    89622594.67407        44.400
G26  24270904.140   127544511.35006        40.800    24270907.600    99385365.24407        42.550    24270907.920    99385370.23806        40.300    24270905.920    95244305.24806        38.650
G30  24980827.580   131275130.62606        39.150    24980829.840   102292316.71606        41.350    24980829.280   102292317.71606        38.600    24980828.500    98030133.82306        38.850
R04  23008675.620   123210432.95106        39.000    23008678.940    95830343.29606        40.300    23008678.740    95830338.30006        40.800
R05  21936174.700   117261426.31907        44.100    21936179.060    91203354.03207        45.250    21936179.240    91203345.03407        45.850
R10  21996249.700   117252403.36807        43.900
R12  22452075.560   119934947.81007        45.600    22452079.360    93282748.93407        42.650    22452079.400    93282749.93007        42.550
R20  20953939.440   112050146.19305        35.950    20953944.220    87150139.23907        47.950    20953945.580    87150151.24207        47.950
R21  20153132.860   107843509.64808        49.850    20153135.800    83878303.45008        49.350    20153135.920    83878305.45708        49.550    20153126.760    80804476.16609        55.650
E02  27472329.660   144368068.15346        41.850    27472332.240   107807329.42706        36.950    27472329.400   117181872.93005        35.300    27472331.640   110619693.99407        43.100    27472332.860   109213510.10607        43.800
E11  22326662.940   117327416.42648        50.850    22326662.400    87614632.62507        45.250    22326659.200    95233277.99607        45.850    22326662.060    89900234.78108        52.000    22326663.380    88757449.09508        52.450
E12  22689274.540   119232953.47448        49.600    22689274.460    89037595.94007        44.750    22689270.760    96779979.36707        45.000    22689274.680    91360349.98808        51.950    22689275.440    90198987.85008        52.300
E24  24950608.540   131116362.72448        52.200    24950611.000    97911594.61307        46.650    24950608.160   106425624.76707        46.100    24950610.340   100465806.50308        53.100    24950611.520    99188693.95208        53.650
E25  24356097.840   127992163.58148        52.850    24356101.320    95578580.14407        47.800    24356096.380   103889735.61007        47.950    24356100.880    98071934.61409        54.600    24356102.120    96825245.27009        55.100
E31  28319538.520   148820242.36146        41.650    28319544.180   111131971.09305        35.750    28319539.140   120795597.70915        34.300    28319542.420   114031142.56906        40.050    28319545.920   112581589.72006        41.350
E33  28424498.740   149371785.82346        39.950    28424502.800   111543852.56305        31.250    28424499.260   121243304.47315        31.850    28424501.120   114453793.48507        42.000    28424502.860   112998864.38906        41.550
E36  27490981.820   144466090.04346        41.200    27490986.720   107880537.60506        38.500    27490981.320   117261432.39506        37.000    27490986.200   110694813.88207        44.500    27490987.660   109287679.13807        45.200
C05  40592507.280   211375837.66215        35.900                                                    40592506.280   163449201.21406        39.250
C11  21927566.100   114182617.81908        50.800    21927559.720    92782718.97308        50.350    21927565.760    88293247.54609        54.800
C14  26153996.800   136190725.36306        38.750    26153988.300   110666093.04506        36.750    26153995.120   105311312.09506        40.250
C21  24333694.800   126711952.44307        47.500    24333686.920   102963803.48907        44.750
C22  26160597.820   136225109.51306        41.050    26160589.000   110694025.23606        38.850
C23  23773299.120   123793805.64808        49.850    23773287.300   100592543.51007        47.000
C25  24789504.780   129085472.64607        46.300    24789500.100   104892505.20907        43.150
C28  26013842.080   135460889.19707        42.100    26013838.780   110073071.43606        36.150
C34  22459540.260   116952755.80108        52.650    22459537.240    95033724.37308        49.700
C37  25842045.120   134566305.57906        41.650    25842044.980   109346144.98406        40.050
C42  25272655.320   131601362.19907        44.300    25272659.500   106936912.40106        41.500
C43  22480127.340   117059952.16108        53.300    22480123.900    95120792.90808        49.300
C44  26153286.120   136187177.37206        41.150    26153282.140   110663211.82905        35.000
C58  32361997.960   168517428.34107        47.150
> 2021 12 21 00 07 30.0000000  0 38
G01  24293340.880   127662368.59706        40.800    24293344.440    99477186.22306        41.650    24293344.360    99477186.21506        38.450    24293342.520    95332303.17506        40.950
G07  23833940.980   125248192.37607        43.000    23833940.920    97595995.16206        41.200    23833940.540    97595983.15206        41.600
G08  20854640.320   109591894.18308        52.850    20854642.960    85396302.98608        53.400    20854642.260    85396299.97508        50.750    20854640.320    81838115.01208        50.700
G10  21714923.960   114112721.41508        52.700    21714925.800    88919020.17508        51.650    21714925.880    88919024.17008        52.750    21714923.360    85214051.47408        48.750
G16  21609185.380   113557042.96508        50.800                                                    21609184.520    88485995.58307        47.900
G18  25394849.940   133450829.07406        39.000    25394850.680   103987663.71306        38.900    25394850.440   103987692.71905        35.650    25394853.640    99654858.05105        35.700
G21  21921629.280   115198961.52408        50.050                                                    21921628.020    89765423.39107        44.700
G23  22849421.400   120074529.32307        45.600    22849421.520    93564577.92107        47.600    22849421.280    93564577.92307        44.550    22849424.200    89666066.48807        44.600
G26  24291922.740   127654964.98006        41.250    24291925.840    99471432.99706        40.700    24291925.880    99471438.00807        42.000    24291924.700    95326786.82606        40.750
G30  24975224.200   131245684.96506        39.850    24975226.560   102269372.06606        41.600    24975226.140   102269373.05306        38.800    24975225.220    98008145.19006        39.400
R04  23017436.260   123257346.87606        40.050    23017439.460    95866831.92606        40.500    23017439.400    95866826.92206        40.850
R05  21925862.140   117206299.29007        44.400    21925866.540    91160477.47607        45.700    21925866.660    91160468.48407        45.900
R10  22019531.800   117376510.32907        42.750
R12  22434314.140   119840069.82107        45.250    22434318.060    93208954.94607        42.950    22434318.040    93208955.94707        43.150
R20  20967090.760   112120473.23505        35.650    20967095.760    87204838.04308        48.300    20967097.080    87204850.04608        48.250
R21  20147374.420   107812695.52708        49.750    20147377.420    83854336.91308        49.700    20147377.540    83854338.91908        50.050    20147368.360    80781387.90709        55.850
E02  27457100.840   144288039.59146        41.700    27457103.260   107747567.88406        37.800    27457100.440   117116914.70105        35.700    27457102.620   110558373.44307        42.650    27457103.940   109152969.05207        43.900
E11  22321319.120   117299334.42648        51.050    22321318.580    87593662.31707        45.700    22321315.380    95210484.17307        45.650    22321318.220    89878717.41808        51.600    22321319.560    88736205.25608        52.700
E12  22697934.860   119278463.39248        49.850    22697934.580    89071580.61707        45.050    22697930.940    96816919.24007        44.850    22697934.940    91395221.22608        51.400    22697935.700    90233415.81208        52.400
E24  24963622.640   131184751.51148        52.550    24963624.860    97962664.17207        47.050    24963622.080   106481135.15107        45.600    24963624.280   100518208.31008        52.950    24963625.520    99240429.63409        54.050
E25  24352368.900   127972567.79848        53.000    24352372.400    95563946.93308        48.200    24352367.480   103873829.93807        47.700    24352371.920    98056919.66009        54.150    24352373.180    96810421.18309        55.250
E31  28337786.300   148916072.55256        36.000    28337792.340   111203578.76505        32.250    28337786.280   120873432.11605        34.100    28337790.820   114104618.21706        41.100    28337793.720   112654131.36006        41.550
E33  28439027.260   149448133.31646        36.750    28439030.180   111600866.29716        36.200    28439028.740   121305274.87205        34.300    28439029.360   114512293.53206        37.700    28439030.980   113056620.79606        40.050
E36  27477376.960   144394596.82547        42.000    27477382.280   107827149.82206        39.200    27477377.100   117203402.20006        37.100    27477381.240   110640033.36307        43.600    27477382.940   109233594.98507        45.000
C05  40592452.400   211375551.77016        36.300                                                    40592451.420   163448980.13806        39.250
C11  21928865.620   114189384.79408        50.550    21928859.220    92788217.69208        50.250    21928865.280    88298480.20009        54.400
C14  26135173.820   136092709.39106        39.600    26135165.480   110586447.04305        34.550    26135171.760   105235519.94206        40.150
C21  24327680.760   126680634.11307        47.950    24327672.740   102938354.79107        44.850
C22  26169631.900   136272155.99907        43.650    26169622.280   110732254.35306        37.500
C23  23777989.260   123818228.16208        49.700    23777977.400   100612388.79007        46.800
C25  24806782.140   129175439.05707        46.550    24806777.120   104965610.25607        43.000
C28  25999093.520   135384089.13706        41.200    25999090.280   110010665.13406        36.200
C34  22466947.140   116991325.22008        52.650    22466944.060    95065065.17508        49.600
C37  25831651.000   134512180.67607        42.300    25831650.880   109302164.05606        40.100
C42  25255294.800   131510962.80907        43.900    25255299.060   106863455.49406        41.100
C43  22473691.640   117026439.70208        53.350    22473688.140    95093561.30008        49.100
C44  26168335.980   136265545.32806        39.800    26168331.560   110726892.29005        35.050
C58  32349881.640   168454335.33307        46.850
> 2021 12 21 00 08  0.0000000  0 38
G01  24273095.200   127555975.52506        41.850    24273098.480    99394282.54106        41.900    24273098.260    99394282.52906        38.800    24273096.560    95252853.82806        39.150
G07  23835743.460   125257663.97307        42.850    23835743.320    97603375.60506        41.500    23835742.980    97603363.59706        41.550
G08  20846660.580   109549960.40008        52.900    20846663.220    85363627.31408        53.300    20846662.500    85363624.30208        50.650    20846660.580    81806800.83208        50.300
G10  21713714.780   114106367.13308        52.700    21713716.640    88914068.80108        51.650    21713716.760    88914072.79208        52.750    21713714.160    85209306.41408        48.300
G16  21624462.560   113637325.40108        51.100                                                    21624461.880    88548553.31507        47.400
G18  25414273.120   133552898.73906        36.250    25414273.980   104067198.49706        38.900    25414274.180   104067227.52805        35.700    25414276.720    99731078.93105        34.250
G21  21910097.120   115138359.38608        49.400                                                    21910096.040    89718200.96007        45.100
G23  22860593.700   120133240.00107        46.050    22860593.840    93610326.50907        47.500    22860593.620    93610326.50507        43.800    22860596.440    89709908.88307        44.400
G26  24312955.180   127765492.91106        39.850    24312958.680    99557558.60106        41.950    24312958.600    99557563.61306        40.050    24312957.780    95409323.90906        40.000
G30  24969717.360   131216746.20806        40.000    24969719.720   102246822.37206        41.000    24969719.360   102246823.35706        37.550    24969718.320    97986535.08006        38.800
R04  23026330.100   123304975.55506        40.100    23026333.600    95903876.45106        39.900    23026333.540    95903871.43206        40.100
R05  21915675.320   117151844.70907        44.700    21915679.780    91118123.93207        45.900    21915679.920    91118114.94407        46.350
R10  22042866.780   117500898.56507        42.900
R12  22416650.140   119745712.47207        43.850    22416654.080    93135565.88907        42.900    22416654.200    93135566.89607        43.700
R20  20980271.700   112190959.28706        36.250    20980277.120    87259660.50508        48.100    20980278.440    87259672.51208        48.000
R21  20141675.520   107782199.68308        49.750    20141678.580    83830617.92908        49.600    20141678.680    83830619.93108        50.150    20141669.500    80758538.13409        55.400
E02  27441903.160   144208175.47047        42.250    27441905.760   107687929.09006        37.250    27441902.960   117052089.91806        36.200    27441905.080   110497178.84507        43.700    27441906.240   109092552.35307        43.650
E11  22316018.740   117271480.79148        51.050    22316018.280    87572862.53707        45.300    22316014.980    95187875.70707        45.900    22316017.820    89857375.03508        52.400    22316019.160    88715134.17008        52.200
E12  22706622.380   119324116.29248        49.650    22706621.940    89105672.06807        44.600    22706618.280    96853975.16507        44.950    22706622.320    91430202.01308        52.200    22706623.180    90267951.93008        51.900
E24  24976692.080   131253431.69548        52.350    24976694.140    98013951.32107        46.650    24976691.480   106536882.06207        46.000    24976693.760   100570833.37808        53.800    24976694.920    99292385.73708        53.600
E25  24348716.880   127953376.43448        52.900    24348720.440    95549615.70707        47.850    24348715.480   103858252.52207        47.950    24348719.940    98042214.58109        55.000    24348721.180    96795903.03209        54.800
E31  28356035.600   149011971.63446        41.750    28356041.100   111275195.74615        34.150    28356035.320   120951275.32114        29.500    28356040.560   114178099.29206        38.750    28356042.420   112726678.38506        38.750
E33  28453547.160   149524433.68046        41.300    28453549.620   111657843.76306        37.300    28453548.800   121367206.91506        36.450    28453549.820   114570757.44807        43.500    28453550.620   113114341.51607        43.350
E36  27463792.800   144323212.21146        41.300    27463798.220   107773843.16806        38.650    27463792.940   117145460.17505        35.100    27463797.560   110585336.08307        45.500    27463798.680   109179593.01707        45.300
C05  40592397.520   211375265.60216        36.750                                                    40592396.440   163448758.83506        40.150
C11  21930203.920   114196353.65508        50.650    21930197.480    92793880.45408        50.250    21930203.580    88303868.96609        55.200
C14  26116337.580   135994623.20606        39.500    26116329.480   110506744.01906        38.550    26116335.840   105159673.55707        44.500
C21  24321755.780   126649777.99308        49.200    24321747.340   102913281.67607        44.700
C22  26178750.060   136319632.75907        42.350    26178739.420   110770833.13306        38.700
C23  23782770.880   123843127.22308        49.550    23782759.040   100632621.31307        46.750
C25  24824088.940   129265560.02607        45.200    24824084.060   105038840.89807        42.350
C28  25984353.080   135307331.59007        42.500    25984349.820   109948293.36505        35.600
C34  22474388.340   117030073.49108        52.550    22474385.320    95096551.31008        49.650
C37  25821333.860   134458456.36007        42.000    25821333.600   109258508.62606        40.000
C42  25237957.760   131420683.24307        45.450    25237961.460   106790095.94706        40.500
C43  22467293.580   116993123.28508        53.350    22467290.020    95066488.98508        49.150
C44  26183387.120   136343922.04206        40.300    26183383.320   110790579.70906        37.450
C58  32337788.040   168391361.00507        47.100
> 2021 12 21 00 08 30.0000000  0 38
G01  24252877.460   127449730.75206        40.300    24252880.540    99311494.40206        41.650    24252880.180    99311494.38406        39.700    24252879.060    95173515.21906        39.350
G07  23837643.560   125267649.05007        43.350    23837643.460    97611156.18706        41.700    23837643.040    97611144.18306        40.250
G08  20838732.960   109508300.40508        52.850    20838735.580    85331164.97808        53.350    20838734.840    85331161.96808        50.900    20838732.980    81775691.09508        50.750
G10  21712616.740   114100596.92308        52.800    21712618.600    88909572.53808        51.900    21712618.780    88909576.52808        52.750    21712616.120    85204997.49108        48.600
G16  21639814.540   113718000.74508        50.700                                                    21639813.940    88611417.21107        47.650
G18  25433690.500   133654938.15705        35.200    25433691.460   104146709.72306        40.550    25433691.840   104146738.69805        35.700    25433694.140    99807277.16806        37.500
G21  21898627.600   115078086.43908        49.750                                                    21898626.580    89671235.04107        45.450
G23  22871861.280   120192452.02007        45.900    22871861.540    93656465.74407        47.250    22871861.280    93656465.74207        44.100    22871864.140    89754125.64207        44.500
G26  24334002.860   127876100.08106        41.150    24334006.420    99643746.02406        39.150    24334006.220    99643751.02206        41.900    24334006.080    95491920.15106        41.100
G30  24964308.400   131188322.16006        39.350    24964310.780   102224673.74106        40.900    24964310.320   102224674.73406        39.050    24964309.400    97965309.30106        39.100
R04  23035359.520   123353324.58906        39.550    23035361.880    95941481.22406        37.650    23035361.660    95941476.23206        38.600
R05  21905616.160   117098072.61307        45.050    21905620.720    91076301.21607        46.100    21905620.800    91076292.21807        46.650
R10  22066255.120   117625571.56207        43.700
R12  22399085.840   119651886.88007        45.650    22399089.780    93062590.42107        43.500    22399089.860    93062591.42907        44.900
R20  20993483.880   112261609.64706        36.950    20993489.280    87314610.77708        48.550    20993490.500    87314622.78108        48.750
R21  20136037.460   107752029.36508        50.100    20136040.500    83807152.13108        49.900    20136040.660    83807154.13708        50.400    20136031.440    80735932.26209        55.400
E02  27426738.500   144128484.43847        42.400    27426741.020   107628419.54806        36.950    27426738.340   116987405.63105        35.800    27426740.420   110436116.90007        43.100    27426741.540   109032266.61707        43.350
E11  22310763.140   117243862.21348        51.050    22310762.600    87552238.28207        45.500    22310759.320    95165458.03807        45.700    22310762.160    89836212.75008        52.000    22310763.500    88694240.90408        52.250
E12  22715338.140   119369918.29648        49.400    22715337.780    89139874.84507        44.850    22715334.140    96891152.10307        45.000    22715338.080    91465297.04508        51.800    22715339.040    90302600.83608        51.850
E24  24989817.880   131322409.09648        52.050    24989820.040    98065460.41507        46.750    24989817.440   106592870.20007        46.100    24989819.640   100623686.18308        53.250    24989820.880    99344566.68708        53.450
E25  24345143.320   127934597.37948        52.750    24345146.880    95535592.37808        48.100    24345141.860   103843009.77807        47.800    24345146.380    98027825.42709        54.650    24345147.660    96781696.79209        54.800
E31  28374287.480   149107883.35746        36.850    28374293.600   111346818.02906        36.600    28374287.180   121029125.72015        35.200    28374291.420   114251590.12406        40.150    28374293.900   112799234.98306        41.050
E33  28468059.060   149600693.48646        38.900    28468061.780   111714791.02805        32.600    28468060.200   121429106.06505        31.300    28468062.140   114629190.23707        43.450    28468062.660   113172031.50007        42.800
E36  27450230.680   144251943.51446        41.200    27450236.180   107720623.07106        38.000    27450230.600   117087612.22806        36.400    27450235.800   110530727.64507        44.200    27450236.640   109125678.75307        44.600
C05  40592343.920   211374987.04816        36.900                                                    40592342.720   163448542.69606        39.750
C11  21931582.320   114203531.06708        50.800    21931575.820    92799712.69808        49.750    21931581.960    88309418.99209        54.850
C14  26097489.460   135896475.88106        38.950    26097481.280   110426991.30505        34.800    26097487.940   105083779.82906        39.700
C21  24315921.000   126619392.40808        49.350    24315912.140   102888590.92507        44.350
C22  26187950.300   136367545.55106        40.150    26187942.140   110809766.18606        37.950
C23  23787645.180   123868508.80308        49.950    23787633.220   100653245.92307        46.250
C25  24841426.280   129355840.08407        45.200    24841421.180   105112200.85306        41.850
C28  25969621.980   135230623.69906        41.400    25969618.620   109885961.94305        35.850
C34  22481865.140   117069007.32008        52.450    22481862.200    95128188.22308        49.150
C37  25811095.200   134405141.16907        42.450    25811094.880   109215185.66706        39.650
C42  25220645.240   131330532.97307        43.850    25220648.620   106716841.46406        40.650
C43  22460934.560   116960010.06408        53.600    22460930.940    95039581.77808        48.750
C44  26198442.060   136422314.13406        40.750    26198437.860   110854279.69205        35.050
C58  32325718.580   168328512.48207        46.950
> 2021 12 21 00 09  0.0000000  0 38
G01  24232687.460   127343631.25206        41.050    24232690.680    99228819.50606        41.600    24232690.460    99228819.50006        39.300    24232688.800    95094285.06306        38.900
G07  23839640.380   125278142.24907        43.950    23839640.240    97619332.70206        41.500    23839639.840    97619320.69806        40.550
G08  20830856.780   109466910.91008        52.850    20830859.420    85298913.43508        53.350    20830858.680    85298910.42208        51.100    20830856.860    81744783.35708        50.700
G10  21711629.100   114095406.73708        52.700    21711630.960    88905528.24108        51.850    21711631.120    88905532.23408        52.750    21711628.420    85201121.70108        48.600
G16  21655240.140   113799062.77808        51.100                                                    21655239.460    88674582.42407        47.550
G18  25453100.860   133756941.28305        35.850    25453102.160   104226192.65006        40.550    25453102.480   104226221.60305        35.350    25453104.900    99883448.29606        37.100
G21  21887219.980   115018138.99308        49.300                                                    21887218.760    89624522.74707        45.700
G23  22883223.080   120252159.11007        45.550    22883223.380    93702990.75807        47.150    22883223.080    93702990.74607        44.500    22883225.800    89798712.10207        44.250
G26  24355064.720   127986780.12406        39.700    24355068.000    99729990.21206        41.150    24355067.960    99729995.22006        38.600    24355067.880    95574570.83706        38.650
G30  24958996.660   131160409.12706        38.850    24958999.200   102202923.35806        41.150    24958998.720   102202924.34706        37.950    24958997.700    97944465.20006        39.100
R04  23044522.100   123402387.38706        39.600    23044523.860    95979641.22606        41.050    23044523.960    95979636.24006        41.200
R05  21895684.460   117044982.10807        44.450    21895688.900    91035008.60707        45.650    21895689.060    91034999.60707        46.050
R10  22089695.200   117750519.85107        42.900
R12  22381620.940   119558592.43407        44.500    22381624.840    92990028.09607        43.350    22381624.900    92990029.09307        43.400
R20  21006725.600   112332418.93005        35.850    21006731.200    87369684.64908        48.450    21006732.240    87369696.65608        48.950
R21  20130459.300   107722179.49608        49.650    20130462.380    83783935.56208        50.050    20130462.540    83783937.56608        50.550    20130453.280    80713566.49309        55.600
E02  27411606.360   144048964.08846        41.650    27411608.640   107569037.47606        37.350    27411606.180   116922859.91806        36.400    27411608.060   110375185.71407        43.550    27411609.320   108972109.97307        43.750
E11  22305551.360   117216474.12248        50.950    22305550.760    87531786.13607        45.550    22305547.500    95143227.44207        45.950    22305550.400    89815227.07208        52.150    22305551.700    88673521.99508        52.300
E12  22724081.240   119415864.15648        49.350    22724081.080    89174185.06407        45.000    22724077.480    96928445.81507        45.200    22724081.300    91500502.31208        51.950    22724082.260    90337358.57708        52.000
E24  25002999.380   131391678.17548        52.150    25003001.580    98117187.30107        46.850    25002998.860   106649095.09507        46.600    25003001.060   100676762.47708        53.350    25003002.340    99396968.28208        53.550
E25  24341647.580   127916227.20448        52.850    24341651.120    95521874.38308        48.050    24341646.140   103828098.92807        47.900    24341650.660    98013749.57409        54.750    24341651.940    96767799.87009        54.850
E31  28392539.840   149203802.02746        41.150    28392546.380   111418445.47305        32.250    28392540.340   121106981.57005        31.800    28392544.860   114325086.02106        41.950    28392546.700   112871796.61106        41.350
E33  28482561.940   149676908.24646        39.200    28482565.280   111771704.63405        34.500    28482564.700   121490974.77915        32.450    28482564.660   114687588.43706        38.750    28482565.520   113229687.39206        39.000
E36  27436690.020   144180786.72946        41.800    27436695.220   107667486.51706        37.650    27436689.900   117029855.10205        35.900    27436694.960   110476204.92007        44.700    27436695.960   109071849.11107        44.800
C05  40592290.700   211374709.94316        36.700                                                    40592289.540   163448328.42506        39.650
C11  21932999.880   114210912.66908        50.900    21932993.380    92805710.84108        50.100    21932999.540    88315126.90709        55.050
C14  26078629.000   135798265.42006        39.100    26078620.620   110347187.26306        37.700    26078627.600   105007837.28007        42.600
C21  24310175.980   126589474.49308        50.050    24310166.640   102864280.18307        44.500
C22  26197234.340   136415888.66107        42.800    26197224.640   110849048.92706        37.850
C23  23792611.100   123894367.65908        50.100    23792599.100   100674258.35007        46.400
C25  24858792.740   129446272.55607        46.850    24858787.960   105185684.66507        42.850
C28  25954899.960   135153961.47507        42.250    25954896.560   109823667.59406        36.350
C34  22489376.700   117108122.12408        52.700    22489373.840    95159972.20308        49.500
C37  25800934.660   134352232.43506        41.850    25800934.280   109172193.00406        40.000
C42  25203357.160   131240510.36207        45.250    25203361.200   106643690.75206        41.400
C43  22454613.720   116927095.90808        53.550    22454610.140    95012836.34108        49.050
C44  26213498.420   136500717.38706        38.550    26213493.580   110917988.79505        34.400
C58  32313672.580   168265785.76007        47.250
> 2021 12 21 00 09 30.0000000  0 38
G01  24212525.180   127237677.99506        41.350    24212528.440    99146258.56306        41.250    24212528.540    99146258.54106        38.750    24212526.700    95015164.15006        39.200
G07  23841733.780   125289142.27107        43.650    23841733.420    97627904.14506        41.250    23841733.100    97627892.13706        40.600
G08  20823032.240   109425792.77208        52.800    20823034.880    85266873.33208        53.700    20823034.140    85266870.32208        50.900    20823032.340    81714078.23108        50.700
G10  21710751.800   114090796.52108        52.850    21710753.640    88901935.86908        51.900    21710753.800    88901939.86408        52.900    21710751.020    85197678.97708        48.450
G16  21670739.020   113880509.61608        51.450                                                    21670738.160    88738047.49407        47.400
G18  25472504.260   133858906.55706        37.550    25472505.560   104305646.07106        39.950    25472505.800   104305675.08305        35.700    25472508.480    99959591.15206        36.000
G21  21875874.260   114958516.79608        49.900                                                    21875873.320    89578063.90707        45.750
G23  22894678.580   120312358.87607        45.650    22894679.000    93749899.64107        47.050    22894678.860    93749899.63707        43.900    22894681.120    89843666.44107        44.100
G26  24376139.680   128097530.60906        39.600    24376142.780    99816289.30506        39.350    24376142.080    99816294.28106        39.700    24376141.540    95657274.07006        39.450
G30  24953782.260   131133007.55106        40.150    24953784.780   102181571.48106        41.700    24953784.240   102181572.46406        39.550    24953783.380    97924002.93506        39.300
R04  23053817.880   123452161.87806        39.350    23053820.200    96018354.67907        42.250    23053820.120    96018349.66807        43.500
R05  21885880.680   116992575.90007        44.050    21885884.920    90994248.23507        45.400    21885885.220    90994239.23107        45.900
R10  22113186.180   117875739.93707        42.850
R12  22364256.200   119465832.84507        44.900    22364260.040    92917881.72907        43.200    22364260.180    92917882.72307        42.900
R20  21019996.680   112403385.80805        35.850    21020002.520    87424881.09508        48.100    21020003.540    87424893.10608        48.350
R21  20124940.900   107692649.31108        49.850    20124943.980    83760967.64408        49.750    20124944.180    83760969.64808        50.000    20124934.900    80691440.20809        55.800
E02  27396506.780   143969615.79147        42.350    27396509.220   107509783.83606        37.750    27396506.700   116858453.82405        35.600    27396508.680   110314386.33107        43.300    27396509.800   108912083.47907        44.200
E11  22300383.320   117189315.84948        50.950    22300382.680    87511505.57407        45.450    22300379.460    95121183.40007        45.850    22300382.320    89794417.44808        51.650    22300383.640    88652976.90008        52.500
E12  22732851.540   119461952.62548        49.550    22732851.540    89208601.72607        44.900    22732848.020    96965855.28807        45.050    22732851.680    91535816.80108        51.400    22732852.580    90372224.14908        52.200
E24  25016236.120   131461237.32248        51.700    25016238.340    98169130.77507        46.750    25016235.660   106705555.43107        46.150    25016237.740   100730060.99108        52.650    25016239.000    99449589.27308        53.550
E25  24338229.760   127898266.41248        52.950    24338233.280    95508462.06808        48.100    24338228.340   103813520.35907        47.800    24338232.820    97999987.36509        54.150    24338234.100    96754212.60409        55.050
E31  28410793.660   149299725.65046        36.550    28410800.740   111490081.70816        37.250    28410794.960   121184844.77415        33.650    28410797.960   114398585.93305        33.950    28410800.060   112944362.23106        38.100
E33  28497056.940   149753076.92446        41.450    28497059.780   111828583.74506        37.800    28497058.480   121552806.93416        36.500    28497058.480   114745951.55206        39.800    28497059.880   113287308.56206        41.700
E36  27423170.900   144109741.72147        42.400    27423175.360   107614433.36006        37.850    27423170.640   116972188.70606        36.300    27423175.540   110421767.80007        43.800    27423176.680   109018103.98007        44.800
C05  40592238.000   211374435.00216        36.450                                                    40592236.780   163448115.79706        39.300
C11  21934456.500   114218497.87708        50.750    21934450.040    92811874.45708        50.050    21934456.220    88320992.22409        54.500
C14  26059756.740   135699993.70006        39.250    26059748.320   110267333.53606        36.650    26059755.720   104931847.43606        40.800
C21  24304521.120   126560025.21108        50.150    24304511.020   102840350.25107        44.500
C22  26206600.660   136464660.43506        40.550    26206591.000   110888680.01006        40.550
C23  23797668.340   123920702.44408        49.600    23797656.400   100695657.50207        46.200
C25  24876188.220   129536854.73207        47.650    24876183.380   105259290.10907        42.600
C28  25940186.380   135077344.64107        43.150    25940183.320   109761410.16606        36.150
C34  22496922.940   117147417.28808        52.750    22496920.100    95191902.73408        49.400
C37  25790852.360   134299731.31107        42.050    25790851.960   109129531.54406        39.950
C42  25186093.920   131150617.61707        43.900    25186098.560   106570645.55706        41.100
C43  22448331.100   116894380.68908        53.600    22448327.540    94986252.54108        49.000
C44  26228556.820   136579131.31006        40.550    26228552.240   110981706.44206        37.000
C58  32301649.980   168203180.74207        47.250
> 2021 12 21 00 10  0.0000000  0 38
G01  24192391.500   127131875.23906        40.100    24192395.020    99063814.91507        42.100    24192395.220    99063814.91706        39.000    24192393.260    94936155.67906        40.100
G07  23843923.880   125300651.19307        43.750    23843923.460    97636872.12006        41.800    23843923.240    97636860.12806        40.750
G08  20815260.120   109384949.92208        53.050    20815262.760    85235047.74008        53.500    20815262.020    85235044.73308        50.900    20815260.180    81683578.74708        51.100
G10  21709985.480   114086769.34808        52.800    21709987.280    88898797.82708        51.550    21709987.440    88898801.81708        52.650    21709984.620    85194671.73008        48.850
G16  21686311.340   113962342.30308        50.800                                                    21686310.500    88801813.20607        47.550
G18  25491900.860   133960836.11506        38.150    25491902.040   104385071.65206        38.100    25491901.980   104385100.64106        37.350    25491905.240   100035707.40106        36.000
G21  21864590.940   114899222.82508        49.200                                                    21864590.180    89531860.83007        45.650
G23  22906228.160   120373052.24707        45.850    22906228.560    93797193.18507        47.350    22906228.360    93797193.17707        44.250    22906231.120    89888989.44007        44.850
G26  24397228.220   128208352.36306        38.900    24397231.280    99902643.87706        40.250    24397230.680    99902648.87506        39.100    24397229.840    95740030.60306        38.050
G30  24948665.900   131106120.88706        41.150    24948668.420   102160620.83406        41.150    24948667.940   102160621.82906        39.950    24948667.000    97903925.28706        39.550
R04  23063245.480   123502649.00506        37.500    23063248.500    96057622.39306        40.600    23063248.280    96057617.39007        42.000
R05  21876206.100   116940860.20107        43.300    21876210.320    90954024.92007        45.650    21876210.620    90954015.92007        45.650
R10  22136727.860   118001230.30407        44.050
R12  22346992.760   119373614.72207        44.800    22346996.660    92846156.52607        43.300    22346996.740    92846157.54107        44.100
R20  21033297.760   112474511.51305        35.800    21033303.400    87480201.07108        48.300    21033304.520    87480213.07808        48.300
R21  20119482.740   107663441.51608        50.000    20119485.820    83738250.46908        49.850    20119485.980    83738252.47908        50.050    20119476.720    80669555.56809        55.950
E02  27381440.960   143890444.19947        42.300    27381443.360   107450662.24206        37.950    27381440.560   116794191.15506        36.250    27381442.900   110253722.43807        44.000    27381443.960   108852190.73207        44.400
E11  22295259.460   117162389.89948        50.950    22295258.820    87491398.58907        45.900    22295255.540    95099327.92907        45.750    22295258.520    89773785.93208        52.550    22295259.820    88632607.64508        52.800
E12  22741649.420   119508185.66248        49.550    22741649.480    89243126.44207        45.300    22741645.920    97003382.10707        44.900    22741649.560    91571242.16208        52.050    22741650.440    90407199.19108        52.200
E24  25029528.260   131531088.22348        51.850    25029530.600    98221292.19907        47.050    25029527.720   106762252.58507        45.650    25029529.940   100783583.15108        53.350    25029531.200    99502431.06208        53.650
E25  24334890.540   127880718.77448        53.050    24334894.100    95495358.34808        48.550    24334889.100   103799277.13607        47.750    24334893.620    97986541.81309        55.050    24334894.900    96740937.96809        55.300
E31  28429049.020   149395655.92346        41.700    28429056.240   111561717.76506        37.050    28429047.840   121262710.02905        34.100    28429053.320   114472090.87307        43.600    28429055.320   113016932.73607        43.650
E33  28511543.120   149829202.20846        37.800    28511545.720   111885430.49905        35.400    28511543.920   121614596.85705        33.300    28511545.560   114804281.28807        44.900    28511546.440   113344896.80507        44.550
E36  27409673.380   144038811.61547        42.400    27409678.160   107561466.14706        39.500    27409673.240   116914615.57606        36.400    27409677.920   110367418.81107        43.800    27409679.320   108964445.87007        44.600
C05  40592186.160   211374165.20916        36.850                                                    40592185.040   163447907.18606        39.900
C11  21935952.720   114226289.46208        50.750    21935946.360    92818205.75608        50.050    21935952.560    88327017.21709        55.300
C14  26040873.800   135601666.07806        38.550    26040865.180   110187434.25706        36.550    26040871.460   104855814.23106        37.950
C21  24298956.940   126531048.80308        50.050    24298946.180   102816804.55407        44.500
C22  26216048.560   136513862.49607        43.350    26216040.920   110928660.60706        37.500
C23  23802817.340   123947514.96608        49.350    23802805.480   100717444.86007        46.400
C25  24893612.480   129627587.14507        46.550    24893607.680   105333017.61407        43.200
C28  25925482.080   135000776.29106        41.850    25925479.120   109699192.15706        36.300
C34  22504504.360   117186895.37408        52.650    22504501.480    95223981.91708        49.300
C37  25780849.160   134247642.26806        41.050    25780848.760   109087204.92006        39.850
C42  25168856.560   131060860.18307        44.150    25168861.920   106497710.29807        42.050
C43  22442087.240   116861867.41408        53.400    22442083.700    94959832.84408        49.000
C44  26243618.080   136657558.50906        38.950    26243613.740   111045434.94205        35.500
C58  32289651.280   168140700.48507        47.050
> 2021 12 21 00 10 30.0000000  0 38
G01  24172285.680   127026218.76006        40.600    24172289.160    98981485.17406        39.750    24172288.960    98981485.17806        37.700    24172287.720    94857256.37906        40.850
G07  23846209.560   125312662.42807        43.600    23846209.120    97646231.52306        41.700    23846208.820    97646219.49706        40.500
G08  20807539.360   109344377.08308        52.950    20807542.000    85203432.54308        53.650    20807541.260    85203429.53408        51.200    20807539.420    81653280.85408        51.050
G10  21709329.060   114083319.91208        52.700    21709330.860    88896109.96208        52.050    21709331.000    88896113.95308        52.750    21709328.180    85192095.85608        48.850
G16  21701955.460   114044552.62708        51.250                                                    21701954.660    88865873.19507        47.500
G18  25511289.400   134062723.26805        34.950    25511290.320   104464464.26506        37.350    25511290.240   104464493.26505        30.400    25511293.680   100111791.96305        34.100
G21  21853369.160   114840252.00408        49.800                                                    21853368.240    89485909.54307        45.950
G23  22917870.320   120434231.51707        46.350    22917870.540    93844865.33407        47.250    22917870.300    93844865.34007        43.100    22917873.820    89934675.25507        44.750
G26  24418329.160   128319237.81206        39.900    24418332.020    99989048.05806        39.550    24418331.580    99989053.07506        38.900    24418329.860    95822834.65106        38.800
G30  24943646.640   131079744.14606        40.400    24943649.040   102140067.51906        41.600    24943648.440   102140068.51006        39.900    24943647.580    97884228.36406        39.750
R04  23072805.760   123553840.78606        38.850    23072807.000    96097438.30706        39.950    23072807.060    96097433.33006        40.550
R05  21866660.060   116889832.23207        43.650    21866664.440    90914336.52007        45.350    21866664.840    90914327.51007        46.050
R10  22160318.620   118126980.98607        43.800
R12  22329830.200   119281936.16907        44.000    22329834.280    92774850.98607        43.050    22329834.380    92774851.97707        45.000
R20  21046627.280   112545789.54005        35.600    21046632.720    87535639.52107        47.800    21046633.940    87535651.52507        47.600
R21  20114083.720   107634550.15708        49.750    20114086.760    83715779.41408        49.350    20114086.900    83715781.41908        49.850    20114077.660    80647907.99009        56.000
E02  27366408.040   143811445.47446        41.800    27366410.320   107391669.70906        38.150    27366407.800   116730068.83106        36.600    27366409.940   110193190.94607        44.200    27366411.020   108792428.70307        44.800
E11  22290178.680   117135690.35948        51.000    22290178.100    87471460.62807        45.850    22290174.840    95077656.23307        45.800    22290177.780    89753327.85308        52.300    22290179.040    88612409.62808        52.850
E12  22750473.560   119554556.76348        49.550    22750473.580    89277754.21807        45.200    22750469.980    97041020.98307        44.800    22750473.580    91606773.26108        51.750    22750474.580    90442278.62408        52.250
E24  25042874.640   131601224.00048        52.300    25042877.020    98273666.31007        46.550    25042874.140   106819180.96607        45.450    25042876.400   100837323.54708        53.000    25042877.620    99555488.32108        53.500
E25  24331629.060   127863579.50048        53.000    24331632.660    95482559.52908        48.550    24331627.620   103785365.38707        47.650    24331632.160    97973409.11209        54.800    24331633.400    96727972.21009        55.350
E31  28447304.560   149491585.67346        37.800    28447307.680   111633344.65615        31.500                                                    28447309.240   114545595.30606        40.950    28447310.140   113089502.81806        40.150
E33  28526019.900   149905278.18546        41.800    28526021.800   111942236.54615        32.600                                                    28526022.520   114862573.13306        40.550    28526023.140   113402447.69806        40.300
E36  27396196.540   143967991.05446        41.600    27396201.740   107508580.69506        39.650    27396196.820   116857131.37606        36.500    27396200.760   110313153.70507        44.100    27396202.480   108910870.58207        44.950
C05  40592134.240   211373894.97316        36.350                                                    40592133.060   163447698.23806        39.600
C11  21937487.560   114234281.69408        50.950    21937481.200    92824700.08808        50.100    21937487.400    88333197.32109        55.100
C14  26021979.040   135503279.13306        37.800    26021971.620   110107486.89806        38.600    26021977.580   104779735.31607        42.950
C21  24293482.560   126502541.00708        49.700    24293471.380   102793639.64907        44.500
C22  26225579.560   136563487.65007        42.750    26225568.380   110968985.19805        34.500
C23  23808056.900   123974798.66008        49.650    23808045.040   100739615.09007        46.200
C25  24911063.780   129718461.78407        45.100    24911059.200   105406860.70707        43.550
C28  25910786.320   134924251.08407        43.400    25910782.960   109637009.15305        35.250
C34  22512119.780   117226550.60708        52.400    22512116.820    95256205.03408        49.250
C37  25770924.400   134195961.24806        41.000    25770923.940   109045209.85806        39.850
C42  25151644.800   130971235.09507        43.050    25151650.860   106424882.60806        41.850
C43  22435881.120   116829550.73808        53.300    22435877.620    94933572.90108        49.050
C44  26258680.220   136735993.58906        38.150    26258675.980   111109169.85105        34.100
C58  32277675.560   168078339.66907        47.400
> 2021 12 21 00 11  0.0000000  0 38
G01  24152209.520   126920716.70506        39.550    24152212.600    98899275.81106        39.600    24152212.440    98899275.79506        36.250    24152211.600    94778472.42006        40.000
G07  23848591.880   125325181.89007        42.450    23848591.540    97655986.92206        41.200    23848591.280    97655974.90206        41.650
G08  20799871.600   109304082.66708        53.000    20799874.240    85172034.29908        53.500    20799873.500    85172031.28708        50.850    20799871.660    81623190.87108        50.550
G10  21708783.920   114080455.26308        52.950    21708785.740    88893877.77008        51.750    21708785.840    88893881.76308        53.000    21708782.960    85189956.68008        48.150
G16  21717672.600   114127146.77108        50.800                                                    21717671.640    88930232.27007        47.300
G18  25530671.000   134164574.58406        37.350    25530672.120   104543828.95606        38.600    25530671.880   104543857.96806        36.750    25530675.160   100187852.76015        35.050
G21  21842210.080   114781611.18708        49.350                                                    21842209.360    89440215.41807        45.850
G23  22929605.860   120495901.57607        46.550    22929606.000    93892919.94307        47.750    22929605.760    93892919.94007        43.350    22929609.340    89980727.56007        43.800
G26  24439443.320   128430191.63306        41.250    24439445.920   100075505.61107        42.300    24439445.520   100075510.60106        41.250    24439444.000    95905689.72606        38.750
G30  24938725.820   131053884.86006        39.550    24938728.260   102119917.42206        41.500    24938727.580   102119918.40506        38.800    24938726.780    97864917.85606        39.000
R04  23082497.160   123605742.27006        37.800    23082499.300    96137806.10706        38.850    23082499.340    96137801.11506        38.700
R05  21857244.840   116839502.04107        44.700    21857249.220    90875190.83307        45.250    21857249.480    90875181.83107        45.800
R10  22183958.360   118252994.71407        42.950
R12  22312770.860   119190808.18007        44.150    22312774.920    92703973.65007        43.200    22312775.020    92703974.64207        43.300
R20  21059985.980   112617225.72405        35.800    21059991.520    87591200.98607        47.650    21059992.780    87591212.98507        47.550
R21  20108745.000   107605981.59908        50.100    20108748.040    83693559.43008        49.500    20108748.180    83693561.43208        49.650    20108738.980    80626502.28709        55.800
E02  27351409.540   143732628.25047        42.350    27351411.940   107332812.68306        38.100    27351409.260   116666093.81106        36.300    27351411.620   110132798.56007        43.950    27351412.620   108732804.01307        44.750
E11  22285142.240   117109223.78348        51.100    22285141.680    87451696.64607        45.300    22285138.460    95056173.63307        46.050    22285141.380    89733048.28508        52.050    22285142.600    88592387.85508        52.600
E12  22759325.060   119601071.91948        49.300    22759324.980    89312489.54507        44.350    22759321.540    97078776.78707        45.000    22759324.980    91642414.73608        51.450    22759326.120    90477467.03008        51.950
E24  25056276.360   131671650.30148        52.300    25056278.560    98326257.37707        45.600    25056275.780   106876345.17107        45.300    25056278.140   100891286.55308        52.400    25056279.300    99608765.35708        52.950
E25  24328446.760   127846856.30348        53.000    24328450.380    95470071.42707        47.800    24328445.260   103771791.36007        47.850    24328449.860    97960595.23009        54.650    24328451.080    96715321.21809        55.150
E31  28465560.640   149587520.61046        41.600    28465568.860   111704989.13616        38.300    28465559.700   121418443.27415        34.100    28465564.740   114619103.87406        39.350    28465565.780   113162076.92506        41.500
E33  28540488.760   149981311.12346        39.750    28540491.060   111999014.41706        36.000    28540489.640   121738045.97015        35.000    28540490.160   114920832.23206        37.300    28540491.420   113459966.21106        39.250
E36  27382741.980   143897287.19347        42.400    27382747.640   107455782.38206        38.100    27382742.080   116799741.87406        36.000    27382746.880   110258978.04307        44.550    27382747.720   108857383.60607        45.200
C05  40592083.660   211373631.13116        36.400                                                    40592082.380   163447494.20106        39.350
C11  21939062.320   114242481.20008        50.850    21939055.840    92831362.86308        50.200    21939062.020    88339537.69509        54.800
C14  26003074.460   135404842.11406        36.950    26003067.200   110027498.74405        35.450    26003072.900   104703617.56906        37.550
C21  24288099.500   126474509.95408        49.300    24288088.180   102770862.14007        44.500
C22  26235190.720   136613541.58806        36.100    26235180.480   111009658.13506        40.050
C23  23813388.100   124002559.33608        50.000    23813376.280   100762172.90107        46.600
C25  24928543.300   129809483.06807        44.150    24928539.020   105480822.97207        43.900
C28  25896100.020   134847775.95807        42.250    25896096.700   109574866.87005        35.250
C34  22519770.400   117266389.47108        52.300    22519767.440    95288577.35908        49.400
C37  25761079.620   134144696.63206        41.550    25761079.180   109003553.16406        40.200
C42  25134460.180   130881751.80007        44.950    25134466.740   106352170.08207        42.300
C43  22429714.140   116797437.67008        53.450    22429710.620    94907478.41208        49.150
C44  26273746.080   136814442.98206        41.000    26273741.960   111172916.41206        37.350
C58  32265724.120   168016105.34107        46.950
> 2021 12 21 00 11 30.0000000  0 38
G01  24132161.720   126815366.00806        37.750    24132164.940    98817184.36206        38.100    24132164.980    98817184.34905        34.900    24132164.220    94699801.48906        38.700
G07  23851069.800   125338204.00507        42.850    23851069.660    97666134.00406        41.000    23851069.300    97666122.00406        41.400
G08  20792256.200   109264063.56908        53.050    20792258.840    85140850.58908        53.400    20792258.100    85140847.58108        50.550    20792256.260    81593306.48208        50.250
G10  21708349.240   114078171.15408        52.700    21708351.080    88892097.95308        51.250    21708351.180    88892101.94808        52.700    21708348.220    85188251.02207        47.900
G16  21733461.480   114210118.27408        50.750                                                    21733460.720    88994885.38107        47.050
G18  25550044.640   134266383.52105        34.650    25550045.580   104623160.59006        37.150    25550045.320   104623189.59605        33.000    25550048.640   100263877.90915        32.350
G21  21831113.060   114723296.12208        50.000                                                    21831112.440    89394775.12007        45.450
G23  22941433.520   120558055.93607        45.550    22941433.660    93941351.91307        47.150    22941433.520    93941351.90907        44.400    22941436.520    90027141.54807        43.600
G26  24460568.980   128541207.43906        40.250    24460571.920   100162011.38106        40.150    24460571.940   100162016.36106        39.000    24460569.300    95988591.16106        37.800
G30  24933902.720   131028539.26206        40.550    24933905.240   102100167.58806        41.300    24933904.460   102100168.57306        39.850    24933903.700    97845990.93406        39.200
R04  23092321.160   123658346.54606        38.750    23092322.620    96178720.61306        40.800    23092322.460    96178715.61106        41.000
R05  21847959.900   116789868.24807        44.800    21847964.120    90836586.77807        45.550    21847964.220    90836577.77607        45.550
R10  22207645.880   118379263.23607        43.650
R12  22295814.480   119100229.92907        45.100    22295818.560    92633523.91107        43.650    22295818.680    92633524.93107        43.950
R20  21073373.620   112688814.36905        35.950    21073378.960    87646881.04108        48.000    21073380.120    87646893.04208        48.250
R21  20103465.740   107577731.37308        49.850    20103468.780    83671587.03408        49.800    20103468.940    83671589.03808        50.150    20103459.720    80605335.08509        55.000
E02  27336445.100   143653989.92947        42.250    27336447.520   107274089.26306        37.700    27336444.740   116602264.00706        36.150    27336447.140   110072543.20907        43.800    27336448.260   108673314.63207        43.700
E11  22280149.300   117082985.44848        51.200    22280148.680    87432103.09107        45.050    22280145.480    95034876.28007        45.850    22280148.380    89712943.58908        52.150    22280149.620    88572538.72908        51.800
E12  22768203.020   119647725.84648        49.650    22768202.820    89347328.50007        44.150    22768199.400    97116645.21507        44.800    22768202.860    91678162.54008        51.600    22768204.060    90512760.40808        51.050
E24  25069732.300   131742361.43348        52.250    25069734.400    98379061.15807        45.400    25069731.640   106933740.58107        45.050    25069733.980   100945467.81608        52.400    25069735.160    99662257.87508        52.000
E25  24325342.960   127830545.59848        53.000    24325346.540    95457891.34807        47.650    24325341.380   103758552.14707        47.650    24325346.060    97948097.41109        54.750    24325347.260    96702982.26809        54.350
E31  28483816.500   149683454.60146        39.200    28483825.320   111776628.00205        33.800    28483815.100   121496311.57505        30.900    28483820.960   114692611.57007        43.000    28483821.780   113234650.20007        42.200
E33  28554947.680   150057296.53745        35.700    28554951.040   112055756.60106        37.100    28554949.340   121799722.26105        34.950    28554949.460   114979054.77607        43.050    28554951.240   113517448.60407        42.850
E36  27369309.060   143826695.86347        42.550    27369314.040   107403068.06006        37.050    27369309.040   116742443.71206        36.550    27369313.920   110204888.58407        44.650    27369314.640   108803981.72307        44.050
C05  40592033.460   211373370.39616        36.100                                                    40592032.120   163447291.81706        40.050
C11  21940675.960   114250883.48508        50.500    21940669.420    92838190.38908        49.950    21940675.580    88346034.84909        54.850
C14  25984160.100   135306352.85306        37.500    25984152.620   109947468.17606        37.900    25984158.940   104627459.43306        41.650
C21  24282807.100   126446952.55208        48.250    24282795.960   102748469.49507        44.250
C22  26244884.660   136664018.43807        44.250    26244876.200   111050674.64406        40.100
C23  23818809.840   124030791.53508        49.500    23818797.980   100785113.85007        46.250
C25  24946049.680   129900644.30907        42.900    24946045.600   105554898.94607        43.300
C28  25881422.720   134771346.78307        42.850    25881419.460   109512761.90405        35.550
C34  22527455.380   117306407.38208        52.200    22527452.460    95321095.19008        49.100
C37  25751314.180   134093845.59806        41.250    25751313.840   108962232.51706        39.900
C42  25117302.420   130792408.42107        43.000    25117309.460   106279571.29806        41.800
C43  22423585.480   116765524.03508        53.250    22423581.920    94881545.96808        48.950
C44  26288813.380   136892902.39306        37.050    26288810.000   111236671.03705        35.650
C58  32253796.220   167953993.38307        46.950
> 2021 12 21 00 12  0.0000000  0 38
G01  24112143.360   126710170.41406        38.250    24112146.940    98735213.80106        40.750    24112146.880    98735213.80606        37.950    24112145.920    94621246.36706        38.150
G07  23853643.700   125351730.19507        42.850    23853643.680    97676673.89106        41.750    23853643.300    97676661.88306        40.850
G08  20784693.760   109224322.69208        53.000    20784696.360    85109883.66708        53.600    20784695.660    85109880.66008        51.150    20784693.820    81563629.85108        51.050
G10  21708025.560   114076470.19908        52.800    21708027.400    88890772.54208        51.800    21708027.500    88890776.53508        52.650    21708024.580    85186980.83808        48.750
G16  21749322.340   114293467.40608        51.250                                                    21749321.560    89059832.75807        47.500
G18  25569410.400   134368152.06505        32.350    25569411.540   104702460.70706        36.300    25569410.860   104702462.77614        28.800    25569414.560   100339874.87315        33.000
G21  21820078.460   114665309.39308        49.700                                                    21820077.720    89349590.66007        45.950
G23  22953353.260   120620695.01807        45.200    22953353.460    93990161.58307        47.600    22953353.300    93990161.57907        43.950    22953356.220    90073917.49507        44.250
G26  24481706.700   128652285.55206        40.650    24481709.380   100248565.78306        41.900    24481709.360   100248570.76706        40.500    24481707.080    96071539.03606        39.200
G30  24929177.920   131003710.35406        40.500    24929180.480   102080820.39006        41.300    24929179.820   102080821.37506        39.200    24929179.080    97827449.86706        39.950
R04  23102274.520   123711654.38206        36.700    23102278.520    96220182.21806        41.900    23102278.560    96220177.22607        42.550
R05  21838806.220   116740936.41907        45.050    21838810.380    90798528.71007        45.550    21838810.440    90798519.71207        45.700
R10  22231381.200   118505783.96607        44.300
R12  22278962.080   119010207.66007        44.800    22278966.200    92563506.60407        43.350    22278966.300    92563507.59607        43.750
R20  21086789.720   112760556.77905        35.500    21086795.320    87702680.68107        47.850    21086796.320    87702692.68608        48.300
R21  20098246.300   107549801.19108        49.800    20098249.380    83649863.56608        49.700    20098249.540    83649865.57408        50.000    20098240.300    80584407.69409        55.600
E02  27321515.600   143575534.74047        42.300    27321518.040   107215502.61606        38.700    27321515.340   116538582.84706        36.750    27321517.480   110012428.19607        44.000    27321518.700   108613963.79107        44.650
E11  22275200.140   117056977.42448        51.100    22275199.500    87412681.52607        45.800    22275196.380    95013765.88507        46.100    22275199.200    89693015.37508        51.850    22275200.440    88552863.83808        52.350
E12  22777107.720   119694520.04748        49.700    22777107.500    89382272.23207        44.850    22777104.240    97154627.52807        45.050    22777107.540    91714017.83708        51.200    22777108.700    90548159.92408        51.700
E24  25083242.620   131813358.62248        52.200    25083244.740    98432078.53207        46.550    25083242.020   106991368.16007        45.400    25083244.280   100999868.25608        52.150    25083245.460    99715966.78408        52.750
E25  24322318.240   127814650.63248        53.000    24322321.840    95446021.72008        48.250    24322316.680   103745650.38607        47.750    24322321.380    97935918.14709        54.400    24322322.560    96690957.82509        54.900
E31  28502072.420   149779388.92646        40.550    28502079.840   111848284.21015        33.650    28502071.240   121574177.33815        33.200    28502077.140   114766119.51206        37.200    28502077.340   113307223.74006        38.150
E33  28569398.220   150133236.29246        41.000    28569401.800   112112464.79704        29.500                                                    28569401.040   115037242.28007        43.150    28569402.500   113574896.41507        42.600
E36  27355897.680   143756219.70747        42.750    27355902.260   107350439.78306        37.850    27355897.980   116685239.07605        35.950    27355902.460   110150887.41607        42.900    27355903.720   108750666.99307        43.750
C05  40591984.120   211373113.33716        36.600                                                    40591982.720   163447093.04306        39.650
C11  21942328.880   114259490.86108        50.500    21942322.360    92845184.57808        50.250    21942328.480    88352690.61009        54.550
C14  25965236.920   135207816.08206        37.500    25965230.140   109867399.05806        37.250    25965237.060   104551264.66007        42.100
C21  24277606.140   126419872.47808        48.000    24277595.480   102726464.73707        44.750
C22  26254660.540   136714919.14206        39.800    26254651.280   111092035.63706        36.850
C23  23824322.400   124059496.59808        49.800    23824310.560   100808439.05607        46.600
C25  24963582.960   129991945.55307        43.500    24963579.060   105629088.64807        43.500
C28  25866754.540   134694966.13207        42.300    25866751.380   109450696.36905        35.650
C34  22535175.180   117346606.49208        52.550    22535172.340    95353760.24908        49.550
C37  25741628.980   134043411.98306        41.050    25741628.700   108921251.10306        40.250
C42  25100172.720   130703210.10407        44.050    25100179.600   106207090.34006        41.900
C43  22417495.640   116733812.43708        53.600    22417492.060    94855777.70308        49.250
C44  26303882.800   136971374.15806        40.800    26303879.200   111300435.78205        33.550
C58  32241892.280   167892006.43307        47.650
