     3.02           OBSERVATION DATA    M: MIXED            RINEX VERSION / TYPE
HEADER CHANGED BY EPN CB ON 2021-01-08                      COMMENT
TO BE CONFORM WITH THE INFORMATION IN                       COMMENT
ftp://epncb.oma.be/pub/station/log/flrs.log                 COMMENT
                                                            COMMENT
Spider V7.1.1.7438  DGT                 20210102 001657 UTC PGM / RUN BY / DATE
SNR is mapped to RINEX snr flag value [1-9]                 COMMENT
LX:     < 12dBHz -> 1; 12-17dBHz -> 2; 18-23dBHz -> 3       COMMENT
       24-29dBHz -> 4; 30-35dBHz -> 5; 36-41dBHz -> 6       COMMENT
       42-47dBHz -> 7; 48-53dBHz -> 8; >= 54dBHz -> 9       COMMENT
Site Information :                                          COMMENT
Santa Cruz das Flores                                       COMMENT
R A Acores                                                  COMMENT
Portugal                                                    COMMENT
American                                                    COMMENT
Capitania do Porto de Santa Cruz das Flores                 COMMENT
Product                                                     COMMENT
FLRS                                                        MARKER NAME
31907M001                                                   MARKER NUMBER
Divisao de Geodesia DIRECAO-GERAL DO TERRITORIO             OBSERVER / AGENCY
355317              LEICA GRX1200GGPRO  9.20/3.823          REC # / TYPE / VERS
200445              LEIAT504GG      NONE                    ANT # / TYPE
  4221530.0272 -2549242.3485  4031397.8561                  APPROX POSITION XYZ
        0.0000        0.0000        0.0000                  ANTENNA: DELTA H/E/N
G    8 C1C L1C D1C S1C C2W L2W D2W S2W                      SYS / # / OBS TYPES
R    8 C1C L1C D1C S1C C2P L2P D2P S2P                      SYS / # / OBS TYPES
DBHZ                                                        SIGNAL STRENGTH UNIT
    30.000                                                  INTERVAL
  2021    01    01    00    00    0.0000000     GPS         TIME OF FIRST OBS
  2021    01    01    23    59   30.0000000     GPS         TIME OF LAST OBS
     0                                                      RCV CLOCK OFFS APPL
G L2S -0.25000                                              SYS / PHASE SHIFT
G L2X -0.25000                                              SYS / PHASE SHIFT
R L2P  0.25000                                              SYS / PHASE SHIFT
E L8Q -0.25000                                              SYS / PHASE SHIFT
 23 R01  1 R02 -4 R03  5 R04  6 R05  1 R06 -4 R07  5 R08  6 GLONASS SLOT / FRQ #
    R09 -2 R10 -7 R12 -1 R13 -2 R14 -7 R15  0 R16 -1 R17  4 GLONASS SLOT / FRQ #
    R18 -3 R19  3 R20  2 R21  4 R22 -3 R23  3 R24  2        GLONASS SLOT / FRQ #
 C1C  -71.940 C1P  -71.940 C2C  -71.940 C2P  -71.940        GLONASS COD/PHS/BIS
    18    18  1929     7                                    LEAP SECONDS
                                                            END OF HEADER
> 2021 01 01 00 00  0.0000000  0 19
G01  23184989.980   121837947.12407      3754.746          44.000    23184991.840    94938680.00806      2925.777          39.250
G07  22381437.660   117615245.79007       899.129          47.500    22381435.960    91648243.27207       700.617          44.000
G08  20721205.040   108890689.65508       738.969          51.000    20721205.320    84849919.06709       575.820          54.750
G10  23255150.460   122206643.39207       853.645          46.750    23255151.020    95225961.92008       665.172          51.250
G16  21773773.040   114421965.96908     -2308.969          49.250    21773770.600    89159982.18407     -1799.199          45.000
G20  23927241.080   125738510.38607     -1310.164          42.000    23927238.560    97978056.26306     -1020.906          36.000
G21  21282541.620   111840526.44308      1988.965          49.750    21282539.040    87148452.10807      1549.844          45.750
G23  23992585.300   126081899.92207      -900.352          42.500    23992584.160    98245629.58105      -701.574          35.250
G26  24076882.240   126524910.05106     -3236.379          40.000    24076883.840    98590844.05108     -2521.859          48.750
G27  20831627.740   109470978.19508     -1373.758          51.000    20831627.540    85302078.94409     -1070.465          54.750
G30  24277235.960   127577728.35006      2367.969          41.750    24277235.760    99411196.01706      1845.172          36.750
R01  24369618.500   130269577.81206      -629.254          36.000    24369623.960   101320810.50205      -489.418          32.250
R02  24010138.480   128122694.28906      2525.254          39.250    24010144.140    99651011.37806      1964.082          40.000
R09  22437056.880   119812624.61907      3846.332          45.500    22437059.800    93187604.38007      2991.590          43.500
R15  20790756.920   111099514.37208     -3425.711          50.250    20790761.460    86410757.98507     -2664.441          46.500
R16  19428222.280   103782075.20008       637.070          48.000    19428226.220    80719413.41507       495.496          46.000
R17  21605552.340   115615713.69107     -3235.609          47.750    21605555.440    89923370.31007     -2516.590          44.500
R18  19449438.000   103822453.26008      -697.812          50.750    19449442.860    80750823.12508      -542.742          49.250
R19  21063111.820   112673452.70006      2343.148          40.000    21063115.200    87634929.92807      1822.445          44.250
> 2021 01 01 00 00 30.0000000  0 19
G01  23163570.820   121725388.76607      3748.605          43.500    23163572.740    94850972.19806      2920.988          39.000
G07  22376354.760   117588535.25207       880.883          47.750    22376353.040    91627429.85507       686.398          44.250
G08  20717007.640   108868632.50308       730.953          51.000    20717008.000    84832731.67809       569.574          54.750
G10  23250321.240   122181264.52407       837.410          47.250    23250321.360    95206186.18908       652.527          51.250
G16  21786981.420   114491376.61908     -2318.984          49.250    21786979.040    89214068.39807     -1807.004          44.750
G20  23934763.760   125778042.77706     -1326.137          41.250    23934761.620    98008860.74305     -1033.352          35.000
G21  21271224.560   111781054.63108      1975.078          50.250    21271221.900    87102110.43307      1539.020          46.250
G23  23997774.700   126109168.60007      -918.141          43.000    23997772.960    98266877.90405      -715.437          35.250
G26  24095369.280   126622060.72706     -3241.203          40.750    24095370.880    98666545.86308     -2525.613          48.500
G27  20839487.860   109512282.96308     -1380.559          51.000    20839487.580    85334264.47309     -1075.766          54.750
G30  24263753.820   127506878.26707      2354.637          42.500    24263753.520    99355988.17005      1834.781          35.000
R01  24373209.380   130288771.79305      -652.168          33.750    24373214.780   101335739.17205      -507.242          31.000
R02  23995976.000   128047120.23506      2512.664          38.250    23995981.760    99592231.56806      1954.289          38.000
R09  22415472.060   119697362.80707      3837.219          45.500    22415474.840    93097956.28907      2984.504          43.000
R15  20810031.560   111202512.89908     -3441.355          50.000    20810036.040    86490867.93607     -2676.613          46.250
R16  19424712.660   103763327.62108       612.059          48.000    19424716.620    80704831.95007       476.043          46.000
R17  21623698.640   115712819.37107     -3238.684          47.750    21623702.140    89998896.92207     -2518.980          44.750
R18  19453400.180   103843603.72108      -712.836          50.750    19453405.080    80767273.48308      -554.434          49.250
R19  21050007.020   112603351.27406      2329.641          39.750    21050010.400    87580406.61707      1811.941          44.000
> 2021 01 01 00 01  0.0000000  0 19
G01  23142191.100   121613037.31107      3741.223          43.250    23142192.820    94763425.63206      2915.238          38.500
G07  22371379.620   117562390.33608       862.191          48.000    22371377.900    91607057.19207       671.832          43.500
G08  20712859.320   108846833.34908       722.426          51.000    20712859.780    84815745.32909       562.930          54.750
G10  23245587.240   122156386.81607       820.859          47.000    23245587.260    95186800.95508       639.625          51.500
G16  21800250.600   114561106.75108     -2329.473          49.250    21800248.300    89268403.55607     -1815.176          44.000
G20  23942382.820   125818082.18506     -1342.840          41.000    23942380.400    98040060.29406     -1046.371          37.000
G21  21259990.660   111722020.77908      1960.586          49.750    21259988.240    87056110.05307      1527.730          46.250
G23  24003067.880   126136982.70707      -935.988          43.000    24003065.680    98288551.26006      -729.344          37.000
G26  24113887.080   126719371.37206     -3246.367          41.750    24113888.340    98742372.34308     -2529.641          48.750
G27  20847390.400   109553810.96208     -1387.980          51.000    20847390.020    85366623.94309     -1081.547          54.750
G30  24250351.020   127436446.92406      2340.957          41.500    24250351.160    99301106.59606      1824.121          38.000
R01  24376928.620   130308652.67705      -674.527          33.000    24376933.980   101351202.06905      -524.637          32.000
R02  23981887.760   127971943.83906      2499.348          37.750    23981893.680    99533761.13006      1943.953          39.500
R09  22393940.940   119582388.95207      3827.793          45.250    22393943.900    93008532.17507      2977.168          43.500
R15  20829397.480   111305998.82708     -3457.586          49.750    20829402.140    86571356.96607     -2689.238          46.250
R16  19421345.900   103745343.29007       586.891          47.750    19421349.860    80690844.12307       456.465          45.750
R17  21641864.400   115810028.50907     -3242.113          47.500    21641867.980    90074504.01307     -2521.648          44.250
R18  19457449.540   103865219.72808      -728.234          50.750    19457454.560    80784085.93708      -566.406          49.250
R19  21036981.960   112533676.57706      2315.348          39.500    21036985.440    87526215.20507      1800.820          44.000
> 2021 01 01 00 01 30.0000000  0 19
G01  23120850.100   121500889.66407      3734.320          43.250    23120851.980    94676037.88906      2909.855          40.750
G07  22366511.280   117536806.55808       843.555          48.500    22366509.460    91587121.76607       657.312          43.750
G08  20708759.140   108825287.05708       713.996          51.000    20708759.660    84798956.01009       556.355          54.750
G10  23240947.820   122132006.84907       804.395          46.750    23240948.080    95167803.59708       626.801          51.750
G16  21813579.380   114631149.92608     -2339.941          49.500    21813577.040    89322982.64507     -1823.336          44.250
G20  23950097.100   125858621.68906     -1359.492          41.000    23950095.000    98071649.49305     -1059.352          34.000
G21  21248839.520   111663420.46808      1946.074          50.250    21248836.680    87010447.45407      1516.418          46.000
G23  24008463.620   126165336.27407      -954.223          43.500    24008461.380    98310644.97805      -743.551          35.250
G26  24132434.000   126816835.54007     -3251.375          42.250    24132434.980    98818318.45408     -2533.539          48.250
G27  20855334.120   109595556.08308     -1395.184          51.000    20855333.800    85399152.60109     -1087.160          54.750
G30  24237027.520   127366431.14607      2327.184          42.750    24237027.940    99246548.86505      1813.387          35.250
R01  24380774.980   130329214.77405      -696.574          34.750    24380780.780   101367194.84904      -541.785          28.250
R02  23967873.900   127897163.84807      2485.945          42.750    23967880.000    99475598.83306      1933.516          37.750
R09  22372463.700   119467701.56507      3818.156          45.500    22372467.020    92919330.89407      2969.672          43.750
R15  20848853.180   111409963.51108     -3473.414          50.250    20848857.680    86652218.38507     -2701.547          46.250
R16  19418121.240   103728117.94108       561.602          48.000    19418125.280    80677446.62307       436.797          46.000
R17  21660048.020   115907333.09207     -3245.004          47.750    21660051.640    90150185.33107     -2523.895          44.250
R18  19461584.740   103887293.78608      -743.406          50.750    19461589.720    80801254.64108      -578.203          49.250
R19  21024035.660   112464423.15506      2301.395          39.500    21024039.160    87472351.46807      1789.973          44.250
> 2021 01 01 00 02  0.0000000  0 19
G01  23099549.480   121388953.95907      3727.234          43.500    23099551.220    94588815.28006      2904.336          39.000
G07  22361751.140   117511790.69308       824.016          48.500    22361748.880    91567628.88407       642.086          43.500
G08  20704708.080   108803998.88208       705.008          50.750    20704708.660    84782367.82209       549.355          54.750
G10  23236404.260   122108131.80607       787.012          46.750    23236404.900    95149199.67608       613.254          51.250
G16  21826968.760   114701511.57208     -2350.969          49.250    21826966.500    89377809.89507     -1831.926          44.000
G20  23957907.160   125899666.04906     -1376.707          39.500    23957905.380    98103632.11506     -1072.762          40.500
G21  21237771.820   111605260.41508      1931.012          50.000    21237769.480    86965127.96807      1504.684          46.500
G23  24013962.800   126194234.55507      -972.805          42.500    24013960.740    98333163.11706      -758.031          36.500
G26  24151011.100   126914457.72906     -3257.004          41.750    24151011.720    98894387.70707     -2537.926          47.750
G27  20863320.100   109637523.40408     -1402.926          51.000    20863319.940    85431854.39909     -1093.191          54.750
G30  24223784.460   127296838.98707      2312.336          42.500    24223784.600    99192321.19306      1801.816          37.500
R01  24384749.660   130350462.92705      -719.945          35.000    24384755.480   101383721.16605      -559.969          32.000
R02  23953936.340   127822790.25906      2471.926          40.750    23953942.500    99417752.71906      1922.609          37.000
R09  22351041.980   119353310.66907      3807.910          45.250    22351045.340    92830360.18607      2961.707          43.750
R15  20868398.940   111514409.92008     -3489.883          50.250    20868403.340    86733454.47507     -2714.352          46.000
R16  19415040.160   103711659.21508       535.492          48.000    19415044.200    80664645.38307       416.488          46.000
R17  21678250.220   116004736.81507     -3248.523          47.500    21678254.300    90225943.74407     -2526.633          44.500
R18  19465806.540   103909829.89508      -759.172          50.750    19465811.440    80818782.72508      -590.473          49.250
R19  21011169.700   112395597.91006      2286.430          39.750    21011173.000    87418820.76707      1778.336          44.000
> 2021 01 01 00 02 30.0000000  0 19
G01  23078288.860   121277228.54407      3720.992          43.500    23078290.420    94501756.50106      2899.469          39.750
G07  22357098.480   117487339.47508       805.855          48.250    22357095.740    91548575.98907       627.937          43.750
G08  20700705.420   108782964.95708       697.059          51.000    20700706.020    84765977.75209       543.164          54.750
G10  23231956.500   122084759.31407       771.074          46.750    23231957.020    95130987.34408       600.832          51.000
G16  21840417.840   114772186.81208     -2360.914          49.250    21840415.580    89432881.50507     -1839.676          44.750
G20  23965812.500   125941210.23106     -1392.508          40.750    23965810.560    98136004.20905     -1085.066          33.750
G21  21226787.780   111547537.91808      1916.914          50.000    21226785.060    86920149.38807      1493.699          46.250
G23  24019564.640   126223673.05607      -990.000          42.500    24019562.540    98356102.22705      -771.434          35.250
G26  24169616.980   127012232.88806     -3261.469          41.000    24169617.740    98970576.13408     -2541.406          48.250
G27  20871347.560   109679708.23508     -1409.621          51.000    20871347.460    85464725.69609     -1098.410          54.750
G30  24210621.920   127227668.65306      2298.605          41.000    24210622.280    99138422.20806      1791.117          37.000
R01  24388851.920   130372392.49606      -742.215          36.250    24388857.960   101400777.57405      -577.277          31.500
R02  23940075.040   127748822.82306      2458.918          41.500    23940080.720    99360222.48006      1912.488          39.000
R09  22329675.620   119239216.17707      3798.301          44.750    22329679.240    92741620.03007      2954.230          43.500
R15  20888033.380   111619330.78108     -3505.078          49.750    20888037.860    86815059.58207     -2726.176          46.500
R16  19412102.220   103695964.85808       510.496          48.000    19412106.160    80652438.65107       397.047          46.000
R17  21696469.860   116102233.43608     -3251.277          48.000    21696473.620    90301774.45307     -2528.773          44.500
R18  19470113.680   103932821.73508      -773.777          51.000    19470118.560    80836665.26608      -601.828          49.250
R19  20998382.720   112327196.46206      2273.367          40.000    20998386.120    87365619.65907      1768.176          44.500
> 2021 01 01 00 03  0.0000000  0 19
G01  23057068.800   121165716.64407      3713.289          43.750    23057070.680    94414864.14806      2893.469          38.750
G07  22352553.460   117463454.61408       786.477          48.250    22352550.560    91529964.40707       612.840          43.500
G08  20696751.280   108762185.90308       688.230          51.000    20696751.860    84749786.29009       536.281          54.750
G10  23227604.840   122061891.83007       753.562          46.750    23227605.240    95113168.52908       587.191          51.000
G16  21853926.600   114843176.06408     -2371.742          49.250    21853924.360    89488197.79507     -1848.113          44.000
G20  23973813.500   125983254.07506     -1409.762          41.750    23973810.740    98168765.62706     -1098.523          40.500
G21  21215886.820   111490254.30008      1901.898          50.250    21215884.420    86875512.84007      1482.000          46.750
G23  24025269.200   126253652.06407     -1008.535          42.750    24025267.620    98379462.50306      -785.875          38.000
G26  24188251.820   127110160.62906     -3266.613          41.500    24188252.920    99046883.46707     -2545.414          47.750
G27  20879416.440   109722110.76708     -1417.223          51.000    20879416.400    85497766.62209     -1104.332          54.750
G30  24197539.920   127158923.21907      2284.215          42.250    24197539.980    99084854.33806      1779.902          38.000
R01  24393082.040   130395003.97405      -764.980          33.750    24393088.020   101418364.29804      -594.980          28.250
R02  23926290.760   127675267.01506      2444.762          41.000    23926296.540    99303012.37706      1901.473          38.000
R09  22308366.000   119125422.90507      3787.820          46.000    22308369.220    92653114.15807      2946.082          43.750
R15  20907756.340   111724724.28608     -3521.152          49.750    20907760.940    86897032.30007     -2738.676          45.750
R16  19409307.740   103681037.15708       484.641          48.000    19409311.680    80640828.21007       376.937          46.000
R17  21714706.560   116199821.79508     -3254.680          48.000    21714710.620    90377676.47307     -2531.422          44.500
R18  19474505.960   103956267.90108      -789.395          51.000    19474510.720    80854901.17708      -613.973          49.250
R19  20985675.360   112259220.66506      2258.492          40.000    20985678.740    87312749.63907      1756.605          44.250
> 2021 01 01 00 03 30.0000000  0 18
G01  23035889.860   121054420.22707      3706.160          44.000    23035891.600    94328139.68106      2887.918          39.750
G07  22348116.120   117440136.40508       767.695          48.500    22348113.180    91511794.37607       598.203          43.000
G08  20692845.540   108741661.06608       679.723          51.000    20692846.100    84733792.90909       529.648          54.750
G10  23223349.500   122039530.51107       736.617          46.500    23223350.000    95095744.14708       573.988          51.750
G16  21867495.040   114914478.59508     -2382.051          49.500    21867492.760    89543758.19607     -1856.148          44.250
G20  23981909.320   126025795.81007     -1426.594          44.000
G21  21205069.960   111433410.26908      1887.379          50.000    21205067.300    86831218.79007      1470.684          46.250
G23  24031076.840   126284170.61707     -1026.664          43.250    24031075.380    98403243.20606      -799.996          37.500
G26  24206915.520   127208239.52006     -3271.969          41.000    24206916.920    99123308.57508     -2549.590          48.250
G27  20887526.640   109764729.94508     -1424.410          51.000    20887526.600    85530976.37309     -1109.934          54.750
G30  24184539.240   127090604.66807      2269.906          42.500    24184539.640    99031619.12406      1768.758          37.250
R02  23912584.220   127602126.31306      2430.840          41.000    23912590.080    99246125.16606      1890.652          40.500
R09  22287113.260   119011934.33907      3777.797          45.500    22287116.480    92564845.27107      2938.285          44.250
R15  20927567.100   111830586.81508     -3536.672          49.750    20927571.760    86979369.81007     -2750.750          46.250
R16  19406656.960   103666877.25708       459.066          48.000    19406660.920    80629814.94407       357.047          45.750
R17  21732960.060   116297499.20607     -3257.500          47.750    21732963.880    90453647.78207     -2533.613          44.000
R18  19478982.840   103980165.91608      -804.277          51.000    19478987.660    80873488.52208      -625.551          49.250
R19  20973047.380   112191670.61306      2244.563          40.250    20973050.820    87260210.75707      1745.770          44.250
> 2021 01 01 00 04  0.0000000  0 19
G01  23014752.260   120943341.30307      3698.344          43.500    23014753.740    94241584.67706      2881.824          40.000
G07  22343786.780   117417385.53108       748.512          48.250    22343783.820    91494066.42207       583.254          43.750
G08  20688988.180   108721390.24808       671.031          51.000    20688988.680    84717997.46809       522.883          54.750
G10  23219190.920   122017676.56807       719.465          46.750    23219191.260    95078715.11808       560.621          51.250
G16  21881122.960   114986093.32708     -2392.809          49.250    21881120.420    89599561.89007     -1864.527          44.000
G20  23990099.660   126068834.69807     -1443.777          42.750    23990095.720    98235437.89004     -1125.023          29.250
G21  21194336.420   111377006.32008      1872.379          50.250    21194333.900    86787267.67507      1458.996          47.000
G23  24036986.980   126315227.72207     -1044.621          42.750    24036985.340    98427443.55706      -813.996          37.750
G26  24225607.620   127306467.99906     -3276.941          41.250    24225609.260    99199850.24107     -2553.465          47.500
G27  20895677.960   109807564.75608     -1431.922          51.000    20895677.760    85564354.14609     -1115.789          54.750
G30  24171620.460   127022714.67906      2255.438          41.250    24171620.480    98978717.80806      1757.480          37.250
R01  24401924.160   130442268.59105      -811.051          35.750    24401929.340   101455120.71204      -630.816          29.000
R02  23898956.300   127529404.63007      2416.500          42.250    23898961.920    99189563.79806      1879.492          37.750
R09  22265918.240   118898754.53407      3767.000          45.250    22265921.580    92476816.54407      2929.887          43.750
R15  20947464.940   111936915.01008     -3552.426          49.750    20947469.600    87062069.50307     -2762.996          45.750
R16  19404150.100   103653486.26108       433.141          48.000    19404154.100    80619399.71507       336.883          45.750
R17  21751229.720   116395263.05008     -3260.727          48.000    21751233.500    90529686.29007     -2536.125          44.000
R18  19483543.960   104004513.52208      -819.484          50.750    19483548.880    80892425.55508      -637.379          49.000
R19  20960499.160   112124546.35106      2230.020          40.250    20960502.680    87208003.02807      1734.457          44.500
> 2021 01 01 00 04 30.0000000  0 19
G01  22993655.880   120832479.36707      3691.340          43.250    22993657.440    94155198.78206      2876.363          39.750
G07  22339564.840   117395199.88808       730.059          48.000    22339562.080    91476778.89807       568.871          43.750
G08  20685178.660   108701370.62008       663.160          51.000    20685179.020    84702397.76009       516.750          54.750
G10  23215128.660   121996328.65907       703.172          46.750    23215129.160    95062080.38908       547.926          52.000
G16  21894809.480   115058016.92708     -2402.738          49.000    21894806.940    89655606.23807     -1872.266          44.000
G20  23998383.860   126112366.56307     -1459.348          42.750    23998380.800    98269358.87505     -1137.156          35.250
G21  21183686.620   111321040.40808      1858.172          49.750    21183684.240    86743657.87807      1447.926          46.500
G23  24042998.640   126346819.93107     -1061.883          42.250    24042997.200    98452060.84706      -827.445          37.250
G26  24244327.760   127404842.12406     -3281.664          41.500    24244329.180    99276505.40307     -2557.141          47.500
G27  20903869.580   109850611.71608     -1438.570          51.000    20903869.320    85597897.23709     -1120.969          54.750
G30  24158782.760   126955252.76907      2241.242          42.000    24158782.960    98926150.12606      1746.422          37.000
R01  24406534.860   130466917.10805      -832.707          33.500    24406540.560   101474291.73204      -647.664          28.500
R02  23885407.040   127457103.00106      2403.000          39.750    23885412.460    99133329.31606      1869.008          37.500
R09  22244781.260   118785884.58507      3756.996          45.750    22244784.660    92389028.80607      2922.109          44.000
R15  20967448.740   112043702.91508     -3567.316          49.750    20967453.660    87145126.74407     -2774.582          45.750
R16  19401787.040   103640862.85008       408.035          48.250    19401791.020    80609581.49807       317.355          45.750
R17  21769514.620   116493108.29608     -3262.965          48.000    21769517.980    90605788.14007     -2537.863          43.750
R18  19488188.360   104029305.80208      -833.875          51.000    19488193.340    80911708.43908      -648.574          49.000
R19  20948030.440   112057845.36106      2216.301          40.250    20948033.800    87156124.51007      1723.785          44.500
> 2021 01 01 00 05  0.0000000  0 19
G01  22972602.280   120721842.26707      3684.129          42.500    22972604.040    94068988.09806      2870.750          40.250
G07  22335451.600   117373585.61907       710.949          47.750    22335449.140    91459936.60307       553.984          44.000
G08  20681417.960   108681607.66708       654.410          50.750    20681418.220    84686998.05809       509.930          55.000
G10  23211163.840   121975493.84407       685.797          46.500    23211164.600    95045845.47508       534.387          51.500
G16  21908555.800   115130253.99308     -2413.133          49.250    21908553.300    89711894.85407     -1880.363          44.000
G20  24006762.420   126156395.91706     -1476.074          40.500    24006759.740    98303667.44406     -1150.191          38.500
G21  21173121.100   111265518.67508      1843.371          50.500    21173118.460    86700394.19607      1436.391          46.750
G23  24049113.120   126378952.21007     -1079.891          42.000    24049111.860    98477099.02006      -841.473          36.500
G26  24263076.380   127503366.20306     -3286.910          40.500    24263077.520    99353277.41508     -2561.230          48.500
G27  20912102.380   109893875.72108     -1445.688          51.000    20912102.220    85631609.44309     -1126.512          54.750
G30  24146028.260   126888226.61507      2226.852          42.000    24146028.160    98873921.91506      1735.207          37.750
R01  24411273.360   130492246.89305      -856.738          32.500    24411278.960   101493992.69205      -666.359          31.750
R02  23871937.980   127385231.15106      2388.734          41.250    23871943.660    99077429.03706      1857.914          38.750
R09  22223704.320   118673334.31607      3746.367          45.750    22223707.480    92301489.71007      2913.840          44.000
R15  20987519.200   112150953.05008     -3582.750          49.500    20987523.800    87228543.53207     -2786.586          46.000
R16  19399569.040   103629013.87208       381.984          48.000    19399572.880    80600365.61807       297.094          46.000
R17  21787815.040   116591038.76307     -3265.984          47.250    21787818.460    90681956.25307     -2540.215          44.500
R18  19492916.680   104054545.82008      -848.785          50.750    19492921.560    80931339.57708      -660.172          49.250
R19  20935641.440   111991573.66106      2201.832          40.000    20935644.940    87104579.88607      1712.535          44.500
> 2021 01 01 00 05 30.0000000  0 19
G01  22951591.840   120611431.98007      3676.848          43.750    22951593.640    93982954.12906      2865.074          40.250
G07  22331447.200   117352543.08807       692.117          47.750    22331445.000    91443539.81507       539.312          44.000
G08  20677705.920   108662100.70708       646.160          51.000    20677706.180    84671797.83409       503.496          54.750
G10  23207296.980   121955173.20807       668.953          46.750    23207297.320    95030011.21908       521.258          50.750
G16  21922361.660   115202803.64608     -2423.277          49.250    21922359.040    89768427.04507     -1888.273          44.000
G20  24015234.580   126200921.10406     -1492.098          39.500    24015232.640    98338362.31406     -1162.676          37.750
G21  21162640.200   111210441.74908      1828.684          49.500    21162637.880    86657477.13907      1424.949          47.000
G23  24055330.160   126411623.39107     -1097.809          42.000    24055328.980    98502557.08306      -855.434          38.000
G26  24281853.120   127602038.58806     -3291.273          40.000    24281854.300    99430164.98208     -2564.633          49.000
G27  20920376.220   109937355.71108     -1452.586          50.750    20920376.240    85665489.94909     -1131.891          54.750
G30  24133356.620   126821638.04807      2212.508          43.000    24133356.840    98822034.74406      1724.027          36.500
R01  24416138.700   130518256.26505      -878.824          32.750    24416144.500   101514222.22004      -683.539          27.500
R02  23858549.960   127313792.23006      2374.457          41.750    23858556.140    99021865.42306      1846.793          36.500
R09  22202687.680   118561106.93807      3735.629          46.000    22202690.800    92214201.76007      2905.484          44.000
R15  21007675.600   112258662.12908     -3597.730          50.000    21007680.200    87312317.24707     -2798.234          45.750
R16  19397496.040   103617940.66808       356.500          48.000    19397500.000    80591753.11607       277.273          46.250
R17  21806131.260   116689051.61707     -3268.324          47.500    21806134.760    90758188.44607     -2542.035          44.250
R18  19497728.440   104080231.29008      -863.324          51.000    19497733.260    80951317.16508      -671.477          49.250
R19  20923332.840   111925731.33106      2187.602          40.500    20923336.280    87053369.22207      1701.469          44.750
> 2021 01 01 00 06  0.0000000  0 19
G01  22930624.280   120501246.80907      3668.688          44.000    22930626.160    93897095.54906      2858.719          40.500
G07  22327551.000   117332068.92607       672.723          47.500    22327549.040    91427585.91607       524.195          44.500
G08  20674041.760   108642845.23008       637.453          50.750    20674042.040    84656793.57409       496.711          55.000
G10  23203527.520   121935364.11307       651.410          47.000    23203527.620    95014575.55408       507.590          51.500
G16  21936226.140   115275661.40008     -2434.004          49.000    21936223.320    89825199.31207     -1896.629          43.750
G20  24023799.980   126245936.58406     -1508.844          38.750    24023799.220    98373439.28106     -1175.727          36.750
G21  21152243.580   111155806.48308      1813.508          50.250    21152240.960    86614904.19207      1413.117          46.750
G23  24061648.660   126444828.75906     -1116.195          40.500    24061647.720    98528431.37706      -869.762          36.000
G26  24300656.900   127700854.19106     -3296.926          39.250    24300658.400    99507164.13008     -2569.035          48.750
G27  20928690.340   109981046.95408     -1460.145          50.750    20928690.380    85699535.06009     -1137.777          54.750
G30  24120768.320   126755485.14207      2197.613          42.000    24120768.340    98770487.00305      1712.422          35.500
R01  24421130.760   130544940.52406      -900.824          36.000    24421136.780   101534976.68805      -700.645          30.750
R02  23845243.960   127242787.23607      2359.332          43.000    23845250.080    98966639.33106      1835.031          37.250
R09  22181731.780   118449202.80007      3724.375          46.250    22181734.560    92127165.19807      2896.730          44.000
R15  21027916.260   112366822.58608     -3613.152          50.000    21027920.960    87396442.02307     -2810.234          45.750
R16  19395567.740   103607640.14508       330.211          48.000    19395571.740    80583741.58707       256.828          45.750
R17  21824461.640   116787140.81408     -3271.105          48.000    21824464.940    90834480.02907     -2544.191          43.750
R18  19502622.440   104106355.83208      -878.363          51.000    19502627.280    80971636.25308      -683.176          49.000
R19  20911103.840   111860314.57606      2173.387          40.000    20911107.280    87002489.56007      1690.410          44.500
> 2021 01 01 00 06 30.0000000  0 19
G01  22909700.340   120391290.78307      3661.340          43.750    22909702.200    93811415.54506      2852.992          38.250
G07  22323763.560   117312165.45308       653.820          48.000    22323761.640    91412076.70207       509.465          43.750
G08  20670425.820   108623843.53908       629.141          51.000    20670426.120    84641987.06609       490.238          54.750
G10  23199856.220   121916069.84807       634.426          47.500    23199856.420    94999541.06008       494.355          51.750
G16  21950149.280   115348828.23908     -2444.051          49.000    21950146.600    89882212.42807     -1904.457          43.500
G20  24032459.780   126291443.69606     -1525.004          41.750    24032458.840    98408899.31905     -1188.320          33.500
G21  21141931.100   111101615.36408      1798.930          50.000    21141928.780    86572677.36707      1401.762          47.250
G23  24068068.920   126478569.42406     -1133.543          41.250    24068068.200    98554722.76906      -883.285          36.500
G26  24319488.160   127799813.54006     -3301.152          40.250    24319489.900    99584275.30507     -2572.328          47.500
G27  20937044.980   110024950.65408     -1467.027          51.000    20937044.980    85733745.73009     -1143.141          54.750
G30  24108263.720   126689771.89007      2183.141          42.250    24108263.300    98719281.84705      1701.148          34.250
R01  24426249.040   130572300.67706      -923.215          36.000    24426255.020   101556256.82304      -718.059          29.750
R02  23832020.120   127172220.86507      2344.727          43.250    23832026.080    98911754.34105      1823.668          35.250
R09  22160837.260   118337627.56307      3713.691          46.250    22160840.160    92040384.47007      2888.426          43.750
R15  21048241.420   112475433.42208     -3627.773          49.500    21048246.080    87480917.10907     -2821.605          45.000
R16  19393784.680   103598115.56408       304.469          48.000    19393788.720    80576333.57007       236.805          45.750
R17  21842805.960   116885305.82107     -3273.520          46.750    21842809.540    90910830.56507     -2546.074          43.750
R18  19507598.700   104132919.34408      -892.734          50.750    19507603.500    80992296.75208      -694.352          49.000
R19  20898954.920   111795325.31606      2159.094          40.250    20898958.300    86951942.38907      1679.297          44.500
> 2021 01 01 00 07  0.0000000  0 19
G01  22888820.300   120281565.49507      3653.488          44.000    22888822.140    93725915.34006      2846.875          39.500
G07  22320084.760   117292832.47708       634.566          48.000    22320082.760    91397012.03707       494.465          44.250
G08  20666857.940   108605094.58708       620.535          51.000    20666858.260    84627377.49909       483.535          54.750
G10  23196282.800   121897291.01007       617.195          46.750    23196283.400    94984908.21608       480.930          51.750
G16  21964130.800   115422302.49408     -2454.270          48.750    21964128.280    89939465.08607     -1912.422          43.500
G20  24041213.260   126337440.21307     -1541.660          42.750    24041211.260    98444740.78205     -1201.297          35.000
G21  21131703.720   111047868.37808      1784.008          50.500    21131701.160    86530796.58607      1390.133          46.500
G23  24074591.060   126512843.83006     -1151.566          41.750    24074590.480    98581430.09206      -897.328          37.500
G26  24338346.600   127898914.68906     -3305.902          39.750    24338348.340    99661496.97707     -2576.027          47.750
G27  20945439.860   110069065.35608     -1474.223          51.000    20945439.720    85768120.82409     -1148.746          54.750
G30  24095842.560   126624499.50707      2168.086          42.500    24095842.400    98668420.28106      1689.418          37.500
R01  24431493.260   130600334.98205      -945.820          35.000    24431499.300   101578061.32605      -735.633          34.000
R02  23818878.980   127102097.07207      2329.750          42.000    23818884.660    98857213.66006      1812.027          37.750
R09  22140005.020   118226384.67907      3702.277          46.000    22140007.860    91953862.23907      2879.551          43.750
R15  21068650.000   112584490.38108     -3642.918          49.500    21068654.640    87565739.18807     -2833.383          46.250
R16  19392147.020   103589367.58007       278.430          47.750    19392151.080    80569529.57807       216.551          46.000
R17  21861164.040   116983543.75507     -3275.992          47.500    21861167.340    90987237.83807     -2547.992          43.500
R18  19512656.620   104159918.77108      -907.480          50.750    19512661.380    81013296.30508      -705.816          49.250
R19  20886885.800   111730762.91606      2144.766          40.000    20886889.000    86901727.22407      1668.152          44.750
> 2021 01 01 00 07 30.0000000  0 19
G01  22867984.520   120172072.90607      3646.098          44.000    22867986.360    93640596.46506      2841.113          40.750
G07  22316514.520   117274070.32708       616.070          48.000    22316512.400    91382392.17407       480.055          46.250
G08  20663338.060   108586597.73408       612.484          51.000    20663338.420    84612964.37509       477.262          54.750
G10  23192807.140   121879028.63707       600.109          46.250    23192808.100    94970677.81808       467.613          52.250
G16  21978170.760   115496083.32908     -2464.352          48.750    21978168.340    89996956.63707     -1920.277          43.500
G20  24050059.560   126383924.32007     -1557.473          43.000    24050056.420    98480962.22805     -1213.613          32.500
G21  21121560.300   110994565.96208      1769.516          50.250    21121557.840    86489262.25607      1378.844          47.000
G23  24081214.840   126547650.80907     -1168.824          42.000    24081213.640    98608552.43205      -910.777          35.500
G26  24357231.460   127998156.05706     -3310.160          40.000    24357233.480    99738827.89708     -2579.348          49.000
G27  20953874.680   110113390.09808     -1480.898          50.750    20953874.460    85802659.57809     -1153.945          54.750
G30  24083505.740   126559669.92407      2153.574          42.500    24083505.940    98617903.73305      1678.109          35.250
R01  24436863.540   130629042.27305      -968.020          35.000    24436869.340   101600389.22605      -752.906          30.000
R02  23805821.100   127032419.47506      2315.344          41.500    23805827.020    98803020.01706      1800.824          39.500
R09  22119235.780   118115477.87707      3691.441          46.500    22119238.660    91867601.38707      2871.117          44.250
R15  21089141.220   112693990.10508     -3657.164          50.000    21089146.060    87650905.60707     -2844.461          45.250
R16  19390654.920   103581396.77408       252.895          48.250    19390658.880    80563330.05807       196.691          45.750
R17  21879535.340   117081852.44707     -3277.910          47.000    21879538.820    91063700.13407     -2549.488          43.750
R18  19517795.700   104187351.38508      -921.520          50.750    19517800.460    81034632.79008      -716.742          49.000
R19  20874896.260   111666627.86806      2130.809          40.000    20874899.520    86851844.45107      1657.297          44.500
> 2021 01 01 00 08  0.0000000  0 19
G01  22847192.740   120062811.72207      3637.867          43.750    22847194.700    93555457.89706      2834.699          40.250
G07  22313052.440   117255876.22508       596.762          48.250    22313050.120    91368214.94707       465.004          44.000
G08  20659865.440   108568349.54208       604.035          51.000    20659865.920    84598745.00509       470.672          54.750
G10  23189429.460   121861280.54107       583.016          46.250    23189430.300    94956848.12408       454.293          51.000
G16  21992268.360   115570166.67208     -2474.617          49.000    21992265.960    90054683.92007     -1928.273          43.500
G20  24058997.480   126430891.73806     -1573.875          41.000    24058993.400    98517560.29205     -1226.395          31.000
G21  21111501.580   110941705.26008      1754.516          50.000    21111499.100    86448072.09307      1367.152          47.000
G23  24087939.240   126582986.06207     -1186.629          43.250    24087937.260    98636086.42405      -924.645          35.750
G26  24376142.400   128097532.91906     -3314.668          40.500    24376144.220    99816264.40108     -2582.859          48.000
G27  20962348.640   110157920.72708     -1487.891          50.750    20962348.320    85837358.77809     -1159.398          54.750
G30  24071253.100   126495281.67707      2139.031          42.250    24071253.160    98567731.03805      1666.773          35.250
R01  24442359.140   130658417.79006      -990.785          38.250    24442364.940   101623236.84005      -770.609          33.750
R02  23792847.180   126963187.92807      2300.340          42.000    23792852.780    98749173.26306      1789.145          38.000
R09  22098529.340   118004907.40107      3680.094          46.500    22098532.320    91781602.15107      2862.293          43.500
R15  21109714.360   112803926.10808     -3671.977          49.250    21109719.120    87736411.37707     -2855.984          45.750
R16  19389307.860   103574200.74407       226.867          47.750    19389311.760    80557733.13707       176.449          45.750
R17  21897918.900   117180226.14607     -3280.195          47.500    21897922.340    91140213.00507     -2551.266          43.500
R18  19523014.840   104215211.58908      -935.859          51.000    19523019.560    81056301.83608      -727.895          49.000
R19  20862985.940   111602916.64506      2116.383          39.750    20862989.320    86802291.29807      1646.070          44.500
> 2021 01 01 00 08 30.0000000  0 19
G01  22826446.720   119953790.88507      3630.246          44.000    22826448.660    93470506.60306      2828.762          40.750
G07  22309699.720   117238257.21308       577.914          48.000    22309697.380    91354485.83907       450.324          44.500
G08  20656441.440   108550356.56908       595.812          51.000    20656442.000    84584724.50409       464.266          54.750
G10  23186151.500   121844054.75307       565.914          46.750    23186152.220    94943425.43408       440.973          51.250
G16  22006424.680   115644558.51808     -2484.531          48.750    22006422.400    90112651.58807     -1936.004          44.000
G20  24068027.480   126478347.68006     -1589.906          38.500    24068024.420    98554538.95005     -1238.891          33.250
G21  21101527.680   110889293.45208      1739.871          50.500    21101525.140    86407231.73707      1355.738          47.000
G23  24094765.340   126618855.45207     -1204.242          43.250    24094762.840    98664036.62705      -938.371          34.500
G26  24395080.120   128197050.81206     -3319.297          39.750    24395081.820    99893810.79908     -2586.469          48.500
G27  20970862.780   110202663.20508     -1494.609          50.750    20970862.520    85872223.04309     -1164.629          54.750
G30  24059086.060   126431343.55306      2124.266          41.750    24059086.040    98517909.11506      1655.273          36.500
R01  24447980.460   130688467.33605     -1012.727          35.250    24447986.060   101646608.71505      -787.676          30.250
R02  23779958.920   126894413.50807      2285.141          42.500    23779964.600    98695682.07206      1777.332          38.500
R09  22077888.220   117894684.47007      3668.602          46.500    22077891.120    91695873.21507      2853.355          44.250
R15  21130369.800   112914301.68808     -3686.063          49.500    21130374.120    87822259.06907     -2866.938          44.750
R16  19388107.260   103567787.66708       201.172          48.000    19388111.300    80552745.18007       156.465          46.000
R17  21916315.180   117278669.57607     -3282.172          46.750    21916319.080    91216780.07807     -2552.805          44.000
R18  19528314.920   104243503.88508      -949.895          51.000    19528319.780    81078306.95108      -738.812          49.250
R19  20851156.460   111539636.40906      2102.371          40.750    20851159.740    86753073.36807      1635.176          44.750
> 2021 01 01 00 09  0.0000000  0 19
G01  22805747.140   119845013.51607      3622.090          44.000    22805748.880    93385745.03006      2822.406          40.250
G07  22306456.580   117221214.61808       558.793          48.250    22306454.200    91341205.88707       435.422          43.750
G08  20653066.200   108532619.71208       587.363          51.000    20653066.760    84570903.57509       457.684          54.750
G10  23182973.380   121827353.31707       548.105          46.500    23182974.180    94930411.33008       427.094          52.250
G16  22020639.660   115719258.85808     -2494.660          48.750    22020637.600    90170859.62607     -1943.895          43.000
G20  24077149.680   126526291.63906     -1606.184          38.000    24077148.380    98591897.83205     -1251.574          35.750
G21  21091639.980   110837332.14708      1724.852          50.000    21091637.500    86366742.41907      1344.039          47.250
G23  24101692.940   126655258.87707     -1222.066          43.500    24101689.920    98692402.97106      -952.258          36.000
G26  24414044.320   128296709.15506     -3323.465          39.250    24414045.920    99971466.61908     -2589.715          48.250
G27  20979417.260   110247617.72708     -1501.742          50.750    20979417.120    85907252.53209     -1170.191          54.750
G30  24047005.160   126367858.32907      2108.980          42.500    24047005.620    98468440.11306      1643.359          38.750
R01  24453727.700   130719190.70505     -1035.375          34.250    24453733.260   101670504.67905      -805.285          33.250
R02  23767156.820   126826100.75207      2269.535          43.250    23767163.120    98642549.92006      1765.191          37.500
R09  22057313.000   117784813.78507      3657.020          46.750    22057316.060    91610418.24607      2844.348          44.750
R15  21151106.780   113025114.41808     -3700.723          50.000    21151111.600    87908446.69807     -2878.344          46.000
R16  19387053.640   103562159.30008       174.941          48.000    19387057.640    80548367.56407       136.062          46.000
R17  21934724.620   117377181.44307     -3284.477          47.750    21934728.440    91293400.40607     -2554.594          43.250
R18  19533695.660   104272226.81708      -964.301          51.000    19533700.640    81100647.01108      -750.012          49.250
R19  20839407.740   111476788.09106      2088.203          40.500    20839410.780    86704191.35107      1624.156          44.750
> 2021 01 01 00 09 30.0000000  0 19
G01  22785093.220   119736476.87007      3613.949          44.500    22785095.060    93301171.02406      2816.063          40.250
G07  22303322.260   117204743.89908       539.559          48.000    22303319.780    91328371.54607       420.430          43.750
G08  20649738.740   108515133.73208       578.605          51.000    20649739.280    84557278.13709       450.859          54.750
G10  23179894.100   121811172.60607       530.277          45.750    23179895.420    94917803.00908       413.203          52.500
G16  22034912.300   115794261.82208     -2505.078          48.750    22034910.020    90229303.48607     -1952.012          43.500
G20  24086364.580   126574717.33706     -1622.168          40.750    24086363.860    98629632.06106     -1264.027          37.000
G21  21081836.840   110785817.00608      1709.590          50.750    21081834.240    86326600.76507      1332.145          46.750
G23  24108721.080   126692190.60707     -1240.113          42.500    24108718.220    98721180.94706      -966.320          36.750
G26  24433034.120   128396501.81606     -3328.656          39.500    24433035.640   100049227.13307     -2593.762          46.750
G27  20988011.100   110292778.69208     -1508.969          50.750    20988010.980    85942442.88609     -1175.824          54.750
G30  24035009.880   126304823.09606      2093.598          41.750    24035010.700    98419321.76406      1631.371          37.000
R01  24459599.700   130750581.70605     -1057.980          34.750    24459605.900   101694919.86305      -822.879          31.750
R02  23754441.740   126758248.77007      2254.184          43.000    23754447.960    98589776.15906      1753.250          39.250
R09  22036803.400   117675294.39707      3644.660          46.750    22036806.580    91525236.50607      2834.730          44.500
R15  21171924.100   113136356.40908     -3715.332          49.250    21171928.820    87994968.25907     -2889.707          45.250
R16  19386146.120   103557311.81208       148.375          48.000    19386150.180    80544597.28707       115.398          46.250
R17  21953145.580   117475754.74207     -3286.957          47.500    21953149.020    91370068.53307     -2556.527          44.000
R18  19539155.760   104301373.22008      -978.687          51.000    19539160.820    81123316.43608      -761.207          49.250
R19  20827738.760   111414366.78806      2073.375          40.750    20827741.860    86655641.48407      1612.625          45.000
> 2021 01 01 00 10  0.0000000  0 19
G01  22764485.280   119628181.37007      3605.551          44.750    22764487.140    93216784.91406      2809.520          40.000
G07  22300296.500   117188843.75408       520.312          48.000    22300294.060    91315981.81707       405.523          43.000
G08  20646458.680   108497896.70608       570.227          51.250    20646459.220    84543846.69209       444.332          54.750
G10  23176913.800   121795511.93307       513.246          46.750    23176915.440    94905599.92808       399.934          52.000
G16  22049242.100   115869565.09208     -2515.156          49.000    22049239.760    90287981.35807     -1959.863          43.000
G20  24095671.400   126623621.46407     -1638.141          42.750    24095670.440    98667739.15406     -1276.473          37.250
G21  21072118.460   110734746.73708      1694.805          50.000    21072116.020    86286805.76107      1320.629          47.250
G23  24115848.760   126729647.73806     -1257.359          41.500    24115846.360    98750368.33206      -979.762          36.500
G26  24452048.920   128496425.70006     -3332.941          40.250    24452050.680   100127089.89407     -2597.102          46.500
G27  20996643.820   110338143.51908     -1515.648          51.000    20996643.620    85977792.08409     -1181.027          54.750
G30  24023100.420   126242238.05907      2078.574          43.250    24023101.080    98370554.21706      1619.664          36.000
R01  24465596.320   130782637.41406     -1080.004          36.750    24465602.500   101719852.02104      -840.008          28.750
R02  23741812.980   126690859.47407      2238.535          42.000    23741819.040    98537362.25106      1741.082          38.250
R09  22016360.200   117566128.60907      3632.762          46.500    22016363.200    91440329.78007      2825.477          44.250
R15  21192821.020   113248022.06008     -3729.316          49.250    21192825.760    88081819.30007     -2900.582          45.750
R16  19385384.560   103553243.85808       122.488          48.000    19385388.680    80541433.32007        95.266          46.000
R17  21971576.840   117574385.52307     -3288.652          46.250    21971580.860    91446781.32807     -2557.844          44.500
R18  19544694.340   104330939.09208      -992.527          50.750    19544699.520    81146312.10308      -771.969          49.250
R19  20816149.120   111352370.73506      2059.398          40.500    20816152.360    86607422.35007      1601.754          45.000
> 2021 01 01 00 10 30.0000000  0 19
G01  22743924.420   119520133.58407      3598.113          44.250    22743926.260    93132591.83406      2803.641          40.250
G07  22297380.240   117173519.03608       501.574          48.250    22297377.960    91304040.47307       390.832          42.750
G08  20643226.840   108480912.95908       562.242          51.000    20643227.360    84530612.60409       438.105          54.750
G10  23174034.240   121780376.95707       496.105          47.500    23174034.920    94893806.43608       386.570          50.750
G16  22063629.660   115945171.98908     -2524.785          48.500    22063627.360    90346895.81207     -1967.367          43.250
G20  24105070.020   126673007.36007     -1653.926          43.000    24105068.220    98706221.67506     -1288.773          36.000
G21  21062485.980   110684126.63608      1680.152          50.750    21062483.300    86247361.51307      1309.207          46.750
G23  24123076.820   126767633.80406     -1274.492          40.500    24123075.380    98779967.82706      -993.117          39.250
G26  24471089.460   128596483.84306     -3336.809          40.000    24471091.180   100205057.27207     -2600.113          47.250
G27  21005316.100   110383716.04308     -1522.160          50.750    21005315.800    86013303.13509     -1186.102          54.750
G30  24011277.960   126180109.58207      2064.117          42.250    24011277.980    98322142.40505      1608.398          35.750
R01  24471717.780   130815360.97305     -1101.484          32.500    24471723.960   101745303.77805      -856.707          30.750
R02  23729272.620   126623941.00306      2222.875          40.500    23729278.340    98485314.53706      1728.898          38.000
R09  21995984.780   117457324.78207      3621.148          46.750    21995987.800    91355704.60207      2816.449          44.500
R15  21213797.180   113360112.84108     -3743.176          49.750    21213801.680    88169001.02507     -2911.359          45.000
R16  19384770.120   103549961.59507        96.766          47.750    19384774.300    80538880.44307        75.258          45.750
R17  21990019.620   117673076.27507     -3290.184          47.750    21990023.680    91523540.78107     -2559.031          43.250
R18  19550311.940   104360926.50208     -1006.191          50.750    19550317.080    81169635.64308      -782.594          49.000
R19  20804639.980   111290804.97906      2045.410          40.250    20804643.240    86559537.90207      1590.875          44.750
> 2021 01 01 00 11  0.0000000  0 18
G01  22723410.960   119412334.44307      3589.020          44.250    22723412.800    93048592.50506      2796.633          40.250
G07  22294573.180   117158768.62908       481.992          48.000    22294571.080    91292546.64007       375.574          43.750
G08  20640042.880   108464180.77608       553.512          51.000    20640043.360    84517574.54009       431.309          54.750
G10  23171254.520   121765767.44107       478.176          47.250    23171254.140    94882422.35308       372.602          50.500
G16  22078074.500   116021080.32508     -2535.543          48.500    22078072.080    90406045.16007     -1975.750          42.500
G20  24114559.360   126722872.23406     -1669.914          41.500    24114556.860    98745077.44105     -1301.227          32.250
G21  21052938.540   110633955.74508      1664.793          50.250    21052935.980    86208267.32507      1297.242          47.500
G23  24130404.840   126806146.43206     -1292.469          39.250    24130404.480    98809977.64006     -1007.121          37.750
G26  24490155.060   128696673.52206     -3342.234          39.750    24490156.820   100283127.15507     -2604.344          47.750
G27  21014027.500   110429494.15008     -1529.512          50.750    21014027.100    86048974.38509     -1191.828          54.750
G30  23999542.180   126118438.27807      2047.879          42.500    23999541.820    98274086.83506      1595.750          37.750
R02  23716820.860   126557495.61207      2206.543          43.000    23716826.440    98433634.80106      1716.195          37.500
R09  21975677.460   117348885.52507      3608.523          46.750    21975680.580    91271362.96607      2806.625          44.500
R15  21234851.940   113472623.81408     -3757.316          49.250    21234856.860    88256509.51107     -2922.359          45.500
R16  19384302.520   103547463.73808        70.160          48.000    19384306.580    80536937.66207        54.570          46.000
R17  22008472.860   117771823.37607     -3292.539          47.000    22008476.380    91600344.10807     -2560.863          42.500
R18  19556008.020   104391332.14808     -1020.461          51.000    19556013.100    81193284.47608      -793.691          49.250
R19  20793211.080   111229668.04406      2031.016          40.750    20793214.340    86511986.97407      1579.676          44.750
> 2021 01 01 00 11 30.0000000  0 19
G01  22702945.160   119304786.10807      3580.789          44.750    22702947.080    92964788.62306      2790.223          39.750
G07  22291875.620   117144593.02908       462.641          48.500    22291873.500    91281500.71007       360.496          43.000
G08  20636906.780   108447700.18608       545.047          51.250    20636907.220    84504732.51109       424.707          54.500
G10  23168574.400   121751684.60807       460.434          46.500    23168574.300    94871448.71708       358.777          51.500
G16  22092576.680   116097289.83708     -2545.293          48.500    22092574.180    90465429.18007     -1983.348          43.000
G20  24124138.960   126773214.68006     -1685.855          39.500    24124135.980    98784305.35405     -1313.648          31.250
G21  21043477.180   110584234.65208      1649.660          50.500    21043474.640    86169523.61007      1285.445          47.000
G23  24137833.060   126845184.68006     -1310.199          41.000    24137833.220    98840396.95806     -1020.937          37.750
G26  24509245.480   128796993.63906     -3346.266          40.250    24509247.160   100361298.65307     -2607.484          47.000
G27  21022777.800   110475477.28108     -1536.152          51.000    21022777.440    86084805.39709     -1197.004          54.750
G30  23987893.720   126057226.15307      2032.453          43.250    23987893.880    98226389.11206      1583.727          37.500
R01  24484334.580   130882796.84205     -1146.160          35.250    24484340.600   101797757.58705      -891.457          31.500
R02  23704458.440   126491527.81306      2190.902          41.500    23704464.320    98382326.50306      1704.031          38.250
R09  21955439.380   117240815.13107      3596.059          46.750    21955442.560    91187308.22307      2796.930          44.750
R15  21255985.140   113585551.84108     -3771.281          49.000    21255989.580    88344342.45807     -2933.219          44.750
R16  19383982.040   103545751.53308        43.770          48.000    19383986.080    80535605.94407        34.043          46.000
R17  22026936.340   117870625.08007     -3294.371          46.000    22026940.320    91677189.85707     -2562.293          44.500
R18  19561781.940   104422153.30608     -1034.410          50.750    19561786.980    81217256.48808      -804.543          49.250
R19  20781862.320   111168960.13506      2016.461          40.750    20781865.600    86464769.72407      1568.359          45.000
> 2021 01 01 00 12  0.0000000  0 19
G01  22682527.480   119197490.36607      3572.035          44.500    22682529.440    92881181.55806      2783.402          41.500
G07  22289287.620   117130992.17008       443.566          48.500    22289285.340    91270902.61707       345.633          43.250
G08  20633818.360   108431470.22708       536.793          51.250    20633818.740    84492085.79009       418.277          54.750
G10  23165994.700   121738129.04507       442.789          47.000    23165995.360    94860885.96808       345.031          52.250
G16  22107135.940   116173799.04908     -2555.410          48.750    22107133.580    90525046.73107     -1991.234          42.000
G20  24133808.220   126824032.71806     -1701.523          37.750    24133805.560    98823903.81904     -1325.867          26.500
G21  21034100.920   110534963.23708      1634.781          50.750    21034098.320    86131130.31407      1273.852          47.500
G23  24145361.720   126884746.92807     -1327.414          42.750    24145361.800    98871224.69206     -1034.348          37.000
G26  24528360.260   128897442.31506     -3350.262          39.750    24528361.840   100439570.33607     -2610.594          46.750
G27  21031566.760   110521664.26608     -1543.000          51.000    21031566.520    86120795.24709     -1202.340          54.750
G30  23976333.420   125996474.61407      2017.234          43.250    23976333.280    98179050.22206      1571.867          36.000
R01  24490829.000   130917512.45305     -1168.027          35.250    24490834.740   101824758.60105      -908.469          31.000
R02  23692186.360   126426040.71107      2174.910          43.250    23692192.100    98331392.11706      1691.594          38.500
R09  21935271.080   117133117.06707      3583.570          47.000    21935274.160    91103543.07707      2787.223          44.250
R15  21277195.380   113698893.22108     -3785.031          49.500    21277200.280    88432496.81507     -2943.918          45.500
R16  19383808.720   103544825.53308        17.699          48.000    19383812.800    80534885.70807        13.762          45.750
R17  22045409.260   117969478.83007     -3296.059          47.500    22045413.500    91754076.06107     -2563.602          43.000
R18  19567633.200   104453387.51308     -1048.035          51.000    19567638.160    81241549.76208      -815.141          49.000
R19  20770593.660   111108680.95606      2002.090          40.750    20770597.020    86417885.93907      1557.180          45.000
> 2021 01 01 00 12 30.0000000  0 19
G01  22662157.720   119090447.32407      3563.129          44.250    22662159.800    92797771.43706      2776.465          41.250
G07  22286808.540   117117963.91508       424.043          48.000    22286806.260    91260750.73007       330.422          44.250
G08  20630777.280   108415489.07108       528.023          51.250    20630777.580    84479632.93709       411.441          54.750
G10  23163515.540   121725099.89907       425.008          47.500    23163516.340    94850733.41008       331.176          52.000
G16  22121751.560   116250605.01108     -2565.563          48.000    22121749.360    90584895.51407     -1999.145          42.750
G20  24143567.800   126875323.04706     -1717.730          39.000    24143565.540    98863870.24705     -1338.504          32.500
G21  21024810.320   110486140.01108      1619.449          50.250    21024807.820    86093086.24607      1261.910          47.500
G23  24152990.020   126924830.16507     -1344.941          44.250    24152988.940    98902458.37905     -1048.008          35.250
G26  24547498.800   128998016.16906     -3355.270          39.250    24547500.260   100517939.56007     -2614.500          47.250
G27  21040393.960   110568052.41908     -1550.016          50.750    21040393.900    86156941.84909     -1207.809          54.750
G30  23964860.520   125936183.57407      2001.211          42.750    23964860.700    98132070.18606      1559.383          38.500
R01  24497446.420   130952886.79106     -1191.172          38.250    24497451.960   101852271.95205      -926.473          30.500
R02  23680004.500   126361035.93007      2158.133          43.500    23680009.780    98280832.82806      1678.547          38.000
R09  21915172.760   117025793.36807      3570.641          47.000    21915175.600    91020069.08507      2777.164          44.750
R15  21298481.840   113812642.49908     -3798.852          48.750    21298486.560    88520968.47607     -2954.668          45.000
R16  19383782.220   103544684.20808        -8.883          48.000    19383786.340    80534775.78107        -6.914          45.750
R17  22063891.840   118068380.55007     -3298.129          46.750    22063895.380    91830999.65507     -2565.215          43.750
R18  19573560.900   104485030.04708     -1062.102          51.000    19573565.920    81266160.62208      -826.082          49.000
R19  20759404.740   111048828.44206      1987.500          40.750    20759408.240    86371334.00407      1545.832          45.000
> 2021 01 01 00 13  0.0000000  0 19
G01  22641837.080   118983661.30107      3555.004          44.250    22641838.980    92714561.56206      2770.133          41.000
G07  22284438.740   117105510.81507       405.305          47.750    22284436.620    91251047.00207       315.797          44.500
G08  20627783.880   108399758.65508       519.980          51.000    20627784.160    84467375.46209       405.176          54.750
G10  23161137.460   121712600.31908       407.586          48.000    23161137.540    94840993.47108       317.594          51.500
G16  22136423.800   116327708.70908     -2575.418          48.250    22136421.640    90644976.28307     -2006.824          42.750
G20  24153418.360   126927086.12306     -1733.617          41.500    24153416.220    98904205.12006     -1350.867          36.750
G21  21015605.360   110437767.81108      1604.609          50.750    21015602.560    86055393.61907      1250.340          47.500
G23  24160717.620   126965435.43807     -1362.492          43.750    24160715.400    98934098.90506     -1061.684          36.750
G26  24566661.380   129098716.06206     -3359.297          39.250    24566662.760   100596406.98907     -2617.633          47.250
G27  21049259.720   110614643.21708     -1556.684          50.500    21049259.860    86193246.35009     -1213.004          54.750
G30  23953475.860   125876357.06607      1985.930          42.250    23953476.300    98085452.14406      1547.473          37.500
R01  24504187.320   130988920.61006     -1212.395          37.500    24504193.120   101880298.26605      -942.973          31.750
R02  23667914.020   126296518.85207      2142.313          42.250    23667919.080    98230652.85606      1666.238          37.000
R09  21895145.680   116918849.90707      3558.113          47.250    21895148.480    90936890.84407      2767.418          45.000
R15  21319844.680   113926798.19408     -3812.207          49.250    21319849.620    88609756.21207     -2965.055          45.000
R16  19383903.200   103545330.42408       -34.988          48.000    19383907.260    80535278.39207       -27.215          46.000
R17  22082383.000   118167330.37307     -3299.340          47.500    22082386.900    91907960.57907     -2566.152          43.000
R18  19579565.160   104517081.10208     -1075.410          51.000    19579570.120    81291089.21808      -836.434          49.250
R19  20748296.100   110989404.39006      1973.570          41.250    20748299.520    86325115.31607      1535.000          45.250
> 2021 01 01 00 13 30.0000000  0 19
G01  22621566.140   118877136.17507      3546.254          44.500    22621567.940    92631554.98406      2763.297          41.500
G07  22282178.820   117093634.75108       386.195          48.250    22282176.660    91241792.91907       300.926          44.250
G08  20624838.460   108384280.44508       511.672          51.000    20624838.760    84455314.51709       398.703          55.000
G10  23158860.280   121700633.10807       389.922          46.750    23158859.700    94831668.35808       303.832          51.000
G16  22151153.160   116405111.39308     -2585.145          48.250    22151150.760    90705290.05507     -2014.402          43.250
G20  24163359.380   126979322.37907     -1749.043          42.500    24163357.300    98944908.68405     -1362.895          34.500
G21  21006486.600   110389848.32308      1589.629          50.000    21006484.040    86018053.77408      1238.672          48.000
G23  24168544.360   127006563.45107     -1379.855          43.000    24168541.160    98966146.77005     -1075.211          33.500
G26  24585847.980   129199542.31206     -3362.773          39.750    24585849.320   100674972.88807     -2620.348          46.250
G27  21058164.480   110661437.73908     -1563.363          50.500    21058164.540    86229709.60609     -1218.211          55.000
G30  23942180.200   125816998.69707      1970.438          43.250    23942180.600    98039198.87006      1535.402          37.500
R01  24511051.620   131025614.50005     -1234.680          32.000    24511057.680   101908837.96704      -960.301          28.750
R02  23655915.860   126232495.48306      2125.609          41.750    23655921.240    98180856.96106      1653.250          38.750
R09  21875190.980   116812292.93307      3545.379          46.750    21875193.840    90854013.20607      2757.512          44.750
R15  21341283.120   114041359.07308     -3825.645          49.000    21341287.580    88698859.14107     -2975.504          44.750
R16  19384172.100   103546766.65007       -61.141          47.750    19384176.100    80536395.44607       -47.559          45.750
R17  22100882.980   118266328.18307     -3300.902          45.750    22100886.540    91984958.88907     -2567.371          42.750
R18  19585645.860   104549540.13908     -1088.836          50.750    19585650.740    81316335.14008      -846.875          49.000
R19  20737267.840   110930410.96706      1959.223          41.000    20737271.240    86279231.56607      1523.840          44.750
> 2021 01 01 00 14  0.0000000  0 19
G01  22601344.160   118770868.88707      3537.848          44.250    22601345.960    92548749.32006      2756.762          41.750
G07  22280027.860   117082330.94907       367.363          47.750    22280025.500    91232984.75307       286.254          44.250
G08  20621940.000   108369049.25808       503.641          51.000    20621940.360    84443446.06409       392.441          54.750
G10  23156682.920   121689194.01007       372.531          46.000    23156682.440    94822754.79108       290.285          51.500
G16  22165938.140   116482806.89808     -2594.637          48.500    22165935.700    90765831.99207     -2021.797          42.500
G20  24173388.920   127032024.99307     -1764.402          42.250    24173386.580    98985975.64405     -1374.863          35.250
G21  20997453.260   110342377.10408      1574.973          50.500    20997450.340    85981063.21007      1227.246          47.750
G23  24176469.020   127048207.70407     -1396.770          42.000    24176465.900    98998596.87306     -1088.391          36.500
G26  24605057.400   129300488.50406     -3366.656          40.000    24605058.700   100753632.26407     -2623.367          47.250
G27  21067106.960   110708430.09508     -1569.688          50.750    21067106.880    86266327.01209     -1223.137          55.000
G30  23930973.240   125758105.11007      1955.340          42.750    23930973.240    97993307.76306      1523.641          36.750
R01  24518037.940   131062961.72605     -1256.043          33.250    24518043.880   101937885.79905      -976.922          30.000
R02  23644009.840   126168964.35006      2109.367          41.750    23644015.740    98131443.86706      1640.617          37.250
R09  21855308.320   116706120.89407      3532.680          47.000    21855311.280    90771434.97007      2747.641          44.750
R15  21362795.860   114156316.35308     -3838.328          48.750    21362800.560    88788270.32107     -2985.371          44.750
R16  19384588.040   103548988.24108       -87.117          48.000    19384591.980    80538123.34207       -67.762          45.750
R17  22119391.020   118365366.73607     -3301.758          47.250    22119394.600    92061988.86907     -2568.039          43.750
R18  19591801.560   104582399.39508     -1101.977          51.000    19591806.280    81341892.34808      -857.094          49.000
R19  20726319.220   110871843.02406      1945.141          41.000    20726322.480    86233678.72307      1512.887          45.000
> 2021 01 01 00 14 30.0000000  0 19
G01  22581172.720   118664867.10007      3528.605          44.500    22581174.460    92466150.55506      2749.563          40.750
G07  22277986.680   117071604.87708       347.594          48.000    22277984.440    91224626.76607       270.848          44.500
G08  20619089.580   108354070.57608       494.930          51.000    20619090.040    84431774.35509       385.656          54.750
G10  23154607.800   121678289.60907       354.289          47.500    23154607.720    94814257.87408       276.070          52.250
G16  22180779.760   116560799.93008     -2604.824          48.250    22180777.300    90826605.77707     -2029.738          42.250
G20  24183507.620   127085197.87306     -1780.648          41.000    24183504.940    99027409.01905     -1387.527          35.250
G21  20988506.060   110295360.06308      1559.559          50.250    20988503.460    85944426.57708      1215.242          48.250
G23  24184492.560   127090372.75306     -1414.883          40.250    24184489.800    99031452.77506     -1102.508          36.250
G26  24624290.440   129401558.80106     -3371.359          38.750    24624291.800   100832388.34607     -2627.039          47.000
G27  21076088.020   110755625.16108     -1576.746          50.750    21076087.800    86303102.38209     -1228.637          54.750
G30  23919856.400   125699683.70307      1939.352          43.500    23919855.880    97947784.57306      1511.180          37.000
R01  24525147.860   131100966.28105     -1277.668          35.750    24525153.500   101967444.89105      -993.750          32.750
R02  23632198.260   126105934.45807      2092.395          43.250    23632204.100    98082420.64706      1627.414          38.750
R09  21835499.640   116600343.80307      3519.184          47.250    21835502.500    90689163.89307      2737.141          44.750
R15  21384383.280   114271672.35208     -3852.113          49.000    21384387.800    88877991.67007     -2996.094          45.500
R16  19385152.140   103552001.58608      -113.859          48.000    19385156.040    80540467.05007       -88.563          46.000
R17  22137906.920   118464449.42907     -3303.777          46.250    22137910.480    92139053.18007     -2569.609          43.250
R18  19598032.780   104615662.27408     -1115.660          51.000    19598037.440    81367763.46908      -867.738          49.250
R19  20715450.940   110813706.19706      1930.344          41.000    20715454.340    86188461.20907      1501.379          45.250
> 2021 01 01 00 15  0.0000000  0 19
G01  22561052.720   118559135.48907      3520.086          44.750    22561054.200    92383762.30506      2742.926          40.750
G07  22276056.020   117061459.39808       328.754          48.500    22276053.860    91216721.19307       256.172          43.250
G08  20616287.640   108339346.48408       486.816          51.000    20616288.140    84420301.03909       379.332          54.750
G10  23152635.440   121667923.45808       336.699          48.000    23152635.960    94806180.37808       262.363          52.500
G16  22195678.140   116639091.89208     -2614.488          48.250    22195675.700    90887612.48006     -2037.266          41.750
G20  24193715.380   127138842.22106     -1795.762          39.250    24193712.720    99069209.82405     -1399.297          32.500
G21  20979646.140   110248800.22808      1544.535          50.250    20979643.360    85908146.17607      1203.531          47.250
G23  24192614.260   127133059.90806     -1431.273          38.750    24192613.380    99064715.40706     -1115.281          38.250
G26  24643547.260   129502754.31406     -3374.973          39.250    24643548.620   100911241.97607     -2629.852          47.000
G27  21085107.900   110803024.88508     -1583.102          50.750    21085107.620    86340037.21809     -1233.590          54.750
G30  23908829.640   125641738.81607      1923.633          42.250    23908829.380    97902632.70006      1498.930          38.500
R01  24532380.680   131139633.31105     -1300.016          35.750    24532386.220   101997516.09305     -1011.133          32.250
R02  23620481.700   126043412.25107      2075.676          42.000    23620487.660    98033792.27606      1614.414          39.750
R09  21815766.060   116494967.85107      3506.051          47.000    21815769.000    90607204.83307      2726.926          45.500
R15  21406045.000   114387426.00308     -3864.754          49.250    21406049.980    88968022.23107     -3005.918          44.500
R16  19385865.020   103555809.45207      -139.969          47.750    19385868.880    80543428.71407      -108.867          46.000
R17  22156431.460   118563577.39307     -3304.785          45.250    22156434.960    92216152.69907     -2570.391          43.750
R18  19604339.700   104649329.20908     -1128.770          50.750    19604344.440    81393948.87108      -877.934          49.250
R19  20704664.000   110756002.79306      1916.680          40.750    20704667.320    86143580.80307      1490.746          45.250
> 2021 01 01 00 15 30.0000000  0 19
G01  22540982.920   118453668.24607      3511.203          44.500    22540984.560    92301580.05606      2736.027          40.750
G07  22274234.400   117051886.47608       309.664          48.250    22274232.260    91209261.76307       241.297          43.750
G08  20613532.660   108324869.30508       478.531          51.000    20613533.240    84409020.11409       372.879          54.750
G10  23150763.980   121658088.43007       318.891          47.000    23150764.640    94798516.73608       248.480          51.750
G16  22210631.980   116717674.59408     -2624.215          48.500    22210629.580    90948845.73407     -2044.848          42.250
G20  24204010.940   127192948.48906     -1810.895          39.000    24204008.680    99111370.50204     -1411.090          27.000
G21  20970871.540   110202690.05108      1529.477          50.750    20970868.900    85872216.18608      1191.801          48.000
G23  24200834.380   127176260.02306     -1448.773          41.000    24200834.660    99098377.78706     -1128.918          39.250
G26  24662826.160   129604065.71006     -3378.781          39.500    24662827.780   100990185.89807     -2632.820          47.000
G27  21094165.000   110850620.59208     -1589.813          50.500    21094164.800    86377124.77209     -1238.820          54.750
G30  23897892.140   125584264.32707      1908.070          42.750    23897892.500    97857847.40506      1486.805          38.250
R01  24539734.560   131178945.04805     -1320.797          34.750    24539740.220   102028091.84804     -1027.289          29.500
R02  23608859.380   125981393.13207      2059.016          43.000    23608865.340    97985555.20506      1601.488          38.750
R09  21796107.040   116389989.25307      3492.715          47.250    21796110.140    90525554.82307      2716.555          45.500
R15  21427778.920   114503565.82908     -3877.648          48.750    21427783.720    89058353.22007     -3015.953          45.250
R16  19386725.160   103560404.21008      -166.371          48.000    19386729.080    80547002.40907      -129.398          46.000
R17  22174962.400   118662740.19107     -3305.965          47.250    22174966.080    92293279.29907     -2571.309          43.000
R18  19610720.260   104683389.50408     -1141.887          50.750    19610725.140    81420440.21208      -888.137          49.250
R19  20693956.400   110698724.74906      1901.801          40.500    20693959.860    86099031.22607      1479.180          45.250
> 2021 01 01 00 16  0.0000000  0 18
G01  22520964.400   118348470.37407      3502.230          45.000    22520966.060    92219607.70306      2729.008          41.000
G07  22272522.340   117042889.03308       290.352          48.000    22272520.060    91202250.75807       226.242          43.750
G08  20610825.200   108310641.37608       470.059          51.000    20610825.720    84397933.41309       366.277          54.750
G10  23148993.780   121648788.33907       301.152          46.500    23148994.020    94791269.90408       234.660          50.250
G16  22225641.380   116796549.62308     -2634.270          48.500    22225639.120    91010306.78807     -2052.680          42.500
G20  24214395.280   127247518.00407     -1826.809          42.000    24214392.280    99153892.25304     -1423.488          28.500
G21  20962183.260   110157032.66608      1514.309          50.250    20962180.620    85836639.01107      1179.977          47.750
G23  24209153.380   127219974.65807     -1465.961          42.250    24209153.560    99132441.12506     -1142.313          39.750
G26  24682127.620   129705494.60206     -3382.918          39.500    24682129.160   101069221.38908     -2636.039          48.250
G27  21103259.820   110898414.55408     -1596.473          50.500    21103259.740    86414366.80509     -1244.008          54.750
G30  23887045.580   125527264.86007      1891.934          43.000    23887045.900    97813432.23706      1474.234          38.000
R02  23597332.480   125919883.73207      2041.527          42.750    23597338.200    97937714.57006      1587.855          38.250
R09  21776523.600   116285414.68207      3478.844          47.250    21776526.740    90444219.04607      2705.766          45.500
R15  21449585.300   114620091.31208     -3890.645          48.750    21449590.060    89148984.14707     -3026.063          44.750
R16  19387733.340   103565789.47608      -192.840          48.000    19387737.240    80551190.94007      -149.992          46.250
R17  22193500.060   118761938.98907     -3307.273          46.250    22193503.240    92370433.93007     -2572.328          42.750
R18  19617174.700   104717843.87908     -1155.090          51.000    19617179.680    81447238.06608      -898.402          49.250
R19  20683328.820   110641874.95106      1887.996          41.250    20683332.320    86054814.73307      1468.438          45.250
> 2021 01 01 00 16 30.0000000  0 19
G01  22500996.800   118243539.64107      3493.527          45.250    22500998.320    92137843.49706      2722.227          41.500
G07  22270918.920   117034463.16708       271.195          48.500    22270916.620    91195685.13807       211.316          43.250
G08  20608164.320   108296658.43808       461.883          51.000    20608164.820    84387037.61809       359.910          54.750
G10  23147324.820   121640019.81007       283.262          47.000    23147324.980    94784437.28808       220.723          51.250
G16  22240705.360   116875711.58308     -2643.625          48.750    22240703.180    91071991.41307     -2059.973          42.250
G20  24224866.860   127302544.81306     -1842.066          41.500    24224863.360    99196770.32305     -1435.375          34.500
G21  20953580.360   110111824.11308      1499.344          50.750    20953577.640    85801411.56907      1168.316          47.750
G23  24217569.620   127264198.22507     -1482.637          44.000    24217569.000    99166901.05006     -1155.305          38.500
G26  24701450.120   129807035.23306     -3386.711          39.000    24701451.820   101148343.93507     -2639.000          47.000
G27  21112391.500   110946401.75908     -1602.961          50.500    21112391.460    86451759.41609     -1249.063          54.750
G30  23876288.900   125470737.86707      1876.281          42.500    23876289.520    97769385.22206      1462.035          39.000
R01  24554806.540   131259514.12505     -1363.316          35.500    24554812.220   102090755.98005     -1060.359          32.250
R02  23585900.780   125858882.88107      2024.703          42.750    23585906.320    97890269.45606      1574.766          38.250
R09  21757015.620   116181244.10007      3465.320          47.250    21757018.860    90363197.49407      2695.250          45.250
R15  21471461.900   114736995.05508     -3903.242          49.250    21471466.860    89239909.25907     -3035.855          45.250
R16  19388888.680   103571961.52008      -218.871          48.000    19388892.620    80555991.41207      -170.234          46.250
R17  22212043.180   118861167.51307     -3308.176          45.500    22212046.820    92447611.63507     -2573.031          44.000
R18  19623701.760   104752685.55808     -1167.953          51.000    19623706.740    81474337.15108      -908.410          49.250
R19  20672780.860   110585449.16206      1873.883          40.500    20672784.060    86010928.01807      1457.461          45.500
> 2021 01 01 00 17  0.0000000  0 19
G01  22481082.660   118138890.07907      3483.746          45.250    22481084.240    92056298.40306      2714.602          41.000
G07  22269426.620   117026620.92508       251.762          48.250    22269424.320    91189574.29807       196.172          43.500
G08  20605552.280   108282932.04408       453.273          51.000    20605552.780    84376341.71409       353.195          54.750
G10  23145760.180   121631795.59307       265.172          47.750    23145760.280    94778028.80708       206.625          52.000
G16  22255826.440   116955171.70208     -2653.508          49.250    22255823.860    91133908.39607     -2067.672          42.250
G20  24235427.320   127358039.14306     -1857.418          41.000    24235424.140    99240012.66205     -1447.344          35.250
G21  20945065.080   110067076.54808      1483.949          50.500    20945062.540    85766543.37007      1156.324          47.500
G23  24226084.780   127308941.43407     -1499.840          44.000    24226083.280    99201765.87506     -1168.711          36.250
G26  24720795.780   129908698.06906     -3390.719          39.500    24720797.660   101227561.69307     -2642.121          46.250
G27  21121562.180   110994593.47408     -1609.699          50.750    21121562.000    86489311.40409     -1254.316          54.750
G30  23865624.400   125414696.98107      1860.230          43.250    23865625.480    97725717.03206      1449.527          38.250
R01  24562525.100   131300773.74605     -1386.078          35.750    24562531.140   102122848.59105     -1078.066          32.500
R02  23574567.660   125798406.68506      2007.238          41.750    23574573.080    97843232.39206      1561.180          38.500
R09  21737586.500   116077493.37607      3451.430          47.500    21737589.520    90282502.48507      2684.441          45.250
R15  21493411.080   114854285.14908     -3915.980          48.750    21493416.260    89331134.85307     -3045.766          44.500
R16  19390193.660   103578932.49908      -245.562          48.000    19390197.640    80561413.27507      -190.996          46.000
R17  22230593.840   118960436.04507     -3309.418          47.500    22230597.720    92524820.46007     -2573.992          42.750
R18  19630303.300   104787924.42108     -1181.105          51.000    19630308.200    81501745.14508      -918.641          49.250
R19  20662314.200   110529459.13406      1859.332          40.500    20662317.380    85967380.23707      1446.148          45.500
> 2021 01 01 00 17 30.0000000  0 19
G01  22461219.640   118034509.63007      3474.984          45.500    22461221.220    91974963.00206      2707.777          41.000
G07  22268042.640   117019347.78508       232.910          48.000    22268040.220    91183906.89607       181.484          44.250
G08  20602986.380   108269448.02208       445.371          51.000    20602986.860    84365834.68009       347.039          54.750
G10  23144296.460   121624102.42407       247.367          47.000    23144296.880    94772034.14808       192.754          52.500
G16  22271001.320   117034914.85608     -2662.773          49.000    22270998.540    91196045.91307     -2074.891          43.000
G20  24246073.400   127413985.32806     -1872.250          40.000    24246070.740    99283607.08005     -1458.895          35.000
G21  20936635.080   110022776.18908      1469.188          50.500    20936632.280    85732023.61408      1144.820          48.000
G23  24234695.280   127354188.97307     -1516.496          42.500    24234693.260    99237023.72105     -1181.688          35.750
G26  24740162.000   130010467.64806     -3393.961          40.000    24740163.640   101306862.66007     -2644.648          46.250
G27  21130768.980   111042974.98808     -1615.988          50.500    21130768.740    86527011.27709     -1259.215          55.000
G30  23855050.560   125359129.87907      1844.680          43.750    23855051.160    97682417.99806      1437.414          38.000
R01  24570362.860   131342672.76806     -1407.230          38.250    24570369.000   102155436.67704     -1094.512          28.000
R02  23563330.360   125738444.51406      1989.867          41.000    23563336.160    97796595.14306      1547.672          39.250
R09  21718234.180   115974152.26307      3437.750          47.500    21718237.100    90202126.06807      2673.805          45.500
R15  21515429.720   114971943.87008     -3928.020          48.750    21515434.340    89422647.23107     -3055.129          45.500
R16  19391645.540   103586688.26208      -271.645          48.000    19391649.500    80567445.53107      -211.281          46.000
R17  22249148.900   119059728.17907     -3310.047          45.250    22249152.280    92602047.69207     -2574.484          42.500
R18  19636976.040   104823543.73608     -1193.586          51.000    19636980.920    81529449.05508      -928.344          49.250
R19  20651926.360   110473890.65906      1845.043          41.250    20651929.420    85924160.32907      1435.031          45.250
> 2021 01 01 00 18  0.0000000  0 19
G01  22441409.940   117930409.44607      3465.277          46.000    22441411.600    91893845.97706      2700.215          40.500
G07  22266768.660   117012652.76208       213.207          48.000    22266766.200    91178689.98907       166.137          43.750
G08  20600468.380   108256215.63508       436.578          51.000    20600468.840    84355523.72709       340.187          54.750
G10  23142934.880   121616950.09207       228.937          45.500    23142936.220    94766460.94608       178.395          52.500
G16  22286231.400   117114948.94108     -2672.898          49.000    22286228.580    91258410.13107     -2082.777          42.000
G20  24256806.780   127470390.71706     -1888.121          40.250    24256804.440    99327559.30805     -1471.266          32.750
G21  20928291.740   109978932.27708      1453.566          50.500    20928289.200    85697859.54507      1132.648          47.750
G23  24243403.120   127399948.54306     -1534.242          41.750    24243400.560    99272680.54205     -1195.516          34.750
G26  24759549.960   130112351.63706     -3398.129          39.500    24759551.380   101386252.78707     -2647.898          46.250
G27  21140013.420   111091554.70408     -1622.750          50.500    21140013.200    86564865.58509     -1264.484          54.750
G30  23844569.040   125304047.37507      1827.695          44.250    23844568.620    97639496.53706      1424.180          37.250
R01  24578321.900   131385217.70605     -1429.438          35.750    24578327.780   102188527.24503     -1111.789          23.250
R02  23552191.800   125679008.36306      1972.359          39.750    23552197.740    97750367.06706      1534.059          37.750
R09  21698960.820   115871234.34107      3423.297          47.000    21698963.960    90122078.80507      2662.563          45.500
R15  21537517.880   115089977.26508     -3940.836          49.250    21537522.540    89514450.93907     -3065.094          43.250
R16  19393246.240   103595238.84207      -298.520          47.750    19393250.240    80574095.96507      -232.187          45.750
R17  22267709.760   119159051.32807     -3311.676          46.000    22267713.200    92679299.01207     -2575.746          42.750
R18  19643721.300   104859550.58708     -1206.914          51.000    19643726.320    81557454.38308      -938.715          49.000
R19  20641618.760   110418752.38806      1830.531          40.750    20641621.940    85881275.02607      1423.746          45.250
> 2021 01 01 00 18 30.0000000  0 19
G01  22421654.360   117826592.99607      3455.867          45.500    22421656.100    91812950.03406      2692.766          41.750
G07  22265604.940   117006537.41708       194.145          48.250    22265602.540    91173924.76207       151.277          43.750
G08  20597998.400   108243235.55608       428.477          51.000    20597998.800    84345409.38009       333.879          54.750
G10  23141676.680   121610340.90507       211.027          46.250    23141678.460    94761310.95408       164.437          51.500
G16  22301517.000   117195274.69608     -2682.352          49.000    22301514.120    91321001.63107     -2090.148          42.000
G20  24267627.400   127527255.28206     -1903.301          40.000    24267625.560    99371869.29105     -1483.094          34.250
G21  20920035.760   109935546.71508      1438.480          50.500    20920033.020    85664052.61108      1120.895          48.250
G23  24252207.680   127446220.24106     -1551.184          39.000    24252205.100    99308736.43405     -1208.715          35.500
G26  24778959.620   130214350.07306     -3401.664          39.500    24778961.060   101465732.07607     -2650.652          45.000
G27  21149295.640   111140333.40908     -1629.266          50.500    21149295.520    86602874.96309     -1269.563          54.750
G30  23834180.040   125249452.47807      1811.465          42.750    23834179.320    97596955.05706      1411.531          38.250
R01  24586401.840   131428408.18805     -1449.996          33.750    24586407.580   102222119.93003     -1127.770          23.750
R02  23541153.180   125620103.86207      1954.418          42.750    23541158.960    97704552.47806      1520.102          38.500
R09  21679767.860   115768744.59707      3409.203          47.500    21679770.960    90042364.56607      2651.602          45.250
R15  21559675.920   115208383.00008     -3952.859          48.000    21559680.580    89606544.28207     -3074.449          45.250
R16  19394996.020   103604585.66008      -324.844          48.000    19395000.060    80581365.70407      -252.660          46.000
R17  22286276.320   119258405.31607     -3312.148          46.750    22286279.980    92756574.30907     -2576.121          42.500
R18  19650538.880   104895943.65508     -1219.523          51.000    19650543.980    81585760.10308      -948.520          49.250
R19  20631391.880   110364046.08606      1816.574          41.000    20631395.140    85838725.69007      1412.891          45.250
> 2021 01 01 00 19  0.0000000  0 18
G01  22401952.440   117723059.11507      3446.961          45.750    22401954.100    91732274.28506      2685.941          40.750
G07  22264550.820   117000998.23708       175.375          48.250    22264548.500    91169608.50207       136.645          43.500
G08  20595575.880   108230504.94108       420.434          51.000    20595576.260    84335489.41809       327.605          54.750
G10  23140522.000   121604272.38207       193.539          47.000    23140522.740    94756582.21008       150.805          51.250
G16  22316856.980   117275887.57308     -2691.590          48.500    22316854.140    91383816.86406     -2097.348          41.750
G20  24278534.780   127584573.59306     -1917.660          40.250    24278532.780    99416532.89605     -1494.281          34.250
G21  20911866.340   109892616.28108      1423.684          50.750    20911863.760    85630600.34308      1109.359          48.250
G23  24261108.460   127492999.41406     -1567.387          39.750    24261107.000    99345187.70006     -1221.344          37.250
G26  24798390.120   130316458.34706     -3405.129          38.750    24798391.660   101545296.94207     -2653.352          45.250
G27  21158614.980   111189307.21808     -1635.406          50.500    21158614.940    86641036.36109     -1274.348          54.750
G30  23823883.180   125195343.60607      1795.699          43.250    23823883.080    97554792.30306      1399.242          38.250
R02  23530214.460   125561730.77307      1936.832          42.250    23530220.120    97659151.20406      1506.426          39.500
R09  21660655.260   115666684.19007      3395.117          47.750    21660658.200    89962984.24307      2640.645          45.250
R15  21581902.380   115327154.41508     -3964.855          49.000    21581907.000    89698922.05007     -3083.777          43.250
R16  19396894.180   103614725.24708      -351.016          48.250    19396898.140    80589252.03507      -273.016          45.750
R17  22304848.060   119357784.56207     -3312.707          45.750    22304851.560    92833869.28807     -2576.555          43.250
R18  19657427.860   104932717.49508     -1231.867          51.000    19657432.880    81614361.97308      -958.121          49.000
R19  20621245.180   110309768.28606      1802.137          41.250    20621248.360    85796509.63607      1401.660          45.500
> 2021 01 01 00 19 30.0000000  0 19
G01  22382303.660   117619803.28807      3436.965          45.750    22382305.160    91651815.19706      2678.152          41.000
G07  22263605.100   116996028.66208       155.793          48.250    22263602.960    91165736.10407       121.395          43.250
G08  20593199.500   108218016.83508       411.758          51.000    20593199.840    84325758.42409       320.848          54.750
G10  23139469.180   121598738.60907       175.117          46.500    23139469.720    94752270.15308       136.453          52.500
G16  22332249.960   117356780.67007     -2701.438          47.750    22332247.460    91446850.43806     -2105.020          41.000
G20  24289526.920   127642337.85806     -1933.602          40.500    24289524.760    99461544.04605     -1506.703          35.000
G21  20903782.300   109850134.65008      1408.359          50.500    20903779.640    85597497.78008      1097.422          48.000
G23  24270105.100   127540278.12207     -1584.375          42.000    24270104.220    99382028.25806     -1234.582          36.000
G26  24817839.840   130418668.33306     -3408.824          38.000    24817841.480   101624941.07207     -2656.230          47.500
G27  21167970.120   111238468.85008     -1642.223          50.500    21167970.060    86679344.11409     -1279.656          55.000
G30  23813678.060   125141715.88507      1779.082          43.000    23813678.360    97513004.48306      1386.297          39.250
R01  24602919.360   131516704.04805     -1492.723          35.500    24602925.140   102290792.64505     -1161.016          32.750
R02  23519374.560   125503885.88807      1918.961          43.750    23519380.180    97614160.76006      1492.523          38.250
R09  21641622.400   115565049.93907      3380.203          47.750    21641625.340    89883935.38607      2629.047          45.750
R15  21604195.140   115446281.11208     -3977.188          48.750    21604199.960    89791576.12407     -3093.371          45.000
R16  19398939.560   103625651.40707      -377.711          47.750    19398943.500    80597750.15607      -293.777          46.000
R17  22323422.280   119457180.87307     -3313.777          45.750    22323426.380    92911177.46507     -2577.387          43.250
R18  19664386.380   104969863.09508     -1244.730          50.750    19664391.460    81643252.98408      -968.129          49.250
R19  20611177.320   110255911.86606      1787.492          40.750    20611180.440    85754621.31207      1390.273          45.500
> 2021 01 01 00 20  0.0000000  0 19
G01  22362709.180   117516833.99507      3427.234          45.750    22362710.700    91571579.40006      2670.570          41.500
G07  22262768.980   116991634.94008       136.520          48.250    22262766.900    91162312.41907       106.375          43.750
G08  20590870.400   108205777.34808       403.559          51.000    20590870.800    84316221.15509       314.457          54.750
G10  23138519.020   121593746.60907       157.117          45.750    23138520.440    94748380.32608       122.430          53.000
G16  22347697.440   117437958.82108     -2710.848          48.000    22347695.160    91510106.13406     -2112.348          41.500
G20  24300604.940   127700552.42106     -1948.090          41.250    24300602.280    99506906.07605     -1517.992          33.500
G21  20895785.000   109808108.41908      1393.023          50.500    20895782.400    85564750.07708      1085.473          48.000
G23  24279198.420   127588061.33207     -1601.520          42.500    24279197.660    99419261.90206     -1247.941          37.000
G26  24837310.040   130520985.02906     -3412.656          37.500    24837311.800   101704668.34008     -2659.215          48.000
G27  21177362.140   111287824.08008     -1648.535          50.500    21177362.040    86717802.71809     -1284.578          54.750
G30  23803566.060   125088577.32107      1762.883          43.500    23803566.620    97471597.79806      1373.672          39.250
R01  24611356.180   131561804.11606     -1513.711          37.250    24611362.000   102325870.50304     -1177.336          27.750
R02  23508635.560   125446579.30407      1900.965          43.250    23508641.080    97569588.97906      1478.527          39.500
R09  21622671.300   115463852.59807      3365.660          47.750    21622674.440    89805226.35707      2617.734          45.750
R15  21626555.260   115565766.06307     -3989.145          47.500    21626560.100    89884508.85907     -3102.672          43.750
R16  19401133.500   103637370.70708      -404.113          48.000    19401137.400    80606865.16007      -314.312          45.750
R17  22342001.000   119556598.59407     -3314.391          46.000    22342004.580    92988502.38007     -2577.859          42.000
R18  19671415.340   105007384.49708     -1257.207          50.750    19671420.480    81672436.29908      -977.828          49.000
R19  20601189.240   110202483.11706      1773.695          40.750    20601192.420    85713065.63007      1379.535          45.250
> 2021 01 01 00 20 30.0000000  0 18
G01  22343171.300   117414161.69207      3417.934          45.750    22343172.860    91491575.00707      2663.320          42.000
G07  22262044.040   116987825.49408       117.359          48.000    22262042.020    91159344.01307        91.449          43.750
G08  20588590.280   108193795.22608       395.449          51.000    20588590.720    84306884.43909       308.137          54.750
G10  23137673.580   121589305.78607       138.934          46.500    23137675.780    94744919.99308       108.262          52.750
G16  22363200.980   117519429.81408     -2720.152          48.250    22363198.680    91573590.01006     -2119.598          41.500
G20  24311770.000   127759224.28706     -1963.004          41.000    24311767.200    99552624.43005     -1529.613          32.750
G21  20887875.920   109766546.26908      1377.992          50.500    20887873.280    85532364.00808      1073.762          48.250
G23  24288389.220   127636356.11607     -1617.969          43.250    24288388.260    99456894.20606     -1260.758          38.750
G26  24856801.820   130623415.64506     -3415.543          38.750    24856803.660   101784484.36907     -2661.461          45.500
G27  21186792.560   111337380.92308     -1654.906          50.500    21186792.420    86756418.42909     -1289.543          54.750
G30  23793549.220   125035938.09807      1746.598          43.500    23793549.880    97430580.24006      1360.984          39.000
R02  23497999.340   125389822.83107      1882.863          42.500    23498005.000    97525445.09706      1464.445          37.250
R09  21603804.520   115363104.92807      3351.016          47.500    21603807.760    89726867.06807      2606.344          45.750
R15  21648983.180   115685614.77208     -4000.625          48.500    21648988.040    89977724.53907     -3111.598          44.500
R16  19403477.480   103649891.79507      -430.367          47.750    19403481.300    80616603.77407      -334.734          45.750
R17  22360585.040   119656045.11807     -3315.055          45.500    22360588.520    93065849.67107     -2578.379          43.000
R18  19678516.000   105045288.22708     -1269.496          51.000    19678521.100    81701916.96808      -987.391          49.000
R19  20591282.880   110149490.87206      1759.500          40.750    20591286.180    85671849.43607      1368.496          45.250
> 2021 01 01 00 21  0.0000000  0 18
G01  22323687.280   117311772.52107      3407.777          46.250    22323688.880    91411791.25707      2655.410          42.000
G07  22261427.280   116984584.04708        98.051          48.250    22261425.060    91156818.19107        76.398          44.000
G08  20586356.000   108182054.02308       386.770          51.250    20586356.480    84297735.45209       301.379          54.750
G10  23136930.880   121585400.79007       120.703          47.250    23136932.420    94741877.14808        94.051          51.750
G16  22378756.980   117601176.75208     -2729.957          48.000    22378754.560    91637288.93306     -2127.242          41.750
G20  24323018.720   127818335.91606     -1978.480          40.750    24323016.080    99598685.43305     -1541.672          33.250
G21  20880052.220   109725432.27208      1362.465          50.500    20880049.620    85500327.12908      1061.660          48.500
G23  24297673.620   127685145.26107     -1635.285          42.500    24297672.460    99494911.71306     -1274.250          39.500
G26  24876312.220   130725942.74806     -3419.582          40.000    24876313.980   101864375.58707     -2664.613          45.000
G27  21196258.240   111387122.76308     -1661.723          50.750    21196257.960    86795178.30109     -1294.852          54.750
G30  23783624.760   124983783.86807      1729.859          43.750    23783625.080    97389940.56606      1347.945          37.500
R02  23487463.880   125333604.50506      1864.180          41.750    23487469.440    97481719.71406      1449.914          37.500
R09  21585019.600   115262794.58007      3335.770          47.500    21585022.940    89648847.91107      2594.484          45.750
R15  21671475.540   115805807.25308     -4012.652          48.250    21671480.580    90071207.53807     -3120.957          43.750
R16  19405968.520   103663198.32907      -457.273          47.750    19405972.320    80626953.29007      -355.660          46.000
R17  22379170.860   119755502.12207     -3315.891          46.000    22379174.980    93143205.03507     -2579.031          43.500
R18  19685684.820   105083555.41108     -1282.141          50.750    19685689.880    81731680.33508      -997.223          49.250
R19  20581454.960   110096918.28506      1745.082          40.750    20581458.300    85630959.65607      1357.285          45.250
> 2021 01 01 00 21 30.0000000  0 19
G01  22304258.580   117209673.74307      3398.492          45.750    22304260.100    91332233.78206      2648.176          41.500
G07  22260919.640   116981915.55508        79.344          48.250    22260917.240    91154738.84107        61.828          43.500
G08  20584168.480   108170558.64408       379.070          51.250    20584168.980    84288778.02009       295.379          54.750
G10  23136291.320   121582037.42007       103.184          46.750    23136291.740    94739256.31108        80.398          51.000
G16  22394365.980   117683203.51208     -2738.836          48.000    22394363.680    91701205.88306     -2134.156          41.250
G20  24334351.280   127877890.34006     -1992.352          39.500    24334349.120    99645091.47205     -1552.480          32.500
G21  20872314.820   109684771.92708      1347.895          50.500    20872312.120    85468643.74908      1050.305          48.000
G23  24307052.840   127734432.30207     -1650.805          42.750    24307051.500    99533317.19506     -1286.344          37.250
G26  24895841.700   130828570.03506     -3421.734          39.250    24895843.080   101944344.91907     -2666.289          45.500
G27  21205759.860   111437054.11008     -1667.340          50.500    21205759.560    86834085.83609     -1299.230          54.750
G30  23773793.880   124932121.37007      1714.098          43.500    23773793.740    97349684.07006      1335.656          38.750
R02  23477030.820   125277932.23106      1846.797          41.750    23477036.180    97438419.07706      1436.395          37.750
R03  24469804.380   130988772.36705      3425.258          35.250    24469810.540   101880189.85605      2664.086          30.250
R09  21566318.300   115162930.82307      3321.422          47.250    21566321.460    89571176.09407      2583.328          45.500
R15  21694032.720   115926345.28608     -4023.598          48.000    21694037.340    90164959.37307     -3129.469          44.500
R16  19408607.520   103677295.59107      -483.016          47.750    19408611.380    80637917.81507      -375.684          45.750
R17  22397759.540   119854973.15207     -3315.980          45.250    22397763.260    93220571.38906     -2579.102          41.500
R18  19692922.300   105122189.25808     -1293.789          50.750    19692927.200    81761728.87708     -1006.285          49.000
R19  20571706.400   110044770.70706      1731.297          40.500    20571709.860    85590400.43107      1346.559          45.250
> 2021 01 01 00 22  0.0000000  0 19
G01  22284886.400   117107872.92807      3388.344          45.750    22284887.960    91252908.48806      2640.270          41.250
G07  22260521.900   116979825.53608        60.195          48.000    22260519.520    91153110.23407        46.902          44.000
G08  20582028.880   108159314.88608       370.695          51.000    20582029.340    84280016.65409       288.852          54.750
G10  23135755.420   121579221.96907        84.785          46.250    23135755.600    94737062.45208        66.066          51.250
G16  22410029.280   117765514.53108     -2748.230          48.000    22410026.960    91765344.33306     -2141.477          41.500
G20  24345769.240   127937891.58306     -2007.234          39.500    24345767.080    99691845.67905     -1564.074          35.250
G21  20864664.920   109644571.32808      1332.395          50.750    20864662.220    85437318.62608      1038.230          48.250
G23  24316527.400   127784221.58506     -1667.578          40.750    24316525.920    99572113.97706     -1299.418          41.750
G26  24915390.920   130931301.83806     -3426.020          39.000    24915392.380   102024395.65907     -2669.629          44.750
G27  21215298.440   111487180.08308     -1673.879          50.500    21215298.200    86873145.02709     -1304.324          54.750
G30  23764057.580   124880957.86407      1696.957          42.500    23764057.720    97309816.42306      1322.305          40.000
R02  23466701.660   125222815.02607      1828.250          42.000    23466707.320    97395550.15206      1421.969          38.500
R03  24450612.440   130886032.95405      3423.797          35.750    24450618.360   101800281.44405      2662.953          31.000
R09  21547702.460   115063523.48207      3305.965          47.750    21547705.680    89493859.28107      2571.305          45.750
R15  21716654.960   116047230.99908     -4035.176          49.000    21716659.700    90258981.56107     -3138.469          43.500
R16  19411395.760   103692189.89508      -509.578          48.000    19411399.600    80649502.26507      -396.344          45.750
R17  22416351.340   119954462.22807     -3316.387          45.750    22416355.000    93297951.75307     -2579.414          42.250
R18  19700229.080   105161193.05008     -1306.297          51.000    19700233.940    81792065.16308     -1016.008          49.000
R19  20562038.360   109993053.32206      1716.551          40.750    20562041.800    85550175.80607      1335.094          45.500
> 2021 01 01 00 22 30.0000000  0 19
G01  22265570.680   117006368.13107      3378.496          46.000    22265572.280    91173813.84606      2632.594          41.500
G07  22260233.380   116978309.90208        40.941          48.250    22260231.160    91151929.20407        31.898          44.000
G08  20579936.340   108148318.52208       362.512          51.000    20579936.760    84271448.06109       282.473          54.750
G10  23135323.040   121576951.00607        66.602          46.250    23135323.720    94735292.89208        51.895          52.250
G16  22425745.900   117848105.45308     -2757.652          48.000    22425743.660    91829700.89206     -2148.824          41.250
G20  24357270.720   127998333.93206     -2022.262          40.000    24357268.220    99738943.57605     -1575.793          32.250
G21  20857101.680   109604826.04508      1317.289          50.500    20857098.920    85406348.28707      1026.457          47.750
G23  24326096.020   127834507.58406     -1684.176          40.000
G26  24934959.080   131034132.63706     -3429.133          38.250    24934960.480   102104523.50807     -2672.055          46.500
G27  21224873.200   111537496.06008     -1680.289          50.250    21224873.040    86912352.27609     -1309.320          54.750
G30  23754415.920   124830290.86107      1680.445          43.500    23754415.880    97270335.64006      1309.434          38.000
R02  23456476.560   125168252.14107      1809.055          43.250    23456482.600    97353112.39606      1407.043          39.500
R03  24431428.160   130783333.67906      3422.793          36.500    24431432.900   101720404.17005      2662.168          31.250
R09  21529172.120   114964572.43108      3290.629          48.000    21529175.260    89416897.36107      2559.375          45.750
R15  21739340.700   116168456.73408     -4046.488          48.000    21739345.220    90353268.25007     -3147.273          44.000
R16  19414332.380   103707876.55208      -536.070          48.000    19414336.240    80661702.98307      -416.949          45.750
R17  22434945.640   120053963.50007     -3316.738          45.000    22434949.440    93375341.60607     -2579.688          42.500
R18  19707603.940   105200560.45508     -1318.117          50.750    19707608.800    81822684.25208     -1025.207          49.000
R19  20552450.100   109941762.01806      1702.723          41.250    20552453.380    85510282.57707      1324.336          45.250
> 2021 01 01 00 23  0.0000000  0 20
G01  22246310.800   116905156.64707      3368.570          46.000    22246312.320    91094947.77306      2624.859          41.750
G07  22260053.320   116977363.60908        21.723          48.500    22260051.140    91151191.81907        16.922          43.250
G08  20577889.880   108137564.38608       354.004          51.250    20577890.300    84263068.21709       275.844          54.500
G10  23134994.040   121575220.46507        48.320          47.250    23134995.000    94733944.44708        37.648          52.250
G16  22441514.660   117930970.52308     -2767.070          48.000    22441512.380    91894271.07406     -2156.164          41.000
G20  24368855.300   128059210.77006     -2036.645          40.750    24368852.940    99786380.05705     -1587.000          32.500
G21  20849624.260   109565531.97408      1301.965          50.750    20849621.520    85375729.55308      1014.520          48.000
G22  25202442.120   132439729.07706      3457.637          36.750    25202437.780   103199773.06506      2694.262          36.000
G23  24335757.820   127885284.04406     -1700.781          41.250    24335755.540    99650866.98406     -1325.285          37.750
G26  24954544.920   131137056.26706     -3432.672          38.750    24954546.340   102184723.70607     -2674.813          45.750
G27  21234483.160   111587996.74308     -1686.879          50.500    21234483.060    86951703.44909     -1314.453          54.750
G30  23744868.300   124780117.20907      1663.934          43.250    23744868.140    97231239.28006      1296.566          38.750
R02  23446355.200   125114242.46207      1790.781          44.000    23446361.200    97311104.88006      1392.828          39.750
R03  24412250.820   130680673.56306      3421.242          37.750    24412255.480   101640557.43705      2660.957          33.500
R09  21510727.120   114866076.85808      3275.203          48.000    21510730.340    89340289.70807      2547.375          46.000
R15  21762088.540   116290014.34008     -4057.730          48.000    21762093.060    90447813.04207     -3156.012          43.750
R16  19417416.380   103724350.80907      -562.590          47.750    19417420.200    80674516.28007      -437.574          45.750
R17  22453540.920   120153470.48707     -3317.559          45.250    22453544.460    93452735.91906     -2580.328          41.750
R18  19715045.500   105240284.01308     -1330.441          50.750    19715050.400    81853580.36108     -1034.789          49.000
R19  20542940.400   109890891.82506      1688.094          41.000    20542943.660    85470716.89107      1312.961          45.500
> 2021 01 01 00 23 30.0000000  0 21
G01  22227109.020   116804251.05607      3358.371          45.750    22227110.600    91016320.05806      2616.910          41.500
G07  22259983.440   116976996.62708         2.547          48.250    22259981.460    91150905.84607         1.980          43.500
G08  20575891.660   108127063.65908       345.801          51.000    20575892.080    84254885.83209       269.453          54.750
G10  23134769.920   121574041.45007        30.168          47.000    23134770.880    94733025.74508        23.504          51.750
G16  22457337.320   118014118.84507     -2776.258          47.750    22457334.960    91959061.97006     -2163.320          40.500
G20  24380524.120   128120530.63506     -2051.141          40.000    24380521.220    99834161.76805     -1598.301          30.000
G21  20842234.740   109526699.67408      1286.777          50.500    20842231.900    85345470.63508      1002.684          48.000
G22  25182694.040   132335953.00206      3460.367          37.500    25182689.920   103118908.62505      2696.391          32.500
G23  24345515.500   127936559.95507     -1717.613          42.000    24345513.100    99690822.23505     -1338.402          33.750
G26  24974150.160   131240081.97006     -3436.285          39.000    24974151.560   102265003.45507     -2677.430          45.500
G27  21244130.160   111638692.07008     -1693.039          50.250    21244130.000    86991206.29409     -1319.254          54.750
G30  23735416.800   124730449.00507      1647.215          43.250    23735416.600    97192536.78706      1283.543          37.750
R01  24673722.360   131895174.99306     -1660.445          37.000    24673727.800   102585166.78605     -1291.461          34.250
R02  23436340.260   125060800.19107      1771.902          43.750    23436346.000    97269538.68606      1378.141          38.750
R03  24393083.940   130578067.76106      3419.367          38.250    24393087.680   101560752.93605      2659.504          34.000
R09  21492370.040   114768051.59808      3259.582          48.000    21492373.300    89264047.84507      2535.230          45.750
R15  21784899.680   116411910.83408     -4068.813          48.250    21784904.080    90542621.41207     -3164.633          43.250
R16  19420649.860   103741623.27007      -588.973          47.750    19420653.640    80687950.40907      -458.094          45.750
R17  22472139.160   120252992.21707     -3317.570          45.750    22472142.520    93530141.69707     -2580.336          42.750
R18  19722555.380   105280372.56408     -1342.266          50.750    19722560.240    81884760.33408     -1043.988          49.000
R19  20533511.400   109840452.85406      1674.055          41.000    20533514.720    85431486.58207      1302.039          45.500
> 2021 01 01 00 24  0.0000000  0 20
G01  22207964.520   116703646.09307      3348.496          45.750    22207966.160    90937926.59806      2609.215          41.750
G07  22260022.440   116977201.49408       -16.504          48.000    22260020.380    91151065.48107       -12.863          44.000
G08  20573940.160   108116808.64608       337.695          51.000    20573940.600    84246894.91709       263.137          54.750
G10  23134649.080   121573407.20407        12.063          46.500    23134649.740    94732531.53508         9.398          51.000
G16  22473212.240   118097542.32807     -2785.512          47.250    22473209.760    92024067.27106     -2170.531          40.500
G20  24392275.700   128182284.69606     -2065.656          40.250    24392272.800    99882281.86305     -1609.609          31.000
G21  20834931.640   109488321.63308      1271.605          50.500    20834928.800    85315565.67908       990.863          48.250
G22  25162928.000   132232082.39906      3463.539          38.000    25162924.120   103037970.53005      2698.863          34.000
G23  24355366.820   127988326.63707     -1734.340          42.250    24355364.880    99731159.95006     -1351.430          36.500
G26  24993772.840   131343200.89806     -3438.680          39.250    24993774.580   102345355.85407     -2679.492          44.500
G27  21253812.700   111689574.24608     -1699.223          50.250    21253812.580    87030854.73609     -1324.074          55.000
G30  23726060.200   124681280.50007      1630.602          43.000    23726060.380    97154223.66606      1270.594          39.000
R02  23426430.660   125007920.37607      1753.246          43.250    23426436.340    97228409.91206      1363.715          39.250
R03  24373926.020   130475512.90606      3417.344          36.000    24373929.560   101480988.04705      2657.926          31.500
R09  21474100.560   114670493.25808      3244.164          48.500    21474103.460    89188169.14507      2523.238          45.750
R15  21807772.420   116534135.27708     -4079.570          48.000    21807776.880    90637684.86107     -3173.004          43.750
R16  19424031.260   103759686.24907      -615.371          47.750    19424035.160    80701999.37307      -478.625          45.750
R17  22490738.140   120352519.67307     -3317.613          45.250    22490741.940    93607551.88607     -2580.371          42.500
R18  19730131.800   105320816.22708     -1354.094          50.750    19730136.720    81916216.52108     -1053.188          49.000
R19  20524161.620   109790437.87806      1660.051          41.000    20524165.060    85392586.05807      1291.152          45.500
> 2021 01 01 00 24 30.0000000  0 20
G01  22188878.020   116603345.69607      3338.512          46.250    22188879.600    90859770.45106      2601.434          40.750
G07  22260170.640   116977979.77008       -35.328          48.250    22260168.440    91151671.91107       -27.531          43.750
G08  20572035.760   108106801.28008       329.754          51.000    20572036.240    84239096.97309       256.945          54.750
G10  23134632.320   121573320.23307        -5.805          46.500    23134632.660    94732463.75408        -4.527          51.000
G16  22489139.520   118181241.65807     -2794.301          47.250    22489137.300    92089287.52306     -2177.383          40.500
G20  24404109.600   128244473.32206     -2080.223          40.000    24404107.060    99930740.55705     -1620.953          31.000
G21  20827715.320   109450399.91708      1256.703          50.500    20827712.560    85286016.31508       979.250          48.250
G22  25143145.100   132128122.16906      3467.309          39.000    25143141.360   102956962.63204      2701.805          29.500
G23  24365311.420   128040584.40107     -1749.867          42.000    24365309.060    99771880.25806     -1363.535          37.000
G26  25013413.760   131446413.69706     -3441.555          39.250    25013415.360   102425781.38207     -2681.734          45.250
G27  21263531.080   111740644.65908     -1705.141          50.250    21263531.020    87070649.86109     -1328.684          55.000
G30  23716799.300   124632615.18007      1614.109          43.250    23716799.440    97116302.64906      1257.742          37.750
R02  23416627.480   124955608.93107      1734.324          43.000    23416633.600    97187723.24106      1348.914          39.750
R03  24354778.940   130373015.38506      3415.727          38.500    24354782.780   101401267.81506      2656.676          36.000
R09  21455919.640   114573407.78308      3228.520          48.000    21455922.380    89112658.21807      2511.070          46.000
R15  21830706.280   116656686.32108     -4090.188          48.000    21830710.880    90733002.32507     -3181.262          43.750
R16  19427561.000   103778541.62608      -641.484          48.000    19427565.000    80716664.66207      -498.934          46.000
R17  22509338.440   120452053.24207     -3317.625          45.750    22509341.920    93684966.89206     -2580.375          41.500
R18  19737774.580   105361614.46108     -1365.578          50.500    19737779.640    81947948.47208     -1062.121          49.000
R19  20514891.340   109740848.44106      1645.910          41.250    20514894.860    85354016.50207      1280.152          45.500
> 2021 01 01 00 25  0.0000000  0 20
G01  22169849.560   116503350.76807      3327.531          46.000    22169851.200    90781852.34807      2592.883          42.000
G07  22260427.720   116979330.25408       -54.957          48.250    22260425.360    91152724.22407       -42.828          43.750
G08  20570178.280   108097040.47408       320.965          51.000    20570178.800    84231491.15309       250.098          55.000
G10  23134719.880   121573779.92007       -24.680          46.750    23134720.240    94732821.95508       -19.230          52.250
G16  22505119.080   118265214.67607     -2804.102          47.750    22505116.840    92154721.03106     -2185.016          41.500
G20  24416025.980   128307093.57006     -2095.102          41.000    24416023.620    99979535.57405     -1632.543          33.000
G21  20820585.700   109412933.57408      1241.008          50.500    20820582.960    85256821.76908       967.020          48.500
G22  25123345.120   132024073.81506      3469.328          39.000    25123341.420   102875885.99505      2703.371          34.500
G23  24375348.840   128093330.67406     -1766.625          41.750    24375346.800    99812981.25806     -1376.594          36.000
G26  25033071.880   131549717.78606     -3444.902          38.750    25033073.620   102506278.03607     -2684.344          46.000
G27  21273284.920   111791901.65208     -1711.969          50.250    21273284.940    87110590.35909     -1334.004          55.000
G30  23707634.260   124584453.36807      1596.691          42.750    23707634.460    97078773.95906      1244.176          38.250
R02  23406931.380   124903868.07807      1714.723          42.500    23406937.600    97147480.37206      1333.742          40.250
R03  24335642.720   130270578.14606      3412.965          38.250    24335646.160   101321594.38005      2654.531          33.500
R09  21437827.720   114476798.03608      3212.047          48.000    21437830.680    89037517.31307      2498.254          46.000
R15  21853700.060   116779558.95407     -4101.250          47.500    21853704.960    90828569.90607     -3189.863          43.750
R16  19431238.860   103798187.86107      -668.465          47.750    19431242.840    80731945.05107      -519.922          46.000
R17  22527939.560   120551590.05407     -3318.164          45.500    22527942.760    93762384.39207     -2580.797          42.500
R18  19745483.260   105402764.15608     -1377.738          50.750    19745488.380    81979953.79108     -1071.574          49.000
R19  20505700.440   109691682.92206      1631.594          41.500    20505703.920    85315776.65007      1269.012          45.500
> 2021 01 01 00 25 30.0000000  0 20
G01  22150879.740   116403663.86707      3317.598          46.500    22150881.440    90704174.25407      2585.137          42.500
G07  22260793.600   116981253.09808       -73.719          48.000    22260791.240    91154222.53607       -57.441          43.750
G08  20568367.680   108087525.87308       312.883          51.000    20568368.260    84224077.18609       243.801          54.750
G10  23134911.720   121574787.34707       -42.871          46.750    23134912.220    94733606.96908       -33.406          52.000
G16  22521150.760   118349460.89507     -2812.820          47.500    22521148.380    92220367.42906     -2191.813          41.250
G20  24428024.140   128370143.66106     -2108.738          40.500    24428021.780   100028665.55206     -1643.168          36.750
G21  20813542.860   109375923.56808      1225.973          50.500    20813540.220    85227982.82508       955.301          48.500
G22  25103529.160   131919940.42306      3472.453          40.000    25103525.680   102794743.16205      2705.813          33.000
G23  24385478.880   128146564.43306     -1782.840          40.500    24385477.380    99854462.09906     -1389.230          37.000
G26  25052747.080   131653112.29506     -3448.359          38.000    25052748.780   102586845.11907     -2687.039          45.250
G27  21283074.260   111843345.21208     -1718.164          50.250    21283074.280    87150676.23709     -1338.832          54.750
G30  23698565.720   124536797.12007      1580.027          43.500    23698565.820    97041639.22406      1231.191          38.250
R02  23397342.480   124852701.02006      1695.730          41.750    23397348.760    97107683.78806      1318.902          40.000
R03  24316518.640   130168206.32606      3410.695          37.250    24316522.560   101241971.86805      2652.754          35.000
R09  21419825.780   114380668.52308      3196.176          48.250    21419828.740    88962749.93507      2485.914          46.000
R15  21876753.620   116902750.28508     -4111.867          48.500    21876758.460    90924385.37907     -3198.117          43.000
R16  19435064.780   103818625.12408      -694.602          48.000    19435068.800    80747840.68707      -540.246          45.750
R17  22546540.620   120651128.94507     -3318.223          44.750    22546544.100    93839803.51507     -2580.844          42.500
R18  19753257.420   105444263.21108     -1389.203          50.750    19753262.620    82012230.83408     -1080.492          49.000
R19  20496588.800   109642941.57806      1617.543          41.500    20496592.240    85277866.72507      1258.090          45.500
> 2021 01 01 00 26  0.0000000  0 20
G01  22131968.580   116304284.59607      3307.813          46.250    22131970.100    90626735.88107      2577.516          42.500
G07  22261267.800   116983745.44508       -92.156          48.000    22261265.380    91156164.60207       -71.813          43.750
G08  20566603.680   108078255.90308       305.270          51.000    20566604.240    84216853.82309       237.867          54.750
G10  23135207.160   121576340.52607       -60.504          46.500    23135207.940    94734817.24608       -47.145          51.750
G16  22537233.800   118433977.58607     -2821.492          47.500    22537231.220    92286224.58706     -2198.570          41.000
G20  24440103.420   128433619.58206     -2122.305          39.750    24440101.240   100078127.31005     -1653.742          33.500
G21  20806586.340   109339366.95608      1211.289          50.500    20806583.660    85199497.16608       943.863          48.500
G22  25083697.240   131815721.50606      3475.723          40.250    25083693.400   102713533.64905      2708.352          35.750
G23  24395700.620   128200281.75006     -1798.426          39.250    24395699.800    99896319.71106     -1401.375          38.000
G26  25072438.900   131756593.42606     -3450.191          38.250    25072440.440   102667479.74807     -2688.465          45.000
G27  21292898.700   111894972.45408     -1723.723          50.250    21292898.620    87190905.25509     -1343.164          54.750
G30  23689593.280   124489645.52907      1563.547          43.750    23689592.700    97004897.71606      1218.344          38.250
R02  23387861.540   124802108.76407      1677.215          43.000    23387867.580    97068334.28206      1304.496          39.000
R03  24297407.680   130065901.50606      3409.406          39.000    24297411.020   101162401.43106      2651.758          36.000
R09  21401914.060   114285021.19608      3180.410          48.000    21401917.040    88888357.56607      2473.652          46.000
R15  21899865.800   117026254.36707     -4121.520          47.500    21899870.540    91020444.09307     -3205.629          43.750
R16  19439038.220   103839850.73308      -720.320          48.000    19439042.300    80764349.47607      -560.250          45.750
R17  22565141.500   120750666.10507     -3317.391          45.000    22565145.440    93917221.27207     -2580.195          43.000
R18  19761096.320   105486107.34308     -1400.148          50.750    19761101.500    82044776.27408     -1089.008          49.000
R19  20487556.100   109594622.09606      1603.777          41.500    20487559.260    85240284.91507      1247.383          45.750
> 2021 01 01 00 26 30.0000000  0 20
G01  22113117.380   116205221.34507      3297.035          46.500    22113119.000    90549543.77007      2569.117          42.500
G07  22261851.460   116986813.04108      -111.406          48.250    22261849.220    91158554.92207       -86.813          43.250
G08  20564887.340   108069236.40508       296.867          51.000    20564887.860    84209825.64809       231.320          54.750
G10  23135607.760   121578446.33107       -79.027          46.750    23135608.500    94736458.14408       -61.582          51.250
G16  22553369.240   118518769.86907     -2830.508          47.750    22553366.720    92352296.48606     -2205.594          41.000
G20  24452264.020   128497525.93106     -2137.527          39.750    24452261.760   100127924.44105     -1665.609          33.750
G21  20799717.380   109303270.46908      1195.840          50.500    20799714.760    85171370.04208       931.824          48.500
G22  25063850.740   131711426.41506      3477.781          40.000    25063847.440   102632264.79205      2709.961          35.250
G23  24406015.000   128254487.30206     -1814.371          40.750    24406014.460    99938557.81205     -1413.797          34.250
G26  25092148.180   131860166.16306     -3453.223          38.250    25092149.780   102748185.76007     -2690.828          44.250
G27  21302759.200   111946789.18008     -1730.012          50.250    21302759.120    87231281.91409     -1348.066          54.750
G30  23680718.220   124443006.40607      1546.469          44.000    23680717.740    96968555.55506      1205.039          38.250
R02  23378490.140   124752101.43107      1657.313          43.250    23378496.100    97029439.72106      1289.020          39.250
R03  24278310.880   129963674.63706      3406.551          39.250    24278313.980   101082891.67105      2649.539          34.000
R09  21384094.540   114189866.10608      3163.793          48.500    21384097.500    88814348.06207      2460.727          46.250
R15  21923037.140   117150074.21808     -4132.102          48.250    21923041.720    91116748.42107     -3213.855          43.250
R16  19443160.400   103861870.64907      -746.887          47.750    19443164.600    80781476.06507      -580.914          45.750
R17  22583742.740   120850206.38707     -3317.559          44.750    22583746.720    93994641.46506     -2580.328          41.500
R18  19769000.540   105528300.30508     -1411.848          50.750    19769005.660    82077593.02208     -1098.109          49.000
R19  20478603.340   109546730.26206      1589.629          41.250    20478606.380    85203035.72407      1236.375          45.750
> 2021 01 01 00 27  0.0000000  0 20
G01  22094326.000   116106471.80807      3286.441          46.500    22094327.580    90472596.09907      2560.863          42.500
G07  22262543.880   116990451.47508      -130.773          48.500    22262541.680    91161390.05107      -101.906          44.000
G08  20563217.900   108060463.29708       288.285          51.000    20563218.400    84202989.46609       224.633          54.750
G10  23136113.020   121581100.95207       -97.508          47.000    23136113.300    94738526.67608       -75.984          51.250
G16  22569555.900   118603831.90207     -2840.066          47.250    22569553.580    92418578.58906     -2213.039          41.000
G20  24464505.480   128561856.60706     -2151.609          39.250    24464502.960   100178052.28505     -1676.578          31.250
G21  20792935.160   109267629.79208      1180.441          50.500    20792932.480    85143598.09908       919.824          48.750
G22  25043989.280   131607053.35206      3480.488          39.750    25043986.140   102550935.16505      2712.070          35.500
G23  24416421.740   128309175.36006     -1831.141          41.000    24416421.140    99981171.84405     -1426.867          32.500
G26  25111873.620   131963824.83806     -3456.680          38.000    25111875.580   102828958.73107     -2693.520          45.000
G27  21312654.760   111998790.69908     -1736.551          50.250    21312654.580    87271802.56609     -1353.160          55.000
G30  23671940.200   124396877.02907      1528.879          44.250    23671939.700    96932610.58606      1191.332          37.750
R02  23369228.200   124702677.47007      1637.730          43.750    23369234.000    96990998.86306      1273.789          38.500
R03  24259228.640   129861525.66306      3403.773          39.250    24259231.940   101003442.44905      2647.375          35.250
R09  21366367.200   114095202.94508      3147.223          48.500    21366370.120    88740721.17307      2447.840          46.250
R15  21946265.880   117274201.86407     -4142.660          47.500    21946270.580    91213292.12507     -3222.074          43.500
R16  19447430.420   103884680.44207      -773.645          47.750    19447434.760    80799217.00007      -601.727          46.000
R17  22602343.880   120949743.78507     -3317.891          45.500    22602347.500    94072059.45407     -2580.582          42.250
R18  19776968.940   105570835.85308     -1423.520          50.750    19776973.980    82110676.22408     -1107.188          49.000
R19  20469729.540   109499261.50106      1575.238          41.250    20469732.660    85166115.58507      1225.184          45.750
> 2021 01 01 00 27 30.0000000  0 20
G01  22075594.360   116008036.48807      3275.527          46.750    22075595.920    90395893.26907      2552.359          42.500
G07  22263344.640   116994658.79008      -150.043          48.500    22263342.440    91164668.46907      -116.918          44.250
G08  20561595.060   108051935.15208       279.730          51.250    20561595.540    84196344.16009       217.973          54.750
G10  23136722.640   121584303.32107      -116.414          47.250    23136722.540    94741022.00308       -90.715          51.250
G16  22585793.580   118689161.56207     -2849.133          47.250    22585791.200    92485069.22706     -2220.105          40.500
G20  24476827.140   128626607.95606     -2165.117          39.500    24476824.880   100228507.88605     -1687.109          32.500
G21  20786239.460   109232443.45608      1164.879          50.500    20786236.760    85116180.17108       907.695          48.750
G22  25024113.200   131502603.54706      3482.430          40.500    25024109.420   102469545.73905      2713.512          32.750
G23  24426920.100   128364342.73807     -1847.340          42.500    24426918.720   100024159.45505     -1439.484          34.000
G26  25131614.840   132067566.51906     -3459.938          37.000    25131616.920   102909796.36807     -2696.059          44.000
G27  21322585.040   112050974.99808     -1742.895          50.250    21322584.900    87312465.65009     -1358.105          55.000
G30  23663259.060   124351257.21207      1511.605          43.750    23663258.680    96897062.65806      1177.871          38.500
R02  23360075.940   124653838.11207      1617.578          43.000    23360081.600    96953012.67706      1258.113          40.000
R03  24240161.400   129759457.41606      3400.656          40.250    24240164.380   100924056.02006      2644.949          37.000
R09  21348732.520   114001034.62208      3130.320          48.250    21348735.400    88667479.14207      2434.695          46.500
R15  21969551.120   117398632.23007     -4153.184          47.250    21969555.920    91310071.28607     -3230.258          42.750
R16  19451848.060   103908278.06807      -800.184          47.750    19451852.280    80817570.69807      -622.367          46.000
R17  22620943.780   121049275.46807     -3318.227          44.250    22620947.620    94149472.96407     -2580.848          43.000
R18  19785000.680   105613709.92008     -1435.152          50.750    19785005.760    82144022.72708     -1116.234          49.000
R19  20460934.420   109452213.91106      1560.727          41.250    20460937.660    85129523.01707      1213.898          45.750
> 2021 01 01 00 28  0.0000000  0 20
G01  22056923.080   115909918.29207      3264.363          46.500    22056924.640    90319437.55007      2543.660          42.500
G07  22264253.620   116999435.05008      -169.363          48.250    22264251.320    91168390.21307      -131.977          43.750
G08  20560018.900   108043652.43008       271.430          51.000    20560019.360    84189890.09809       211.500          54.750
G10  23137436.600   121588054.76407      -134.711          46.500    23137436.580    94743945.21408      -104.973          52.250
G16  22602082.160   118774758.86907     -2858.168          47.000    22602079.880    92551768.41506     -2227.148          40.750
G20  24489229.200   128691779.45806     -2179.926          40.250    24489226.600   100279290.90705     -1698.648          31.750
G21  20779630.340   109197712.36208      1149.313          50.500    20779627.600    85089116.98308       895.566          48.750
G22  25004223.160   131398080.39806      3484.512          39.750    25004219.160   102388099.18506      2715.020          36.750
G23  24437509.240   128419988.77406     -1863.047          40.750    24437507.560   100067520.03206     -1451.727          36.250
G26  25151371.980   132171390.69906     -3462.984          37.250    25151373.980   102990698.28307     -2698.434          46.000
G27  21332550.240   112103342.52708     -1749.328          50.250    21332550.180    87353271.50509     -1363.117          55.000
G30  23654675.280   124306149.32207      1494.773          43.500    23654675.180    96861913.67606      1164.758          39.500
R02  23351033.880   124605588.49207      1598.133          43.500    23351039.620    96915485.23206      1242.992          39.500
R03  24221110.200   129657475.28206      3397.578          40.250    24221113.540   100844736.57606      2642.559          36.500
R09  21331191.260   113907365.85708      3113.219          48.250    21331194.340    88594625.67307      2421.387          46.500
R15  21992892.720   117523362.74007     -4163.332          47.750    21992897.520    91407083.90407     -3238.152          43.750
R16  19456413.180   103932663.95407      -826.711          47.750    19456417.460    80836537.48607      -643.000          46.000
R17  22639542.360   121148800.74807     -3318.031          45.250    22639546.420    94226881.48407     -2580.695          42.000
R18  19793095.640   105656921.44408     -1446.645          50.750    19793100.740    82177631.68708     -1125.172          49.000
R19  20452218.340   109405588.29806      1546.609          41.500    20452221.380    85093258.65107      1202.965          45.750
> 2021 01 01 00 28 30.0000000  0 20
G01  22038312.920   115812120.82007      3254.473          46.750    22038314.360    90243231.72607      2535.949          42.500
G07  22265271.060   117004781.60708      -187.703          48.000    22265268.680    91172556.35707      -146.262          44.000
G08  20558489.840   108035617.16008       263.719          51.250    20558490.280    84183628.85309       205.492          54.750
G10  23138255.220   121592357.31907      -152.566          46.750    23138255.440    94747297.86308      -118.883          52.000
G16  22618421.780   118860623.70007     -2866.531          47.250    22618419.320    92618676.06906     -2233.664          40.250
G20  24501710.660   128757370.76606     -2193.289          39.000    24501708.580   100330401.06305     -1709.055          33.000
G21  20773108.240   109163438.28508      1134.750          50.500    20773105.500    85062409.92208       884.223          48.750
G22  24984320.000   131293488.26506      3487.766          39.750    24984315.660   102306598.88305      2717.738          31.500
G23  24448189.480   128476113.44906     -1878.781          40.500    24448187.980   100111253.55105     -1463.992          35.250
G26  25171145.000   132275297.60106     -3465.102          38.250    25171146.800   103071664.67207     -2699.941          45.500
G27  21342550.500   112155894.38808     -1754.816          50.250    21342550.520    87394220.99009     -1367.395          55.000
G30  23646189.460   124261556.44507      1477.879          43.750    23646189.260    96827165.97906      1151.594          37.500
R02  23342103.240   124557932.67207      1578.434          43.750    23342108.840    96878419.62106      1227.672          39.750
R03  24202076.140   129555585.15406      3394.770          40.500    24202079.760   100765488.68206      2640.371          38.250
R09  21313744.680   113814201.98708      3097.047          48.500    21313747.640    88522164.88907      2408.809          46.500
R15  22016290.280   117648391.66207     -4172.602          47.250    22016295.080    91504328.59607     -3245.359          43.500
R16  19461126.080   103957839.25707      -852.449          47.750    19461130.360    80856118.26707      -663.020          46.000
R17  22658139.900   121248319.55607     -3317.066          45.000    22658143.760    94304285.01207     -2579.945          42.000
R18  19801253.640   105700469.61008     -1457.141          50.500    19801258.660    82211502.49008     -1133.332          49.000
R19  20443581.320   109359385.66606      1533.301          41.250    20443584.240    85057323.27707      1192.566          46.250
> 2021 01 01 00 29  0.0000000  0 20
G01  22019763.760   115714644.97807      3243.637          46.750    22019765.380    90167276.53307      2527.504          42.750
G07  22266396.640   117010697.06908      -206.836          48.250    22266394.360    91177165.77807      -161.176          43.250
G08  20557007.560   108027827.68708       255.289          51.000    20557007.960    84177559.13309       198.922          54.750
G10  23139178.580   121597210.20307      -171.289          46.750    23139179.080    94751079.33708      -133.473          52.250
G16  22634812.040   118946754.17807     -2875.570          47.500    22634809.380    92685790.73206     -2240.703          40.000
G20  24514271.480   128823379.01706     -2207.699          39.750    24514269.200   100381836.07005     -1720.289          33.250
G21  20766672.820   109129619.71708      1119.387          50.500    20766670.000    85036057.78908       872.246          49.000
G22  24964404.040   131188828.51606      3489.504          38.250    24964399.640   102225045.86506      2719.090          36.250
G23  24458960.060   128532714.00106     -1894.758          40.750    24458959.140   100155357.88006     -1476.438          37.500
G26  25190933.500   132379284.76306     -3467.758          38.750    25190934.900   103152693.57807     -2702.152          45.000
G27  21352585.620   112208629.06308     -1761.250          50.250    21352585.520    87435312.94009     -1372.406          55.000
G30  23637801.600   124217478.79407      1460.328          43.750    23637801.280    96792819.76806      1137.918          39.000
R02  23333284.300   124510872.43007      1558.391          43.250    23333289.780    96841817.21706      1212.078          38.500
R03  24183059.820   129453790.39906      3391.691          40.250    24183063.520   100686315.00206      2637.980          37.000
R09  21296393.280   113721546.26008      3079.785          48.500    21296396.080    88450099.32807      2395.383          46.250
R15  22039742.680   117773714.03307     -4182.590          47.500    22039747.440    91601801.51906     -3253.125          41.500
R16  19465986.260   103983801.77007      -878.805          47.750    19465990.580    80876311.31407      -683.520          46.000
R17  22676735.900   121347829.78007     -3317.039          44.000    22676739.720    94381681.83807     -2579.922          42.250
R18  19809474.140   105744351.22408     -1468.504          50.750    19809479.040    82245632.63008     -1142.172          49.000
R19  20435022.800   109313604.77606      1519.012          41.750    20435025.940    85021715.93607      1181.453          45.750
> 2021 01 01 00 29 30.0000000  0 20
G01  22001276.060   115617491.24107      3233.043          47.000    22001277.640    90091572.32807      2519.242          42.750
G07  22267630.040   117017179.11608      -225.449          48.000    22267627.860    91182216.71707      -175.680          43.250
G08  20555571.920   108020283.05408       247.383          51.250    20555572.280    84171680.20209       192.762          54.750
G10  23140206.500   121602612.26107      -189.312          46.500    23140206.920    94755288.73308      -147.516          51.500
G16  22651252.340   119033148.49307     -2884.055          47.000    22651249.700    92753110.97306     -2247.320          40.750
G20  24526911.040   128889800.45906     -2220.609          38.250    24526909.160   100433593.07005     -1730.336          34.500
G21  20760323.720   109096255.18708      1104.516          50.500    20760320.980    85010059.45808       860.660          48.750
G22  24944475.380   131084102.30206      3491.711          38.000    24944471.160   102143441.10806      2720.816          36.000
G23  24469821.060   128589787.43006     -1910.422          40.500    24469819.840   100199830.65405     -1488.641          35.250
G26  25210736.200   132483349.23506     -3470.188          37.000    25210737.840   103233782.73807     -2704.051          43.500
G27  21362655.160   112261544.59008     -1766.859          50.250    21362655.080    87476545.81709     -1376.777          55.000
G30  23629512.140   124173916.28207      1443.414          44.500    23629511.640    96758874.93906      1124.738          38.500
R02  23324577.020   124464409.82007      1538.586          42.000    23324582.600    96805679.65206      1196.680          39.250
R03  24164062.000   129352093.84306      3388.340          39.000    24164066.060   100607217.69106      2635.371          37.250
R09  21279137.460   113629401.13808      3062.879          48.500    21279140.300    88378430.90007      2382.234          46.250
R15  22063249.200   117899324.85907     -4191.906          47.250    22063253.640    91699498.86607     -3260.375          43.000
R16  19470993.700   104010550.04708      -904.773          48.000    19470997.780    80897115.52107      -703.715          45.750
R17  22695329.400   121447328.21107     -3316.250          44.000    22695333.460    94459069.45207     -2579.309          42.000
R18  19817756.380   105788562.40208     -1479.234          50.750    19817761.360    82280019.10408     -1150.520          48.750
R19  20426543.020   109268243.31006      1505.121          41.250    20426545.960    84986434.80607      1170.648          45.500
> 2021 01 01 00 30  0.0000000  0 20
G01  21982850.380   115520663.62307      3221.949          46.750    21982851.900    90016122.24707      2510.609          42.750
G07  22268971.620   117024229.21607      -244.523          47.750    22268969.380    91187710.26907      -190.539          44.000
G08  20554183.180   108012985.03408       238.852          51.250    20554183.520    84165993.42509       186.113          54.750
G10  23141339.420   121608565.89007      -208.047          47.000    23141339.800    94759927.92208      -162.117          51.500
G16  22667742.800   119119806.83407     -2893.188          47.500    22667740.520    92820636.93006     -2254.438          41.000
G20  24539629.400   128956635.11906     -2235.668          38.250    24539627.240   100485672.03604     -1742.082          29.750
G21  20754061.540   109063346.89608      1089.047          50.500    20754058.720    84984416.63608       848.605          48.750
G22  24924534.760   130979314.40906      3493.375          38.500    24924530.360   102061788.22905      2722.109          32.500
G23  24480771.740   128647333.85806     -1926.527          41.500    24480770.160   100244672.03805     -1501.195          33.250
G26  25230553.920   132587491.65406     -3472.660          36.750    25230555.280   103314932.67107     -2705.969          43.750
G27  21372759.360   112314642.50608     -1773.133          50.000    21372759.340    87517920.81209     -1381.664          55.000
G30  23621321.520   124130872.26507      1425.957          45.000    23621320.480    96725334.15106      1111.137          38.250
R02  23315982.120   124418549.22106      1518.324          41.750    23315988.360    96770010.36106      1180.918          40.250
R03  24145083.780   129250502.02606      3384.535          39.250    24145087.640   100528201.81906      2632.414          37.250
R09  21261978.320   113537772.59808      3045.406          48.750    21261981.340    88307164.26607      2368.648          46.500
R15  22086809.240   118025222.63907     -4201.688          46.750    22086813.940    91797419.30907     -3267.984          43.250
R16  19476148.220   104038085.06208      -931.152          48.000    19476152.260    80918531.62707      -724.234          45.500
R17  22713920.860   121546815.37707     -3316.371          44.500    22713924.760    94536448.35106     -2579.402          41.000
R18  19826100.320   105833102.90208     -1490.570          50.750    19826105.280    82314661.71008     -1159.336          48.750
R19  20418141.820   109223303.10806      1490.461          41.750    20418144.960    84951481.34107      1159.246          45.750
> 2021 01 01 00 30 30.0000000  0 20
G01  21964486.400   115424161.03807      3210.930          47.000    21964488.100    89940925.45907      2502.020          43.000
G07  22270420.720   117031843.91508      -263.484          48.500    22270418.440    91193643.79007      -205.316          42.750
G08  20552840.820   108005930.81908       230.742          51.250    20552841.160    84160496.63209       179.801          54.750
G10  23142576.800   121615068.37707      -226.406          46.500    23142577.300    94764994.79508      -176.426          52.000
G16  22684282.980   119206725.24207     -2901.805          47.750    22684280.540    92888365.55606     -2261.152          40.750
G20  24552425.340   129023878.46306     -2248.488          38.750    24552423.560   100538069.48605     -1752.070          34.250
G21  20747885.480   109030891.60208      1074.074          50.500    20747882.700    84959126.80908       836.941          49.000
G22  24904582.180   130874464.33306      3495.695          38.500    24904578.080   101980086.91706      2723.918          37.750
G23  24491811.560   128705348.69806     -1941.797          39.750    24491810.200   100289878.41706     -1513.086          37.750
G26  25250385.740   132691707.70206     -3475.305          37.500    25250387.100   103396139.91707     -2708.035          45.000
G27  21382897.540   112367919.39808     -1778.910          50.000    21382897.580    87559435.26709     -1386.168          55.000
G30  23613228.920   124088345.06307      1408.820          44.250    23613227.860    96692196.07106      1097.781          39.000
R02  23307500.900   124373291.05007      1498.422          43.500    23307506.920    96734809.61006      1165.438          40.250
R03  24126125.440   129149016.08406      3380.590          40.000    24126129.560   100449268.33806      2629.344          37.250
R09  21244916.200   113446661.60708      3028.117          48.500    21244919.400    88236300.16807      2355.199          46.500
R15  22110421.620   118151400.74407     -4210.801          47.000    22110426.380    91895557.81107     -3275.066          42.500
R16  19481449.400   104066403.37207      -957.277          47.750    19481453.540    80940556.96907      -744.555          45.750
R17  22732509.640   121646286.87507     -3315.648          45.000    22732513.360    94613815.09106     -2578.840          41.500
R18  19834505.040   105877967.73408     -1501.129          50.750    19834510.060    82349556.58408     -1167.547          48.750
R19  20409819.020   109178781.24506      1476.945          41.750    20409822.000    84916853.23407      1148.734          45.750
> 2021 01 01 00 31  0.0000000  0 20
G01  21946186.120   115327992.06007      3200.438          47.250    21946187.760    89865988.59707      2493.848          42.750
G07  22271978.480   117040029.42708      -281.922          48.750    22271976.220    91200022.10307      -219.680          43.000
G08  20551546.060   107999126.77208       222.973          51.250    20551546.360    84155194.77609       173.742          54.750
G10  23143920.000   121622126.58507      -244.176          46.750    23143920.540    94770494.70208      -190.270          51.750
G16  22700873.760   119293909.71407     -2910.086          47.500    22700871.100    92956301.51006     -2267.598          39.000
G20  24565299.740   129091535.03806     -2261.723          39.000    24565297.660   100590788.91104     -1762.375          29.000
G21  20741796.900   108998896.09008      1059.172          50.500    20741794.100    84934195.24608       825.328          48.500
G22  24884619.680   130769561.40006      3498.309          39.250    24884616.200   101898344.42905      2725.953          34.500
G23  24502941.480   128763836.87206     -1956.898          41.250    24502940.080   100335453.60705     -1524.859          34.000
G26  25270232.320   132796002.44106     -3477.426          37.500    25270233.940   103477408.49007     -2709.688          45.000
G27  21393070.920   112421381.44108     -1784.918          50.000    21393071.100    87601093.99409     -1390.848          54.750
G30  23605236.040   124046342.62307      1391.863          44.250    23605235.100    96659466.90606      1084.570          38.750
R02  23299134.180   124328645.11007      1478.297          42.750    23299140.200    96700085.00806      1149.785          39.500
R03  24107188.860   129047647.40206      3377.652          40.250    24107193.060   100370426.06506      2627.059          37.500
R09  21227952.940   113356078.77508      3010.836          48.500    21227956.060    88165846.86007      2341.762          46.250
R15  22134087.400   118277862.45507     -4219.855          47.500    22134091.880    91993916.95906     -3282.109          41.250
R16  19486898.340   104095510.93808      -983.047          48.000    19486902.420    80963196.17307      -764.598          45.500
R17  22751096.300   121745748.10407     -3314.977          43.250    22751100.100    94691173.79707     -2578.320          42.000
R18  19842971.340   105923161.13608     -1511.637          50.750    19842976.360    82384706.99708     -1175.723          48.750
R19  20401575.460   109134683.72906      1463.211          41.750    20401578.520    84882555.16607      1138.055          45.750
> 2021 01 01 00 31 30.0000000  0 20
G01  21927948.320   115232151.72707      3189.441          47.000    21927949.880    89791307.82907      2485.277          43.000
G07  22273643.420   117048777.90708      -300.621          48.750    22273641.100    91206839.08607      -234.254          43.500
G08  20550297.600   107992565.95008       214.957          51.250    20550297.880    84150082.43809       167.496          54.750
G10  23145367.680   121629733.86207      -262.430          46.750    23145368.400    94776422.47008      -204.492          52.250
G16  22717513.300   119381351.92507     -2918.863          46.750    22717510.640    93024438.29006     -2274.438          40.500
G20  24578251.400   129159595.87406     -2274.945          38.250    24578249.260   100643823.33705     -1772.691          32.250
G21  20735794.520   108967353.10808      1044.172          50.500    20735791.720    84909616.30608       813.641          49.250
G22  24864646.500   130664601.84606      3499.863          39.000    24864642.720   101816557.77805      2727.168          35.000
G23  24514159.900   128822789.81506     -1972.449          40.000    24514158.480   100381390.99805     -1536.969          35.750
G26  25290092.580   132900367.65606     -3479.555          38.250    25290094.020   103558731.99307     -2711.195          45.250
G27  21403278.280   112475021.26508     -1790.605          50.000    21403278.420    87642891.25709     -1395.281          55.000
G30  23597341.940   124004859.34407      1374.414          43.750    23597340.900    96627142.25806      1070.973          39.250
R02  23290881.460   124284607.37507      1458.031          43.500    23290887.480    96665833.50506      1134.020          39.000
R03  24088273.960   128946393.21706      3373.426          38.750    24088277.620   100291672.80006      2623.777          36.500
R09  21211087.920   113266021.04808      2993.473          48.750    21211090.880    88095801.95507      2328.246          46.500
R15  22157804.020   118404597.31107     -4228.672          46.500    22157808.760    92092488.50507     -3288.973          43.750
R16  19492493.600   104125399.73508     -1009.168          48.250    19492497.700    80986443.00307      -784.914          45.750
R17  22769679.280   121845190.72207     -3314.246          45.250    22769683.520    94768517.99906     -2577.750          41.500
R18  19851497.540   105968673.88708     -1522.086          51.000    19851502.400    82420105.81208     -1183.848          48.750
R19  20393409.800   109091002.91406      1449.352          41.750    20393412.820    84848581.21707      1127.273          45.750
> 2021 01 01 00 32  0.0000000  0 20
G01  21909773.820   115136644.41807      3177.922          47.250    21909775.540    89716886.57407      2476.301          43.250
G07  22275415.640   117058090.99108      -319.871          48.250    22275413.340    91214096.02307      -249.289          43.750
G08  20549095.880   107986250.58508       206.359          51.250    20549096.140    84145161.37509       160.797          54.750
G10  23146920.360   121637892.86607      -281.238          47.000    23146921.200    94782780.14608      -219.152          52.000
G16  22734202.200   119469052.86307     -2927.590          47.000    22734199.700    93092776.67106     -2281.242          40.250
G20  24591280.020   129228061.74706     -2289.344          39.500    24591278.380   100697173.41305     -1783.902          31.500
G21  20729878.600   108936264.99608      1028.652          50.500    20729875.820    84885391.82608       801.543          49.000
G22  24844663.360   130559589.75706      3501.398          38.250    24844659.260   101734730.21905      2728.367          35.250
G23  24525466.800   128882208.12806     -1988.465          39.000    24525465.320   100427690.97206     -1549.453          36.500
G26  25309966.300   133004804.27905     -3482.152          35.750    25309967.740   103640111.13007     -2713.371          46.750
G27  21413519.900   112528840.87808     -1797.129          50.250    21413519.900    87684828.61209     -1400.363          54.750
G30  23589547.320   123963898.91507      1356.711          44.250    23589546.540    96595225.03906      1057.172          38.500
R02  23282743.920   124241182.98707      1437.020          44.000    23282749.440    96632058.98106      1117.680          38.500
R03  24069381.640   128845260.55206      3369.359          37.750    24069385.400   100213014.02306      2620.613          37.000
R09  21194322.540   113176494.88108      2975.324          48.750    21194325.520    88026170.50907      2314.137          47.000
R15  22181571.440   118531604.15707     -4238.145          46.500    22181576.680    92191271.53507     -3296.340          44.000
R16  19498235.600   104156071.76408     -1035.441          48.000    19498239.620    81010299.01007      -805.348          45.750
R17  22788259.540   121944615.55407     -3313.910          45.250    22788263.400    94845848.45206     -2577.488          41.750
R18  19860083.440   106014506.15908     -1533.086          50.750    19860088.280    82455753.12508     -1192.398          49.000
R19  20385322.340   109047740.91106      1434.891          41.750    20385325.500    84814933.01507      1116.027          46.250
> 2021 01 01 00 32 30.0000000  0 20
G01  21891663.280   115041472.69907      3166.754          47.250    21891664.860    89642726.81107      2467.602          43.500
G07  22277295.220   117067968.88407      -338.477          47.500    22277292.960    91221793.07607      -263.746          44.500
G08  20547941.000   107980181.66808       198.238          51.250    20547941.300    84140432.35109       154.469          54.750
G10  23148578.100   121646604.48607      -299.562          46.500    23148578.760    94789568.42508      -233.426          51.750
G16  22750940.300   119557012.31607     -2936.297          47.000    22750938.000    93161316.49406     -2288.027          39.750
G20  24604385.260   129296931.03706     -2302.215          38.500    24604383.780   100750837.79204     -1793.934          28.500
G21  20724049.360   108905632.25908      1013.504          50.500    20724046.620    84861522.18008       789.742          49.000
G22  24824670.780   130454528.89206      3503.047          37.750    24824666.940   101652864.63403      2729.648          23.500
G23  24536861.920   128942090.76506     -2003.703          41.000    24536860.580   100474352.81005     -1561.332          34.500
G26  25329853.380   133109311.73405     -3483.930          34.750    25329854.820   103721545.45007     -2714.754          45.000
G27  21423795.740   112582840.50908     -1802.887          50.000    21423795.780    87726906.23209     -1404.852          55.000
G30  23581852.500   123923463.29107      1339.223          43.750    23581852.160    96563716.75606      1043.547          39.750
R02  23274722.080   124198375.53507      1416.719          43.500    23274727.080    96598764.30606      1101.891          38.500
R03  24050512.860   128744254.56706      3364.672          39.250    24050516.420   100134453.76706      2616.965          36.000
R09  21177657.500   113087505.01208      2957.473          48.250    21177660.680    87956956.17707      2300.258          47.000
R15  22205389.540   118658880.01507     -4246.895          47.250    22205394.560    92290263.88506     -3303.141          41.750
R16  19504124.080   104187526.76707     -1061.465          47.750    19504128.180    81034764.00007      -825.586          45.750
R17  22806836.120   122044021.90407     -3313.184          43.250    22806839.880    94923164.45306     -2576.926          41.000
R18  19868728.900   106060656.49208     -1543.469          50.500    19868733.880    82491647.82208     -1200.480          48.750
R19  20377313.320   109004898.11306      1421.293          41.500    20377316.500    84781610.85807      1105.449          45.750
> 2021 01 01 00 33  0.0000000  0 20
G01  21873616.620   114946636.92607      3155.762          47.250    21873618.200    89568828.84907      2459.035          42.500
G07  22279281.900   117078409.24208      -357.172          48.000    22279279.700    91229928.40107      -278.320          43.750
G08  20546832.820   107974358.01108       190.227          51.500    20546833.100    84135894.44109       148.223          54.750
G10  23150340.620   121655867.33407      -317.582          47.000    23150341.260    94796786.22708      -247.465          51.000
G16  22767727.180   119645227.93507     -2944.480          47.250    22767724.980    93230055.91306     -2294.402          40.500
G20  24617566.720   129366200.21806     -2315.137          38.250    24617565.240   100804813.81905     -1804.004          31.750
G21  20718306.480   108875453.33708       998.578          50.500    20718303.720    84838006.15008       778.109          48.750
G22  24804669.360   130349420.84406      3504.594          38.000    24804665.160   101570962.31005      2730.848          34.000
G23  24548345.080   129002434.39006     -2019.340          41.000    24548343.920   100521373.81505     -1573.520          34.500
G26  25349752.980   133213886.89205     -3486.953          34.250    25349754.880   103803032.43707     -2717.121          43.500
G27  21434105.460   112637018.07208     -1808.625          50.000    21434105.400    87769122.50509     -1409.320          55.000
G30  23574257.580   123883552.06907      1322.012          44.250    23574257.280    96532617.09606      1030.141          37.500
R02  23266816.100   124156186.30207      1396.105          43.500    23266820.860    96565950.47506      1085.859          38.750
R03  24031668.200   128643378.14106      3360.711          39.500    24031672.020   100055994.33805      2613.883          35.750
R09  21161093.560   112999053.78908      2939.535          48.750    21161096.560    87888160.78107      2286.301          46.750
R15  22229256.860   118786419.67507     -4255.309          46.000    22229261.620    92389461.42406     -3309.684          41.000
R16  19510158.700   104219762.35107     -1087.273          47.750    19510162.800    81059836.10707      -845.660          45.500
R17  22825408.480   122143407.04407     -3312.238          44.250    22825411.940    95000463.96906     -2576.188          41.000
R18  19877433.140   106107120.95708     -1553.723          50.500    19877438.320    82527786.83508     -1208.453          48.750
R19  20369382.200   108962472.34306      1407.527          41.500    20369385.360    84748613.05407      1094.742          46.000
> 2021 01 01 00 33 30.0000000  0 20
G01  21855634.340   114852139.30407      3144.230          47.500    21855635.820    89495194.35907      2450.051          43.250
G07  22281375.580   117089411.70708      -376.066          48.000    22281373.380    91238501.74207      -293.039          43.500
G08  20545771.240   107968779.42108       182.094          51.250    20545771.560    84131547.48709       141.887          54.750
G10  23152208.140   121665681.88007      -336.133          46.250    23152208.700    94804433.94408      -261.926          52.000
G16  22784562.640   119733698.65607     -2953.199          46.750    22784560.180    93298994.14506     -2301.199          39.500
G20  24630824.340   129435867.69506     -2328.738          39.250    24630821.800   100859100.11705     -1814.602          32.750
G21  20712649.880   108845728.06308       983.437          50.500    20712647.220    84814843.61008       766.316          49.000
G22  24784659.280   130244268.20906      3506.105          37.500    24784655.980   101489025.24806      2732.031          36.000
G23  24559915.680   129063237.52006     -2034.082          41.750    24559914.200   100568752.93005     -1585.004          32.750
G26  25369665.540   133318528.70806     -3488.941          37.500    25369667.500   103884571.50007     -2718.664          43.250
G27  21444448.880   112691373.70008     -1814.980          50.000    21444448.860    87811477.52509     -1414.273          55.000
G30  23566762.680   123844166.83107      1304.215          43.500    23566762.440    96501927.28806      1016.266          39.500
R02  23259026.200   124114618.08107      1375.488          43.750    23259030.940    96533619.65606      1069.820          39.000
R03  24012848.560   128542635.91106      3355.816          39.250    24012852.580    99977639.23706      2610.078          36.250
R09  21144631.240   112911145.36108      2921.219          48.750    21144634.080    87819787.56307      2272.059          47.000
R15  22253172.800   118914219.91207     -4264.320          46.250    22253177.780    92488861.56707     -3316.699          43.500
R16  19516339.220   104252777.97507     -1113.410          47.750    19516343.400    81085514.90707      -865.988          45.750
R17  22843977.040   122242769.91607     -3311.555          44.500    22843980.740    95077746.16907     -2575.656          42.250
R18  19886196.100   106153898.04308     -1564.426          50.750    19886201.240    82564169.00908     -1216.777          48.750
R19  20361529.040   108920463.31607      1393.582          42.000    20361532.200    84715939.38907      1083.898          45.750
> 2021 01 01 00 34  0.0000000  0 20
G01  21837716.280   114757979.64507      3132.555          47.000    21837717.820    89421823.22907      2440.953          43.750
G07  22283575.640   117100973.62307      -395.070          47.500    22283573.520    91247511.01307      -307.848          43.750
G08  20544755.840   107963443.68608       173.453          51.000    20544756.220    84127389.78009       135.160          54.750
G10  23154180.340   121676046.23207      -355.051          46.500    23154181.040    94812510.06408      -276.664          51.750
G16  22801446.020   119822421.49807     -2961.895          46.750    22801443.300    93368128.83206     -2307.969          39.500
G20  24644156.720   129505929.58306     -2341.938          38.000    24644154.260   100913693.88205     -1824.879          32.500
G21  20707079.300   108816454.29708       967.973          50.500    20707076.560    84792032.89508       754.266          49.000
G22  24764640.940   130139071.64606      3507.004          38.000    24764637.220   101407053.94404      2732.730          25.500
G23  24571573.000   129124496.37306     -2049.621          41.500    24571571.420   100616487.08505     -1597.109          34.750
G26  25389590.520   133423233.75806     -3491.328          38.500    25389592.080   103966159.87306     -2720.516          41.500
G27  21454825.800   112745904.74808     -1820.992          50.000    21454825.760    87853969.24509     -1418.957          54.750
G30  23559367.740   123805306.72207      1286.219          44.250    23559367.660    96471646.68406      1002.246          38.250
R02  23251352.760   124073672.69607      1353.980          42.500    23251357.920    96501773.29506      1053.098          40.000
R03  23994054.360   128442030.50506      3350.953          40.250    23994058.420    99899390.54906      2606.293          36.000
R09  21128270.720   112823781.74308      2902.629          48.500    21128273.760    87751838.08907      2257.598          47.000
R15  22277136.820   119042274.95308     -4273.113          48.000    22277141.820    92588459.90907     -3323.535          43.750
R16  19522665.280   104286570.42507     -1139.734          47.750    19522669.480    81111797.91307      -886.465          45.500
R17  22862540.580   122342106.99407     -3310.902          43.500    22862544.380    95155008.32306     -2575.148          40.750
R18  19895016.840   106200983.26408     -1574.969          50.750    19895021.920    82600790.83908     -1224.980          48.750
R19  20353753.320   108878868.73506      1379.500          41.750    20353756.560    84683588.05207      1072.941          46.000
