     3.02           OBSERVATION DATA    M: MIXED            RINEX VERSION / TYPE
HEADER CHANGED BY EPN CB ON 2021-01-09                      COMMENT
TO BE CONFORM WITH THE INFORMATION IN                       COMMENT
ftp://epncb.oma.be/pub/station/log/pdel.log                 COMMENT
                                                            COMMENT
Spider V7.1.1.7438  DGT                 20210102 000525 UTC PGM / RUN BY / DATE
SNR is mapped to RINEX snr flag value [1-9]                 COMMENT
LX:     < 12dBHz -> 1; 12-17dBHz -> 2; 18-23dBHz -> 3       COMMENT
       24-29dBHz -> 4; 30-35dBHz -> 5; 36-41dBHz -> 6       COMMENT
       42-47dBHz -> 7; 48-53dBHz -> 8; >= 54dBHz -> 9       COMMENT
Site Information :                                          COMMENT
Ponta Delgada                                               COMMENT
R A Acores                                                  COMMENT
Portugal                                                    COMMENT
Eurasian                                                    COMMENT
Universidade dos Acores                                     COMMENT
Product                                                     COMMENT
PDEL                                                        MARKER NAME
31906M004                                                   MARKER NUMBER
Divisao de Geodesia DIRECAO-GERAL DO TERRITORIO             OBSERVER / AGENCY
355328              LEICA GRX1200GGPRO  9.20/3.823          REC # / TYPE / VERS
987                 LEIAT504GG      NONE                    ANT # / TYPE
  4551596.0624 -2186893.3724  3883410.6118                  APPROX POSITION XYZ
        0.0000        0.0000        0.0000                  ANTENNA: DELTA H/E/N
G    8 C1C L1C D1C S1C C2W L2W D2W S2W                      SYS / # / OBS TYPES
R    8 C1C L1C D1C S1C C2P L2P D2P S2P                      SYS / # / OBS TYPES
DBHZ                                                        SIGNAL STRENGTH UNIT
    30.000                                                  INTERVAL
  2021    01    01    00    00    0.0000000     GPS         TIME OF FIRST OBS
  2021    01    01    23    59   30.0000000     GPS         TIME OF LAST OBS
     0                                                      RCV CLOCK OFFS APPL
G L2S -0.25000                                              SYS / PHASE SHIFT
G L2X -0.25000                                              SYS / PHASE SHIFT
R L2P  0.25000                                              SYS / PHASE SHIFT
E L8Q -0.25000                                              SYS / PHASE SHIFT
 23 R01  1 R02 -4 R03  5 R04  6 R05  1 R06 -4 R07  5 R08  6 GLONASS SLOT / FRQ #
    R09 -2 R10 -7 R12 -1 R13 -2 R14 -7 R15  0 R16 -1 R17  4 GLONASS SLOT / FRQ #
    R18 -3 R19  3 R20  2 R21  4 R22 -3 R23  3 R24  2        GLONASS SLOT / FRQ #
 C1C  -71.940 C1P  -71.940 C2C  -71.940 C2P  -71.940        GLONASS COD/PHS/BIS
    18    18  1929     7                                    LEAP SECONDS
                                                            END OF HEADER
> 2021 01 01 00 00  0.0000000  0 18
G01  23304001.080   122463355.10707      3646.410          43.250    23304002.300    95426008.50006      2841.359          39.250
G07  22810555.860   119870275.48307       935.180          47.250    22810553.240    93405390.86806       728.711          41.750
G08  20971862.720   110207902.78308       989.156          50.250    20971862.920    85876301.69509       770.770          54.750
G10  22861755.460   120139349.76307       655.414          47.500    22861755.960    93615086.90408       510.711          52.500
G16  21447358.180   112706666.03908     -2113.684          50.000    21447355.340    87823382.19107     -1647.027          46.000
G20  23697638.320   124531937.64907     -1535.242          43.500    23697636.020    97037859.38405     -1196.293          32.250
G21  21374080.880   112321592.85308      1921.324          49.750    21374078.520    87523338.64007      1497.137          45.750
G23  23745805.100   124785054.94607     -1150.742          43.500    23745803.480    97235107.77106      -896.684          38.500
G26  23626014.540   124155574.32907     -3202.063          43.500    23626016.120    96744620.63508     -2495.117          50.500
G27  20758197.160   109085097.40908     -1036.988          51.000    20758196.940    85001392.70809      -808.043          54.750
G30  24726423.660   129938226.81706      2311.270          38.500    24726423.880   101250560.95806      1800.992          36.500
R02  23593776.980   125900910.86807      2309.918          42.000    23593783.080    97922960.97206      1796.602          39.000
R09  22825823.260   121888612.10407      3905.059          44.750    22825826.560    94802264.03307      3037.270          42.000
R15  20587546.760   110013618.95308     -3333.688          50.750    20587551.800    85566172.38207     -2592.871          47.000
R16  19617487.600   104793105.47508       823.941          48.250    19617492.020    81505756.32707       640.844          45.750
R17  21493426.280   115015742.28708     -2986.711          48.500    21493429.660    89456737.59507     -2323.000          44.750
R18  19610722.540   104683414.50208      -548.891          51.000    19610727.700    81420499.92408      -426.918          49.000
R19  21380262.720   114370001.72606      2236.664          39.250    21380266.820    88954466.06407      1739.629          43.000
> 2021 01 01 00 00 30.0000000  0 18
G01  23283201.320   122354052.32707      3639.629          42.750    23283202.840    95340837.50606      2836.070          38.250
G07  22805266.820   119842482.32007       916.809          46.500    22805264.500    93383733.83807       714.391          42.000
G08  20966233.740   110178322.13908       981.937          50.750    20966233.880    85853251.83809       765.141          54.500
G10  22858060.160   120119930.16307       638.367          47.500    22858060.460    93599954.74608       497.426          52.500
G16  21459456.920   112770245.09508     -2125.816          50.000    21459454.060    87872924.28807     -1656.480          46.000
G20  23706447.840   124578230.82307     -1551.594          43.000    23706444.880    97073931.99505     -1209.035          34.750
G21  21363150.060   112264150.66708      1907.512          50.250    21363147.580    87478578.51407      1486.367          45.750
G23  23752421.040   124819822.09007     -1168.129          43.000    23752419.220    97262199.04906      -910.230          37.500
G26  23644309.600   124251716.16207     -3208.238          42.750    23644311.340    96819536.31608     -2499.930          51.000
G27  20764135.160   109116301.63108     -1044.172          51.000    20764134.880    85025707.68009      -813.645          54.750
G30  24713263.940   129869072.05606      2298.098          39.250    24713263.960   101196674.13805      1790.723          35.750
R02  23580830.500   125831826.42106      2295.094          41.500    23580836.740    97869228.61406      1785.074          39.000
R09  22803908.800   121771590.11507      3895.906          44.500    22803912.100    94711246.91607      3030.145          42.250
R15  20606308.160   110113874.10608     -3350.844          50.500    20606313.200    85644148.60807     -2606.215          47.250
R16  19612930.480   104768762.56608       798.129          48.000    19612934.980    81486822.94207       620.762          45.750
R17  21510176.240   115105374.97408     -2989.539          48.500    21510179.560    89526451.89307     -2325.199          45.000
R18  19613842.580   104700069.74408      -562.285          51.000    19613847.700    81433454.00008      -437.332          49.000
R19  21367751.440   114303072.91306      2224.242          39.750    21367755.240    88902410.35307      1729.965          43.750
> 2021 01 01 00 01  0.0000000  0 18
G01  23262441.700   122244960.43907      3632.703          42.750    23262443.400    95255830.87306      2830.680          38.000
G07  22800082.500   119815239.93507       898.707          46.500    22800080.400    93362505.99707       700.289          42.000
G08  20960645.780   110148957.39708       975.168          50.500    20960645.980    85830370.21909       759.867          54.750
G10  22854463.960   120101031.35507       620.949          47.500    22854464.020    93585228.41208       483.855          52.250
G16  21471624.260   112834184.87708     -2137.449          50.250    21471621.480    87922747.48207     -1665.547          46.000
G20  23715350.740   124625016.67407     -1567.910          42.250    23715347.960    97110388.50505     -1221.754          35.250
G21  21352299.400   112207129.95608      1893.602          50.000    21352296.760    87434146.79507      1475.535          45.250
G23  23759139.260   124855126.84207     -1185.750          42.500    23759137.400    97289709.24606      -923.965          37.000
G26  23662641.060   124348049.06307     -3214.250          43.250    23662642.880    96894600.89608     -2504.613          50.000
G27  20770114.180   109147721.60908     -1051.047          51.000    20770113.900    85050190.77309      -818.996          54.750
G30  24700182.500   129800329.32406      2284.566          39.500    24700182.660   101143108.39506      1780.180          37.000
R02  23567967.900   125763188.32807      2280.441          43.000    23567974.220    97815843.44006      1773.672          38.750
R09  22782047.560   121654852.49807      3886.512          44.250    22782050.980    94620450.99507      3022.840          43.000
R15  20625166.480   110214647.13508     -3367.848          50.750    20625171.520    85722527.59807     -2619.441          47.000
R16  19608518.140   104745192.29408       772.668          48.000    19608522.640    81468490.50107       600.961          45.750
R17  21526941.700   115195090.88607     -2992.020          47.750    21526945.380    89596230.90807     -2327.129          45.250
R18  19617038.500   104717129.39508      -575.578          50.750    19617043.580    81446722.61208      -447.676          49.250
R19  21355310.160   114236521.22406      2212.152          39.000    21355313.980    88850647.96007      1720.563          43.750
> 2021 01 01 00 01 30.0000000  0 18
G01  23241722.060   122136078.09607      3625.543          43.500    23241723.720    95170987.50306      2825.098          39.000
G07  22795002.620   119788545.61107       880.543          47.000    22795000.660    93341705.21306       686.137          41.250
G08  20955098.320   110119805.56608       968.027          50.500    20955098.600    85807654.51309       754.305          54.750
G10  22850966.560   120082651.56708       603.863          48.250    22850966.500    93570906.49508       470.539          51.750
G16  21483859.300   112898480.92208     -2149.273          50.000    21483856.620    87972848.28207     -1674.762          45.500
G20  23724346.420   124672289.93507     -1584.184          42.250    23724343.580    97147224.79605     -1234.434          34.750
G21  21341528.340   112150527.94008      1879.688          50.000    21341525.780    87390041.33507      1464.688          45.250
G23  23765958.760   124890964.84907     -1203.355          43.250    23765957.180    97317634.98606      -937.680          37.500
G26  23681008.300   124444568.27007     -3220.484          43.750    23681009.720    96969810.67808     -2509.469          49.750
G27  20776133.500   109179353.45708     -1058.117          51.000    20776133.220    85074838.95809      -824.512          54.750
G30  24687179.440   129731997.31506      2270.773          39.500    24687179.540   101089862.64705      1769.430          34.250
R02  23555188.820   125694997.12406      2265.148          41.750    23555195.340    97762805.86106      1761.781          39.000
R09  22760239.620   121538399.79307      3876.961          44.750    22760243.320    94529876.67607      3015.414          42.250
R15  20644120.540   110315931.21408     -3384.738          50.750    20644125.560    85801304.10407     -2632.578          47.250
R16  19604249.980   104722392.50408       746.953          48.250    19604254.540    81450757.32107       580.961          45.750
R17  21543721.740   115284884.32008     -2994.430          48.000    21543725.680    89666070.22107     -2329.000          44.750
R18  19620309.080   104734588.07708      -588.754          51.000    19620314.320    81460301.59108      -457.918          49.000
R19  21342938.700   114170342.76306      2199.852          39.500    21342942.820    88799175.86607      1710.996          43.750
> 2021 01 01 00 02  0.0000000  0 18
G01  23221043.500   122027410.50507      3618.270          43.750    23221044.940    95086311.44806      2819.430          37.500
G07  22790028.040   119762403.47807       861.816          47.500    22790025.840    93321334.69706       671.543          41.000
G08  20949591.980   110090869.42508       960.754          50.500    20949592.300    85785106.86609       748.637          54.750
G10  22847568.700   120064795.08507       586.223          47.750    22847568.700    93556992.35808       456.797          52.250
G16  21496162.720   112963136.02508     -2161.367          50.000    21496160.060    88023228.86307     -1684.188          45.500
G20  23733435.320   124720052.49607     -1600.531          42.750    23733432.420    97184442.38105     -1247.172          34.000
G21  21330837.740   112094348.48408      1865.383          50.000    21330835.140    87346265.11907      1453.543          45.500
G23  23772880.260   124927338.49407     -1221.895          43.250    23772878.680    97345978.05806      -952.129          38.500
G26  23699411.020   124541275.61907     -3226.887          42.250    23699412.420    97045167.02908     -2514.461          50.500
G27  20782193.720   109211199.89908     -1065.332          51.000    20782193.440    85099654.37209      -830.133          54.750
G30  24674255.300   129664081.22306      2256.836          40.500    24674255.480   101036941.02306      1758.570          36.750
R02  23542495.000   125627260.07607      2249.949          43.000    23542501.100    97710121.49406      1749.961          37.250
R09  22738486.340   121422239.38007      3867.020          45.000    22738489.960    94439529.69407      3007.684          42.750
R15  20663170.100   110417726.33508     -3401.879          50.750    20663174.880    85880478.07507     -2645.910          47.000
R16  19600126.980   104700368.20408       720.859          48.500    19600131.660    81433627.30607       560.664          45.750
R17  21560516.520   115374756.55108     -2997.371          48.000    21560520.420    89735970.82807     -2331.293          45.000
R18  19623654.660   104752447.22908      -602.246          51.000    19623659.900    81474192.04708      -468.418          49.250
R19  21330637.720   114104541.38206      2187.082          40.000    21330641.900    88747997.03807      1701.063          43.750
> 2021 01 01 00 02 30.0000000  0 18
G01  23200405.380   121918955.78207      3611.195          43.750    23200406.820    95001801.25606      2813.918          37.500
G07  22785157.840   119736810.16007       843.941          47.000    22785155.380    93301391.84606       657.613          41.500
G08  20944125.880   110062145.31708       953.418          50.250    20944126.240    85762724.45309       742.918          54.750
G10  22844269.920   120047459.29307       568.719          47.250    22844269.740    93543483.94008       443.152          52.750
G16  21508533.660   113028145.25908     -2173.316          50.000    21508530.940    88073885.40507     -1693.492          45.500
G20  23742616.220   124768299.10006     -1616.566          41.750    23742613.380    97222037.14205     -1259.668          34.250
G21  21320227.020   112038588.62708      1851.016          50.250    21320224.380    87302815.86907      1442.348          45.500
G23  23779903.100   124964242.90007     -1239.637          43.750    23779901.020    97374734.74206      -965.957          36.500
G26  23717848.500   124638165.79207     -3233.145          43.750    23717850.060    97120665.83908     -2519.336          49.250
G27  20788293.960   109243256.59308     -1072.473          51.000    20788293.620    85124633.60809      -835.691          54.500
G30  24661410.260   129596579.25206      2242.965          41.000    24661410.360   100984342.08905      1747.766          33.500
R02  23529886.340   125559976.80207      2234.645          42.750    23529892.300    97657790.00206      1738.055          39.000
R09  22716788.120   121306371.35407      3856.879          45.500    22716791.860    94349410.11207      2999.789          43.250
R15  20682314.000   110520025.00408     -3418.828          50.750    20682318.740    85960043.70607     -2659.094          47.000
R16  19596148.840   104679117.27008       694.945          48.500    19596153.440    81417098.78707       540.508          45.750
R17  21577324.740   115464701.64607     -2999.832          47.750    21577328.980    89805928.11007     -2333.207          44.750
R18  19627074.140   104770700.72608      -615.453          50.750    19627079.320    81488389.20408      -478.691          49.000
R19  21318406.620   114039112.44706      2174.352          40.000    21318410.640    88697107.89607      1691.164          43.500
> 2021 01 01 00 03  0.0000000  0 19
G01  23179808.860   121810719.79507      3604.273          43.250    23179810.240    94917461.52606      2808.520          37.000
G07  22780393.120   119711770.06607       825.418          47.750    22780390.740    93281880.07806       643.184          41.250
G08  20938700.920   110033636.82608       946.754          50.500    20938701.220    85740510.04209       737.727          54.750
G10  22841071.120   120030649.14708       551.687          48.250    22841070.760    93530385.13108       429.887          52.000
G16  21520972.620   113093511.91508     -2184.672          50.250    21520969.860    88124820.44307     -1702.344          45.750
G20  23751889.780   124817032.17607     -1632.371          43.000    23751886.900    97260010.94505     -1271.980          34.250
G21  21309696.860   111983252.27108      1837.555          50.250    21309694.080    87259696.60807      1431.855          45.500
G23  23787027.620   125001680.87107     -1256.785          43.750    23787025.240    97403907.23406      -979.312          37.000
G26  23736321.720   124735241.14007     -3238.656          43.250    23736322.880    97196308.98208     -2523.629          49.000
G27  20794434.860   109275526.83808     -1079.109          51.000    20794434.440    85149779.25509      -840.863          54.750
G30  24648645.040   129529497.14306      2229.355          40.500    24648645.000   100932070.32706      1737.156          36.750
R02  23517363.760   125493155.39907      2219.934          42.500    23517370.120    97605817.85006      1726.613          39.000
R03  24673341.480   132078341.02306      3429.285          36.500
R09  22695145.980   121190803.26907      3847.266          45.000    22695149.620    94259523.84307      2992.316          42.500
R15  20701552.120   110622828.07108     -3435.008          50.500    20701557.000    86040001.63707     -2671.672          47.000
R16  19592316.560   104658644.91408       669.457          48.500    19592320.960    81401175.83907       520.684          45.750
R17  21594147.140   115554721.65108     -3001.742          48.000    21594151.640    89875943.65307     -2334.691          45.000
R18  19630567.780   104789350.13908      -628.160          51.000    19630572.960    81502894.30308      -488.574          49.000
R19  21306245.720   113974060.28206      2162.039          39.500    21306249.740    88646511.79707      1681.586          43.750
> 2021 01 01 00 03 30.0000000  0 19
G01  23159254.420   121702705.18707      3597.078          44.000    23159255.860    94833294.30706      2802.918          38.250
G07  22775733.860   119687284.41707       807.270          47.250    22775731.380    93262800.34006       629.039          41.500
G08  20933317.180   110005344.50608       939.988          50.500    20933317.380    85718464.07409       732.453          54.750
G10  22837972.880   120014366.61908       534.379          48.250    22837972.460    93517697.43508       416.395          52.000
G16  21533479.560   113159236.26008     -2196.352          50.250    21533476.800    88176034.19807     -1711.445          45.500
G20  23761255.980   124866250.71207     -1648.484          42.500    23761253.020    97298363.09005     -1284.539          35.000
G21  21299247.600   111928340.85208      1823.777          50.250    21299244.860    87216908.49207      1421.125          45.500
G23  23794253.380   125039652.19707     -1274.391          42.750    23794250.940    97433495.28606      -993.035          37.750
G26  23754829.480   124832501.07407     -3244.699          42.250    23754830.640    97272095.93708     -2528.340          49.250
G27  20800616.400   109308010.88708     -1085.957          51.000    20800616.020    85175091.49909      -846.203          54.750
G30  24635960.120   129462837.75106      2215.215          39.750    24635960.340   100880127.94805      1726.137          34.000
R02  23504929.100   125426800.27507      2204.711          43.000    23504934.980    97554208.28206      1714.773          39.250
R03  24654121.140   131975424.83206      3431.781          40.000
R09  22673560.800   121075539.76407      3837.355          44.750    22673564.260    94169874.44207      2984.609          42.750
R15  20720884.120   110726132.72508     -3451.344          50.500    20720888.900    86120349.69707     -2684.379          46.750
R16  19588630.460   104638953.43008       643.707          48.250    19588634.720    81385860.23407       500.656          45.750
R17  21610983.280   115644815.20708     -3003.949          48.250    21610987.540    89946016.41107     -2336.410          45.000
R18  19634135.280   104808394.17108      -640.918          50.750    19634140.820    81517706.33708      -498.492          49.250
R19  21294155.540   113909385.63706      2150.191          39.250    21294159.640    88596209.33207      1672.371          43.750
> 2021 01 01 00 04  0.0000000  0 19
G01  23138741.340   121594907.59307      3589.438          44.250    23138742.680    94749296.20306      2796.961          38.500
G07  22771178.920   119663347.59108       788.559          48.000    22771176.120    93244148.26806       614.457          40.750
G08  20927973.260   109977262.15608       932.289          50.500    20927973.500    85696581.73209       726.461          54.750
G10  22834973.800   119998606.38707       516.332          47.500    22834973.520    93505416.73808       402.336          53.000
G16  21546053.140   113225310.96608     -2208.559          50.000    21546050.280    88227520.97007     -1720.957          45.500
G20  23770712.980   124915947.45307     -1664.930          42.750    23770710.400    97337087.80705     -1297.348          32.750
G21  21288878.080   111873848.49408      1809.223          50.250    21288875.360    87174446.91407      1409.785          46.000
G23  23801578.900   125078149.40207     -1292.184          43.750    23801577.080    97463493.10406     -1006.898          37.250
G26  23773370.740   124929937.64507     -3250.813          42.750    23773372.300    97348020.51108     -2533.105          50.000
G27  20806837.280   109340701.83708     -1093.340          51.000    20806837.000    85200564.96709      -851.953          54.750
G30  24623354.780   129396596.53106      2200.906          39.250    24623355.120   100828511.41306      1714.992          36.500
R02  23492581.280   125360908.92507      2188.516          43.500    23492587.040    97502959.47306      1702.180          39.500
R03  24634884.800   131872466.18106      3433.016          39.750
R09  22652032.240   120960578.62607      3826.652          45.000    22652035.880    94080460.23507      2976.195          43.250
R15  20740308.120   110829929.04708     -3468.227          50.250    20740313.120    86201080.15907     -2697.512          47.000
R16  19585089.440   104620037.70208       617.437          48.250    19585093.600    81371147.99507       480.227          45.750
R17  21627831.520   115734973.69007     -3006.621          47.500    21627835.660    90016139.65007     -2338.488          44.750
R18  19637775.300   104827824.47408      -654.363          50.750    19637780.880    81532818.78608      -508.949          49.250
R19  21282134.700   113845082.04506      2137.113          40.000    21282138.520    88546195.45707      1662.199          43.500
> 2021 01 01 00 04 30.0000000  0 19
G01  23118270.760   121487334.39807      3581.742          43.500    23118272.040    94665472.92306      2790.965          39.750
G07  22766729.600   119639965.57607       769.996          47.500    22766727.000    93225928.50907       599.992          42.000
G08  20922670.440   109949395.29408       925.176          50.500    20922670.560    85674867.28409       720.914          54.750
G10  22832075.460   119983375.01308       498.781          48.250    22832075.160    93493548.14408       388.656          52.250
G16  21558694.320   113291740.91308     -2220.426          49.750    21558691.520    88279284.55007     -1730.207          45.500
G20  23780261.520   124966126.31607     -1680.934          42.000    23780259.360    97376188.20105     -1309.824          34.250
G21  21278589.320   111819780.98908      1794.980          50.250    21278586.520    87132316.41107      1398.684          46.000
G23  23809005.820   125117176.89007     -1309.996          44.250    23809004.120    97493904.13106     -1020.777          37.000
G26  23791947.140   125027554.88507     -3256.809          43.000    23791948.520    97424085.88808     -2537.773          49.750
G27  20813098.460   109373604.66808     -1100.563          51.000    20813098.220    85226203.53609      -857.582          54.750
G30  24610830.380   129330780.94806      2186.684          39.500    24610830.820   100777226.55205      1703.906          35.750
R02  23480322.100   125295490.67107      2172.395          42.750    23480327.560    97452078.59806      1689.637          39.000
R03  24615638.800   131769440.39506      3434.867          39.500
R09  22630562.220   120845929.33507      3816.078          45.250    22630565.860    93991288.56707      2968.063          43.750
R15  20759824.560   110934219.12708     -3484.730          50.000    20759829.660    86282194.65907     -2710.352          46.750
R16  19581694.900   104601904.80408       591.227          48.250    19581699.040    81357044.62207       459.840          45.750
R17  21644692.660   115825200.73207     -3008.875          47.250    21644696.680    90086316.23407     -2340.234          44.500
R18  19641488.260   104847644.53308      -667.301          50.750    19641493.720    81548234.38208      -519.016          49.250
R19  21270184.160   113781154.86706      2124.504          39.750    21270187.700    88496474.34107      1652.391          43.500
> 2021 01 01 00 05  0.0000000  0 20
G01  23097843.160   121379986.71707      3574.527          43.750    23097844.640    94581825.39806      2785.344          39.500
G07  22762385.780   119617137.88908       751.602          48.000    22762382.960    93208140.69506       585.660          41.250
G08  20917408.520   109921743.05808       918.078          50.500    20917408.560    85653320.08509       715.383          54.750
G10  22829277.680   119968672.81908       481.016          48.000    22829277.340    93482091.87408       374.812          52.500
G16  21571402.680   113358524.15008     -2232.305          50.000    21571400.080    88331323.41407     -1739.461          45.250
G20  23789901.800   125016784.80507     -1697.082          42.250    23789899.040    97415662.33606     -1322.406          36.250
G21  21268381.340   111766137.72708      1780.945          50.250    21268378.720    87090516.47907      1387.750          46.250
G22  25740300.600   135266192.13116      3414.902          37.250
G23  23816533.340   125156732.69807     -1327.379          43.500    23816531.360    97524726.86306     -1034.320          36.500
G26  23810556.660   125125350.51706     -3262.508          41.750    23810558.600    97500290.25208     -2542.219          50.000
G27  20819399.680   109406718.06008     -1107.320          51.000    20819399.460    85252006.18209      -862.848          54.750
G30  24598387.220   129265392.13506      2172.656          40.250    24598387.540   100726274.23506      1692.980          37.750
R02  23468151.660   125230548.14406      2156.781          41.500    23468157.220    97401567.75906      1677.492          38.750
R03  24596382.700   131666360.74306      3436.762          37.250
R09  22609150.900   120731595.03407      3805.824          44.500    22609154.660    93902361.93007      2960.086          43.250
R15  20779432.500   111038998.65208     -3500.859          50.250    20779437.600    86363689.83707     -2722.895          46.500
R16  19578446.840   104584555.05408       565.199          48.000    19578451.080    81343550.36007       439.594          45.750
R17  21661566.120   115915493.75507     -3010.828          47.750    21661570.260    90156544.13207     -2341.754          44.500
R18  19645273.480   104867850.99708      -680.039          50.500    19645278.960    81563950.52408      -528.918          49.250
R19  21258303.780   113717603.24906      2112.238          39.750    21258307.340    88447045.32607      1642.852          43.250
> 2021 01 01 00 05 30.0000000  0 20
G01  23077458.520   121272864.24007      3567.988          44.000    23077460.020    94498353.33006      2780.246          38.250
G07  22758147.020   119594862.84207       734.203          47.500    22758144.160    93190783.51306       572.102          41.000
G08  20912186.680   109894303.01608       911.945          50.250    20912186.860    85631938.23809       710.605          55.000
G10  22826580.220   119954498.54107       464.621          47.750    22826580.220    93471046.98408       362.039          52.750
G16  21584177.740   113425657.77708     -2242.762          50.250    21584175.040    88383635.31307     -1747.609          45.250
G20  23799632.420   125067919.15107     -1711.848          42.750    23799629.720    97455507.26105     -1333.906          34.750
G21  21258253.780   111712917.08208      1767.797          50.250    21258251.240    87049045.86507      1377.504          46.250
G22  25720788.300   135163651.40106      3421.352          38.500    25720789.480   105322341.63104      2666.004          27.500
G23  23824160.300   125196813.56807     -1343.902          43.250    23824158.400    97555958.69605     -1047.195          35.500
G26  23829199.600   125223320.80007     -3268.031          42.750    23829201.720    97576630.69208     -2546.523          50.000
G27  20825740.480   109440039.25708     -1113.223          51.000    20825740.180    85277970.75109      -867.449          54.750
G30  24586025.300   129200429.76706      2159.129          40.000    24586025.420   100675654.23506      1682.434          36.250
R02  23456070.620   125166082.44807      2141.668          43.000    23456076.440    97351427.78706      1665.738          38.000
R03  24577116.840   131563229.11306      3439.660          38.500
R09  22587799.000   120617577.05307      3796.043          45.250    22587802.480    93813681.27707      2952.477          42.500
R15  20799131.080   111144262.06208     -3515.840          50.250    20799136.220    86445561.36407     -2734.547          46.750
R16  19575345.280   104567987.86008       540.035          48.000    19575349.620    81330664.75407       420.023          45.500
R17  21678451.100   116005848.30807     -3011.996          47.750    21678455.100    90226819.88607     -2342.664          44.250
R18  19649130.560   104888439.74108      -691.781          51.000    19649136.060    81579963.99008      -538.051          49.250
R19  21246493.080   113654424.86606      2100.320          40.000    21246496.980    88397906.63807      1633.578          43.750
> 2021 01 01 00 06  0.0000000  0 20
G01  23057114.780   121165958.17107      3558.801          43.750    23057116.300    94415049.91206      2773.090          38.500
G07  22754011.280   119573130.18307       714.383          47.500    22754008.560    93173848.97407       556.660          42.000
G08  20907003.160   109867064.01008       903.672          50.500    20907003.460    85610713.03809       704.156          54.750
G10  22823981.460   119940842.55308       445.684          48.250    22823981.620    93460405.95708       347.270          52.250
G16  21597017.420   113493130.53008     -2255.523          50.000    21597014.800    88436211.45807     -1757.555          45.250
G20  23809451.300   125119516.77007     -1728.547          42.250    23809448.520    97495713.18505     -1346.922          33.000
G21  21248204.700   111660108.87808      1752.242          50.500    21248202.200    87007896.64007      1365.383          46.000
G22  25701244.740   135060948.26006      3425.324          37.000    25701241.620   105242313.67306      2669.105          37.250
G23  23831884.960   125237407.56107     -1362.715          43.000    23831882.840    97587590.37906     -1061.855          37.250
G26  23847874.160   125321453.42907     -3274.438          42.750    23847875.560    97653097.70008     -2551.512          50.000
G27  20832118.740   109473557.06908     -1121.375          51.000    20832118.340    85304088.52609      -873.797          54.750
G30  24573742.840   129135885.07506      2142.980          40.750    24573743.140   100625359.67605      1669.855          32.500
R02  23444077.920   125102087.56207      2124.406          43.250    23444083.760    97301653.99706      1652.313          38.750
R03  24557839.540   131460038.04506      3439.363          37.000
R09  22566505.120   120503868.87107      3783.965          45.000    22566508.460    93725241.57407      2943.078          43.000
R15  20818917.520   111249994.65108     -3533.188          50.250    20818922.540    86527797.82007     -2748.035          46.500
R16  19572388.480   104552193.33108       512.551          48.000    19572392.800    81318380.10707       398.652          45.750
R17  21695345.140   116096251.66507     -3015.219          47.250    21695348.820    90297133.59707     -2345.176          44.500
R18  19653056.900   104909397.67308      -705.695          50.750    19653062.240    81596264.59308      -548.879          49.250
R19  21234750.520   113591608.65206      2087.219          39.750    21234754.080    88349049.61107      1623.391          43.750
> 2021 01 01 00 06 30.0000000  0 20
G01  23036818.660   121059301.26407      3551.598          44.250    23036820.080    94331940.63806      2767.480          37.750
G07  22749984.740   119551970.91107       696.371          47.500    22749982.020    93157361.21306       542.621          41.250
G08  20901864.160   109840057.41308       896.750          50.750    20901864.220    85589668.92509       698.766          54.500
G10  22821487.540   119927736.66308       428.238          48.250    22821487.520    93450193.56708       333.687          52.250
G16  21609927.280   113560972.15808     -2267.105          49.750    21609924.640    88489075.05307     -1766.578          45.500
G20  23819364.020   125171607.67207     -1744.125          42.750    23819360.720    97536303.50505     -1359.063          33.000
G21  21238240.180   111607744.18908      1738.578          50.250    21238237.380    86967092.99007      1354.734          46.250
G22  25681676.360   134958115.56106      3430.949          36.750    25681674.220   105162184.66205      2673.484          34.750
G23  23839713.200   125278544.32507     -1380.020          43.750    23839710.900    97619644.98206     -1075.344          36.000
G26  23866584.860   125419777.87007     -3280.578          42.750    23866586.100    97729714.13408     -2556.297          49.750
G27  20838540.220   109507301.83008     -1128.113          51.250    20838539.760    85330383.14509      -879.051          54.500
G30  24561546.240   129071790.67906      2129.254          41.250    24561546.540   100575415.99705      1659.160          35.000
R02  23432180.080   125038597.28707      2108.469          43.500    23432185.760    97252272.67306      1639.918          38.750
R03  24538558.180   131356822.82906      3441.910          36.000
R09  22545275.640   120390505.40307      3773.465          44.000    22545279.180    93637070.00907      2934.918          44.250
R15  20838797.120   111356224.48208     -3548.613          50.250    20838802.120    86610421.01807     -2760.035          46.500
R16  19569582.480   104537204.07008       486.730          48.250    19569586.820    81306721.78707       378.562          45.750
R17  21712253.880   116186732.96907     -3016.727          47.250    21712257.180    90367507.93707     -2346.348          44.000
R18  19657057.660   104930754.14608      -718.168          50.750    19657062.880    81612875.17908      -558.578          49.000
R19  21223081.160   113529185.64006      2074.555          39.500    21223084.600    88300498.39607      1613.543          43.750
> 2021 01 01 00 07  0.0000000  0 20
G01  23016566.960   120952877.63707      3543.309          43.750    23016568.200    94249013.12806      2761.020          37.500
G07  22746063.960   119531367.71707       677.160          47.000    22746061.540    93141306.74806       527.652          41.750
G08  20896765.660   109813265.20608       889.281          50.250    20896765.880    85568791.88609       692.941          55.000
G10  22819095.020   119915164.02507       410.090          47.750    22819094.980    93440396.71408       319.461          52.750
G16  21622903.820   113629163.90008     -2279.078          49.750    21622901.040    88542211.46307     -1775.910          45.000
G20  23829366.700   125224172.20007     -1760.223          42.500    23829363.300    97577262.87705     -1371.602          31.500
G21  21228356.640   111555805.51008      1724.051          50.250    21228353.840    86926621.29807      1343.414          46.500
G22  25662079.720   134855137.58406      3434.254          36.750    25662077.120   105081942.50205      2676.055          31.500
G23  23847641.180   125320204.91707     -1397.750          42.750    23847638.440    97652107.80306     -1089.156          38.250
G26  23885327.980   125518274.76307     -3286.371          42.750    23885329.780    97806464.94108     -2560.809          49.000
G27  20845001.360   109541255.21608     -1135.465          51.000    20845000.960    85356840.33109      -884.777          54.750
G30  24549432.380   129008130.65406      2114.656          41.500    24549432.400   100525810.79305      1647.781          34.000
R02  23420374.040   124975597.96107      2091.441          42.250    23420379.720    97203273.20306      1626.676          39.500
R03  24519269.500   131253569.81206      3442.020          40.750
R09  22524108.260   120277472.85007      3761.973          45.500    22524111.940    93549155.84507      2925.977          43.250
R15  20858765.620   111462929.68808     -3564.910          50.000    20858770.480    86693413.96607     -2772.707          46.500
R16  19566924.100   104523003.43408       460.039          48.000    19566928.440    81295676.84307       357.809          45.750
R17  21729173.200   116277272.27607     -3019.191          47.250    21729176.920    90437927.39907     -2348.266          45.000
R18  19661129.160   104952488.84508      -730.984          50.500    19661134.440    81629779.95108      -568.543          49.000
R19  21211481.920   113467137.36406      2061.988          39.750    21211485.220    88252238.65607      1603.770          43.500
> 2021 01 01 00 07 30.0000000  0 20
G01  22996359.260   120846686.09207      3535.555          43.750    22996360.640    94166266.47406      2754.977          38.750
G07  22742248.380   119511317.84907       658.680          46.500    22742246.080    93125683.46406       513.254          41.750
G08  20891707.260   109786684.04408       882.164          50.500    20891707.660    85548079.29409       687.398          54.750
G10  22816803.480   119903122.55008       392.219          48.000    22816803.660    93431013.74608       305.621          52.250
G16  21635946.200   113697701.93808     -2290.840          49.500    21635943.500    88595617.70807     -1785.074          45.250
G20  23839458.160   125277205.45806     -1776.070          41.250    23839455.140    97618587.47105     -1383.953          32.750
G21  21218553.580   111504290.30808      1709.789          50.000    21218550.820    86886479.59907      1332.301          46.750
G22  25642455.080   134752013.08505      3439.367          34.250    25642453.100   105001586.13305      2680.043          31.500
G23  23855667.660   125362385.06607     -1414.926          43.250    23855665.000    97684975.44406     -1102.539          36.000
G26  23904103.420   125616939.48907     -3292.059          43.000    23904104.780    97883346.52508     -2565.246          49.500
G27  20851501.520   109575413.70108     -1142.430          51.000    20851501.120    85383457.33009      -890.203          54.750
G30  24537400.800   128944903.85406      2100.254          40.750    24537400.960   100476543.16506      1636.563          39.250
R02  23408659.740   124913090.16207      2074.895          42.250    23408665.860    97154656.05306      1613.809          39.500
R03  24499974.220   131150279.40406      3443.199          39.250
R09  22503003.240   120164771.95007      3750.770          45.000    22503006.320    93461499.56607      2917.262          42.750
R15  20878821.860   111570103.67608     -3580.535          50.250    20878826.640    86776771.53507     -2784.859          46.500
R16  19564412.980   104509589.14208       433.652          48.000    19564417.280    81285243.48907       337.281          45.750
R17  21746102.480   116367864.69807     -3020.906          47.250    21746106.500    90508388.18007     -2349.594          44.500
R18  19665270.720   104974596.31708      -743.500          50.750    19665275.960    81646974.65008      -578.281          49.250
R19  21199952.160   113405461.14706      2049.148          39.750    21199955.640    88204268.30407      1593.781          43.750
> 2021 01 01 00 08  0.0000000  0 20
G01  22976197.220   120740733.87307      3527.637          44.250    22976198.820    94083706.30506      2748.805          39.500
G07  22738539.240   119491827.24307       640.227          47.250    22738537.240    93110495.96206       498.879          41.500
G08  20886690.360   109760319.48908       874.980          50.750    20886690.660    85527535.48309       681.801          54.750
G10  22814614.360   119891618.52308       374.375          48.000    22814614.680    93422049.57408       291.723          52.500
G16  21649055.360   113766591.01008     -2302.496          50.000    21649052.560    88649297.49807     -1794.156          45.000
G20  23849640.060   125330711.62207     -1791.504          42.750    23849636.900    97660280.59805     -1395.980          33.750
G21  21208832.240   111453204.10108      1695.613          50.500    21208829.360    86846672.17707      1321.258          46.250
G22  25622804.440   134648750.04906      3444.332          38.000    25622802.140   104921121.81405      2683.898          32.250
G23  23863793.960   125405088.85907     -1432.352          42.750    23863791.240    97718251.11805     -1116.121          34.250
G26  23922911.540   125715775.92507     -3297.309          42.250    23922912.440    97960361.94208     -2569.332          49.250
G27  20858041.640   109609782.17408     -1149.316          51.000    20858041.160    85410237.95609      -895.570          54.750
G30  24525452.780   128882117.46506      2085.516          41.000    24525453.080   100427618.71706      1625.078          36.250
R02  23397039.180   124851082.44407      2058.453          42.000    23397045.620    97106427.85706      1601.020          40.000
R03  24480673.100   131046960.81506      3444.359          38.000    24480677.280   101925433.73005      2678.945          34.750
R09  22481961.560   120052411.91407      3739.465          43.750    22481964.480    93374108.44206      2908.473          41.750
R15  20898966.040   111677748.64608     -3596.145          49.750    20898971.040    86860495.39807     -2797.000          46.250
R16  19562050.300   104496967.75308       407.281          48.000    19562054.520    81275426.84907       316.773          45.500
R17  21763042.440   116458513.77107     -3022.742          47.250    21763046.640    90578893.01107     -2351.023          44.500
R18  19669482.820   104997080.03708      -755.875          50.750    19669487.900    81664461.98408      -587.906          49.000
R19  21188492.700   113344161.98306      2036.969          39.500    21188496.420    88156591.21407      1584.309          43.750
> 2021 01 01 00 08 30.0000000  0 20
G01  22956080.860   120635021.09907      3519.820          44.750    22956082.460    94001332.72906      2742.719          39.000
G07  22734936.500   119472894.16007       621.863          47.250    22734934.540    93095742.89606       484.566          41.250
G08  20881714.240   109734169.62308       868.211          50.750    20881714.540    85507158.96609       676.527          54.750
G10  22812527.320   119880651.00408       356.684          48.250    22812527.580    93413503.45908       277.934          52.250
G16  21662230.820   113835828.36208     -2313.453          50.000    21662228.000    88703248.65907     -1802.691          45.250
G20  23859911.120   125384686.99307     -1806.895          42.000    23859908.080    97702339.31205     -1407.969          34.750
G21  21199192.180   111402545.25408      1681.551          50.500    21199189.180    86807197.76107      1310.297          46.250
G22  25603127.580   134545348.40306      3449.410          39.000    25603124.120   104840549.47805      2687.863          33.500
G23  23872019.160   125448313.23107     -1449.625          43.250    23872016.820    97751932.47106     -1129.578          37.250
G26  23941751.060   125814780.75106     -3302.941          41.500    23941752.460    98037508.53308     -2573.723          49.750
G27  20864621.220   109644358.23708     -1155.836          51.000    20864620.720    85437180.34909      -900.656          54.750
G30  24513588.840   128819771.45406      2071.203          41.500    24513588.560   100379037.43806      1613.930          37.000
R02  23385513.040   124789576.88907      2042.211          43.000    23385519.620    97058590.23206      1588.383          39.500
R03  24461367.460   130943616.62206      3445.641          38.500    24461371.500   101845054.82706      2679.930          36.500
R09  22460984.480   119940395.17007      3728.359          45.750    22460987.280    93286984.32607      2899.836          43.750
R15  20919197.360   111785858.82708     -3611.266          49.750    20919202.360    86944581.10307     -2808.766          46.250
R16  19559835.900   104485138.74808       381.227          48.250    19559840.160    81266226.50107       296.504          45.750
R17  21779992.280   116549215.64907     -3024.137          46.750    21779996.460    90649438.91407     -2352.105          44.000
R18  19673764.400   105019935.89108      -768.023          50.500    19673769.640    81682238.76308      -597.355          49.250
R19  21177103.560   113283237.99106      2024.383          39.750    21177107.300    88109205.93707      1574.520          44.000
> 2021 01 01 00 09  0.0000000  0 20
G01  22936009.100   120529543.55107      3511.523          44.000    22936010.660    93919142.44206      2736.254          39.750
G07  22731438.640   119454512.91307       603.238          47.250    22731436.420    93081419.83806       470.055          41.500
G08  20876777.840   109708228.58708       860.910          50.500    20876778.220    85486945.17409       670.840          54.750
G10  22810541.480   119870214.83708       338.637          48.250    22810541.660    93405371.38308       263.867          52.250
G16  21675471.240   113905407.07808     -2325.539          49.750    21675468.500    88757465.82807     -1812.113          45.000
G20  23870270.060   125439123.93106     -1822.527          41.750    23870267.000    97744757.72405     -1420.152          34.000
G21  21189632.300   111352308.03208      1667.277          50.250    21189629.300    86768051.87407      1299.176          46.250
G22  25583423.720   134441804.02506      3453.543          39.750    25583420.220   104759865.77805      2691.082          33.000
G23  23880341.940   125492050.83307     -1466.688          42.750    23880340.120    97786013.72406     -1142.879          37.250
G26  23960621.440   125913946.29206     -3308.766          41.500    23960623.320    98114780.36108     -2578.262          49.250
G27  20871239.120   109679135.48108     -1163.008          51.000    20871238.620    85464279.49609      -906.242          54.750
G30  24501807.560   128757861.63106      2056.086          41.000    24501807.700   100330796.01105      1602.141          34.500
R02  23374080.720   124728570.70707      2024.988          42.750    23374087.280    97011140.97706      1574.988          39.000
R03  24442056.680   130840244.27506      3446.016          38.750    24442060.800   101764654.17106      2680.238          38.750
R09  22440071.420   119828719.51007      3716.406          45.500    22440074.420    93200125.49407      2890.535          43.750
R15  20939513.680   111894424.45508     -3626.863          49.750    20939518.840    87029021.03007     -2820.898          46.250
R16  19557768.820   104474096.90108       354.500          48.250    19557773.180    81257638.39007       275.723          46.000
R17  21796950.320   116639962.39007     -3026.098          47.500    21796954.360    90720019.71807     -2353.637          44.000
R18  19678114.140   105043155.61308      -780.414          50.750    19678119.560    81700298.55308      -606.988          49.250
R19  21165783.320   113222682.66206      2012.332          40.250    21165787.200    88062107.38607      1565.148          44.000
> 2021 01 01 00 09 30.0000000  0 20
G01  22915984.200   120424311.77607      3503.883          44.500    22915985.740    93837143.66106      2730.297          39.750
G07  22728047.740   119436692.33107       584.996          47.250    22728045.400    93067533.66806       455.836          41.500
G08  20871882.780   109682504.83108       853.937          50.500    20871883.140    85466900.68709       665.406          54.750
G10  22808658.560   119860319.56608       321.039          48.000    22808658.680    93397660.78008       250.156          52.750
G16  21688778.020   113975334.64208     -2336.605          49.500    21688775.240    88811954.82707     -1820.734          45.250
G20  23880718.140   125494029.35906     -1837.730          41.750    23880715.740    97787541.14605     -1432.004          34.000
G21  21180154.360   111302501.49208      1653.242          50.250    21180151.480    86729241.58007      1288.242          46.500
G22  25563694.640   134338127.90806      3458.762          37.500    25563691.240   104679079.41704      2695.137          27.750
G23  23888763.880   125536309.10407     -1483.813          42.750    23888762.520    97820500.66006     -1156.223          36.750
G26  23979524.020   126013279.73407     -3313.609          42.250    23979525.800    98192183.02008     -2582.039          48.750
G27  20877896.840   109714122.00908     -1169.578          51.000    20877896.400    85491541.72209      -911.363          54.750
G30  24490111.720   128696398.43706      2041.301          41.500    24490111.620   100282902.61906      1590.617          37.500
R02  23362744.240   124668076.65907      2008.148          43.500    23362750.680    96964090.05706      1561.891          39.500
R03  24422742.560   130736856.52906      3447.023          37.250    24422747.520   101684241.50906      2680.758          36.750
R09  22419224.240   119717397.54907      3704.676          44.000    22419227.600    93113541.76507      2881.414          42.500
R15  20959916.500   112003451.08608     -3641.633          49.500    20959921.780    87113819.52107     -2832.387          46.250
R16  19555850.940   104463852.13808       328.391          48.000    19555855.340    81249670.23107       255.410          45.750
R17  21813918.240   116730760.88207     -3027.359          47.250    21813922.320    90790640.78407     -2354.613          44.000
R18  19682533.360   105066745.87508      -792.262          50.750    19682538.800    81718646.53008      -616.207          49.250
R19  21154533.640   113162504.52106      1999.535          40.250    21154537.340    88015302.18507      1555.195          43.750
> 2021 01 01 00 10  0.0000000  0 20
G01  22896005.360   120319322.96407      3495.504          44.000    22896007.040    93755334.20706      2723.766          40.500
G07  22724762.600   119419428.13607       565.930          47.750    22724759.920    93054081.04306       440.984          40.500
G08  20867028.120   109656993.71208       846.668          50.750    20867028.540    85447021.89309       659.738          54.750
G10  22806877.800   119850961.36708       302.703          48.250    22806877.940    93390368.67708       235.871          52.500
G16  21702150.180   114045605.85908     -2348.340          49.750    21702147.340    88866711.61407     -1829.879          44.500
G20  23891254.200   125549396.92506     -1853.695          41.250    23891251.720    97830684.72205     -1444.438          32.250
G21  21170757.620   111253121.14508      1638.762          50.500    21170754.660    86690763.39707      1276.953          46.250
G22  25543940.080   134234317.99106      3462.469          38.750    25543936.620   104598188.83605      2698.035          32.750
G23  23897283.960   125581081.94307     -1501.285          43.250    23897282.540    97855388.57005     -1169.836          35.500
G26  23998457.240   126112774.90006     -3319.367          41.500    23998458.840    98269711.72308     -2586.523          48.750
G27  20884593.340   109749312.73008     -1176.699          51.000    20884593.020    85518963.06109      -916.914          54.750
G30  24478500.040   128635378.94406      2026.387          41.750    24478499.980   100235354.98306      1579.004          36.750
R02  23351503.540   124608093.32107      1990.625          43.000    23351509.840    96917436.34206      1548.266          38.750
R03  24403425.800   130633452.92506      3446.801          39.500    24403430.220   101603816.51505      2680.840          34.500
R09  22398443.300   119606428.76607      3692.840          45.500    22398446.420    93027232.70407      2872.203          42.250
R15  20980403.860   112112930.02108     -3657.020          49.750    20980409.300    87198969.79307     -2844.352          46.000
R16  19554081.480   104454400.24908       301.602          48.000    19554085.960    81242318.74907       234.574          45.500
R17  21830894.620   116821604.58307     -3029.020          47.250    21830898.500    90861297.00507     -2355.902          43.250
R18  19687020.760   105090699.93208      -804.742          50.750    19687026.180    81737277.46108      -625.914          49.000
R19  21143353.580   113102698.53806      1986.953          39.750    21143357.320    87968786.44507      1545.406          43.750
> 2021 01 01 00 10 30.0000000  0 20
G01  22876072.760   120214578.57507      3487.313          43.250    22876074.780    93673715.22606      2717.383          40.000
G07  22721583.400   119402720.18707       547.582          47.500    22721580.520    93041061.85106       426.684          41.000
G08  20862213.960   109631694.86308       839.555          50.750    20862214.240    85427308.50409       654.199          54.750
G10  22805199.180   119842140.60908       284.953          48.000    22805199.180    93383495.36508       222.043          52.500
G16  21715587.420   114116219.10808     -2359.535          49.750    21715584.700    88921734.91807     -1838.602          44.750
G20  23901877.860   125605224.78506     -1868.449          41.000    23901875.420    97874186.92605     -1455.934          31.500
G21  21161441.980   111204167.09808      1624.535          50.500    21161438.960    86652617.38507      1265.867          46.500
G22  25524160.620   134130376.05106      3466.813          38.750    25524157.040   104517195.32805      2701.422          33.500
G23  23905901.520   125626367.72907     -1518.195          42.750    23905900.060    97890676.19606     -1183.008          38.500
G26  24017421.140   126212429.75006     -3324.594          41.500    24017422.700    98347364.84308     -2590.598          50.000
G27  20891328.540   109784706.78708     -1183.293          50.750    20891328.280    85546542.84309      -922.051          54.750
G30  24466972.920   128574804.54406      2011.648          40.500    24466973.060   100188154.13505      1567.512          34.250
R02  23340359.000   124548623.75807      1973.512          42.750    23340365.240    96871182.26206      1534.953          39.500
R03  24384107.080   130530037.06006      3447.617          40.500    24384111.360   101523381.97806      2681.418          36.250
R09  22377729.520   119495816.56907      3680.980          46.500    22377732.520    92941201.01207      2862.984          44.000
R15  21000975.460   112222857.36408     -3671.875          50.000    21000980.760    87284468.82707     -2855.906          46.250
R16  19552460.760   104445742.45308       275.250          48.000    19552465.100    81235584.89907       214.078          45.750
R17  21847879.000   116912491.32107     -3030.203          47.500    21847882.780    90931986.69507     -2356.828          44.500
R18  19691575.860   105115015.09008      -816.617          50.750    19691581.140    81756189.24908      -635.152          49.250
R19  21132242.820   113043264.44006      1974.816          40.000    21132246.880    87922559.94107      1535.965          44.000
> 2021 01 01 00 11  0.0000000  0 20
G01  22856187.800   120110083.50607      3478.957          44.000    22856189.880    93592290.49606      2710.871          39.250
G07  22718510.540   119386571.53407       528.918          47.500    22718507.520    93028478.48806       412.145          40.500
G08  20857440.820   109606611.11508       832.402          51.000    20857440.880    85407762.72809       648.625          54.500
G10  22803623.420   119833861.10608       266.801          48.000    22803623.640    93377043.80708       207.895          52.250
G16  21729090.060   114187176.44108     -2371.070          49.500    21729087.380    88977026.33607     -1847.586          44.750
G20  23912589.380   125661514.29706     -1884.418          41.750    23912587.180    97918048.87105     -1468.379          31.500
G21  21152208.100   111155642.54408      1610.215          50.250    21152205.200    86614806.05507      1254.711          46.750
G22  25504356.760   134026306.76306      3470.660          37.750    25504353.680   104436102.57505      2704.414          32.000
G23  23914617.180   125672168.04307     -1535.633          43.250    23914615.680    97926364.75006     -1196.598          36.000
G26  24036415.660   126312245.81507     -3330.027          42.000    24036417.380    98425143.55708     -2594.832          50.250
G27  20898102.900   109820306.69308     -1190.188          50.750    20898102.720    85574283.02609      -927.418          54.750
G30  24455531.620   128514680.03006      1996.441          41.500    24455532.260   100141303.88306      1555.664          39.000
R02  23329311.880   124489674.34707      1956.453          43.750    23329318.100    96825332.74106      1521.688          39.250
R03  24364787.060   130426615.86306      3447.383          39.250    24364791.520   101442943.31706      2681.297          38.000
R09  22357083.640   119385567.94207      3668.883          45.500    22357086.780    92855452.09807      2853.574          43.500
R15  21021630.800   112333232.39208     -3686.707          49.750    21021635.840    87370316.06607     -2867.438          45.750
R16  19550989.260   104437881.95107       248.477          47.750    19550993.560    81229471.16907       193.254          45.750
R17  21864871.860   117003422.13807     -3031.844          47.500    21864875.440    91002710.67107     -2358.102          44.250
R18  19696198.820   105139692.60408      -828.609          50.750    19696204.100    81775382.87508      -644.477          49.000
R19  21121202.280   112984204.84106      1962.566          40.000    21121206.180    87876624.72207      1526.441          43.500
> 2021 01 01 00 11 30.0000000  0 20
G01  22836351.160   120005840.52107      3470.902          44.500    22836353.260    93511062.21106      2704.594          40.000
G07  22715543.920   119370983.42207       510.516          47.250    22715541.080    93016331.89106       397.801          41.500
G08  20852708.660   109581743.45408       825.730          51.000    20852708.700    85388385.33009       643.422          54.500
G10  22802151.160   119826124.58007       249.059          47.750    22802151.420    93371015.34708       194.066          52.500
G16  21742658.380   114258478.37308     -2382.156          49.750    21742655.720    89032586.26907     -1856.230          44.750
G20  23923388.640   125718264.51306     -1898.938          41.750    23923386.400    97962269.83306     -1479.691          36.250
G21  21143056.020   111107548.43108      1596.328          50.750    21143053.160    86577330.12707      1243.891          46.250
G22  25484529.060   133922113.53806      3475.418          38.750    25484526.020   104354913.27205      2708.117          30.750
G23  23923430.720   125718482.48707     -1552.020          43.500    23923428.820    97962453.93906     -1209.371          36.500
G26  24055440.700   126412222.44407     -3335.117          43.250    24055442.100    98503047.42908     -2598.793          48.250
G27  20904916.620   109856112.98108     -1196.652          51.000    20904916.440    85602184.02409      -932.461          54.750
G30  24444176.460   128455008.09606      1981.824          41.000    24444176.480   100094806.28306      1544.273          36.500
R02  23318363.320   124431250.26907      1938.895          44.250    23318369.080    96779891.80406      1508.027          39.000
R03  24345467.020   130323194.46006      3447.250          37.750    24345471.460   101362504.47506      2681.191          36.000
R09  22336506.660   119275687.96407      3656.957          46.000    22336509.600    92769989.91807      2844.301          42.500
R15  21042369.480   112444052.53508     -3700.918          50.250    21042374.220    87456509.51807     -2878.492          46.000
R16  19549667.420   104430820.82308       222.273          48.250    19549671.700    81223979.16607       172.875          45.750
R17  21881872.780   117094396.38207     -3032.914          47.000    21881876.600    91073468.40607     -2358.934          44.250
R18  19700889.360   105164730.75608      -840.227          50.750    19700894.700    81794856.99708      -653.512          49.250
R19  21110231.940   112925520.56306      1950.379          39.500    21110235.600    87830981.40107      1516.957          43.750
> 2021 01 01 00 12  0.0000000  0 20
G01  22816562.220   119901847.90907      3462.121          44.000    22816564.200    93430029.01706      2697.754          40.250
G07  22712683.480   119355952.50807       491.879          47.000    22712680.860    93004619.48506       383.277          41.500
G08  20848016.800   109557087.96308       818.379          50.500    20848016.940    85369173.25509       637.695          55.000
G10  22800781.640   119818928.19007       230.828          47.750    22800782.080    93365407.76808       179.863          52.750
G16  21756291.460   114330120.16408     -2393.559          49.500    21756288.760    89088411.03907     -1865.113          44.750
G20  23934274.460   125775470.05106     -1914.250          41.250    23934272.460    98006845.58105     -1491.625          33.500
G21  21133985.340   111059881.38608      1581.727          50.500    21133982.460    86540186.98507      1232.516          47.000
G22  25464677.600   133817795.31606      3479.699          38.000    25464674.840   104273626.50806      2711.453          36.250
G23  23932341.220   125765306.07407     -1569.289          43.500    23932338.620    97998939.84706     -1222.824          36.750
G26  24074495.400   126512354.51007     -3340.387          42.250    24074496.380    98581072.38608     -2602.902          48.750
G27  20911768.860   109892121.59008     -1203.703          50.750    20911768.580    85630242.67009      -937.953          54.750
G30  24432906.940   128395786.86606      1966.637          41.500    24432907.020   100048659.90205      1532.445          34.000
R02  23307513.100   124373351.13307      1921.063          43.500    23307518.760    96734859.11806      1494.156          38.750
R03  24326146.820   130219773.13106      3447.254          40.500    24326151.400   101282065.65006      2681.199          38.000
R09  22315998.920   119166177.03707      3644.047          46.250    22316001.520    92684814.73807      2834.258          43.250
R15  21063189.840   112555310.58508     -3715.914          49.750    21063194.680    87543043.54207     -2890.160          45.750
R16  19548494.780   104424556.47508       195.535          48.000    19548499.080    81219106.89607       152.078          45.750
R17  21898880.740   117185408.56307     -3034.273          46.750    21898884.680    91144255.67707     -2359.996          44.250
R18  19705646.380   105190124.10008      -852.336          50.750    19705651.720    81814607.37408      -662.930          49.000
R19  21099330.940   112867207.71606      1937.543          39.750    21099334.560    87785626.99407      1506.977          43.750
> 2021 01 01 00 12 30.0000000  0 20
G01  22796821.540   119798109.21307      3453.957          45.000    22796823.160    93349193.68206      2691.391          39.250
G07  22709929.420   119341480.28707       473.223          47.250    22709926.800    92993342.41806       368.746          41.750
G08  20843365.780   109532646.72708       811.250          50.750    20843365.900    85350128.13209       632.141          54.750
G10  22799515.520   119812274.41108       212.988          48.000    22799516.020    93360223.01108       165.965          52.500
G16  21769989.220   114402102.57608     -2404.898          49.250    21769986.520    89144501.23807     -1873.945          45.000
G20  23945246.880   125833131.05406     -1929.520          41.750    23945244.640    98051776.20005     -1503.523          35.000
G21  21124996.280   111012643.30508      1567.645          50.500    21124993.400    86503378.09307      1221.539          46.750
G22  25444803.220   133713356.00306      3483.637          38.250    25444799.820   104192245.44805      2714.520          33.500
G23  23941348.460   125812639.13007     -1586.094          42.750    23941345.800    98035822.75405     -1235.918          35.500
G26  24093579.480   126612642.21107     -3345.188          42.250    24093580.680    98659218.63208     -2606.645          49.000
G27  20918659.900   109928333.85008     -1210.328          51.000    20918659.480    85658460.00709      -943.113          54.750
G30  24421724.060   128337019.81207      1951.371          42.000    24421723.920   100002867.35006      1520.543          38.000
R02  23296762.140   124315982.00707      1903.590          43.000    23296767.920    96690238.69206      1480.570          38.500
R03  24306828.040   130116357.87406      3447.227          39.000    24306832.820   101201631.62306      2681.176          36.250
R09  22295561.080   119057040.88007      3631.910          45.250    22295564.140    92599931.04407      2824.820          44.000
R15  21084091.860   112667004.53808     -3730.086          49.750    21084096.640    87629916.61007     -2901.184          45.500
R16  19547471.600   104419091.21908       169.008          48.000    19547476.020    81214856.12607       131.445          45.750
R17  21915895.440   117276458.84207     -3035.434          47.500    21915899.180    91215072.56507     -2360.898          44.000
R18  19710469.780   105215871.85108      -863.984          50.750    19710475.140    81834633.40308      -671.992          49.000
R19  21088499.660   112809267.66906      1925.348          40.000    21088503.100    87740562.53607      1497.492          43.500
> 2021 01 01 00 13  0.0000000  0 20
G01  22777129.480   119694625.31507      3445.047          44.750    22777130.800    93268556.88006      2684.449          39.250
G07  22707281.520   119327566.02807       454.617          47.250    22707279.040    92982500.11806       354.242          41.500
G08  20838755.380   109508418.69608       804.176          50.750    20838755.580    85331249.14709       626.625          54.750
G10  22798352.580   119806162.94908       194.715          48.250    22798353.120    93355460.82708       151.723          52.250
G16  21783751.280   114474423.30108     -2416.203          49.750    21783748.780    89200855.03207     -1882.758          44.250
G20  23956305.820   125891244.71806     -1944.938          41.000    23956303.360    98097059.63806     -1515.531          36.500
G21  21116088.580   110965833.65308      1553.293          50.500    21116085.820    86466903.05607      1210.359          46.500
G22  25424906.460   133608796.64606      3487.297          39.000    25424902.400   104110770.72304      2717.375          28.750
G23  23950451.800   125860479.25707     -1602.906          42.500    23950449.560    98073100.75306     -1249.023          37.750
G26  24112692.840   126713082.94406     -3350.605          41.250    24112693.980    98737484.13208     -2610.863          48.500
G27  20925589.380   109964748.31408     -1217.047          51.000    20925588.840    85686834.90409      -948.352          54.500
G30  24410627.800   128278707.63107      1936.215          43.000    24410627.680    99957429.32205      1508.738          31.500
R02  23286110.800   124259144.92507      1885.969          44.000    23286116.420    96646032.09406      1466.863          39.000
R03  24287510.760   130012951.71406      3447.082          39.000    24287515.440   101121204.64305      2681.063          35.750
R09  22275193.600   118948282.17007      3618.965          45.500    22275197.360    92515340.97907      2814.750          44.000
R15  21105074.420   112779129.49008     -3744.387          49.500    21105079.320    87717124.89207     -2912.305          45.750
R16  19546598.100   104414424.68408       142.324          48.000    19546602.460    81211226.58907       110.691          45.750
R17  21932916.880   117367544.19307     -3036.582          47.250    21932920.400    91285916.72707     -2361.785          43.750
R18  19715359.100   105241971.20508      -875.645          50.500    19715364.300    81854932.90708      -681.062          49.000
R19  21077737.900   112751698.80406      1912.387          40.000    21077741.340    87695786.77707      1487.410          44.000
> 2021 01 01 00 13 30.0000000  0 20
G01  22757486.360   119591399.72107      3436.855          44.500    22757487.560    93188121.34406      2678.070          40.250
G07  22704740.220   119314211.41707       435.934          47.250    22704737.820    92972093.91106       339.684          41.250
G08  20834185.740   109484405.48608       797.176          50.500    20834186.060    85312537.55109       621.176          55.000
G10  22797293.340   119800596.23008       176.793          48.250    22797293.800    93351123.11408       137.758          52.750
G16  21797578.020   114547083.48708     -2427.363          49.500    21797575.560    89257473.35807     -1891.457          44.750
G20  23967450.520   125949811.16107     -1959.320          42.000    23967448.260    98142695.77005     -1526.742          32.750
G21  21107262.720   110919453.75908      1539.230          50.500    21107259.900    86430762.90107      1199.398          47.250
G22  25404987.560   133504121.31906      3491.402          39.250    25404983.460   104029205.66805      2720.574          32.250
G23  23959651.960   125908826.73707     -1619.727          43.250    23959649.940    98110774.10106     -1262.129          37.000
G26  24131834.920   126813676.91406     -3355.238          41.000    24131836.360    98815869.00907     -2614.477          47.750
G27  20932557.560   110001366.30008     -1223.684          50.750    20932556.980    85715368.39309      -953.523          54.750
G30  24399618.420   128220853.73506      1920.977          41.500    24399618.100    99912348.38605      1496.863          34.000
R02  23275560.360   124202845.56607      1867.887          44.000    23275565.780    96602243.70406      1452.801          39.750
R03  24268196.520   129909560.76106      3446.133          41.000    24268200.740   101040789.43105      2680.434          35.750
R09  22254898.440   118839907.10007      3606.383          46.750    22254902.180    92431049.26207      2804.961          43.250
R15  21126137.520   112891683.80008     -3758.629          49.750    21126142.500    87804667.13307     -2923.379          46.000
R16  19545874.420   104410559.37807       115.828          47.750    19545878.820    81208220.23307        90.086          45.750
R17  21949945.060   117458664.78507     -3037.730          46.500    21949948.460    91356788.29207     -2362.680          43.750
R18  19720314.200   105268421.73508      -887.137          50.750    19720319.360    81875505.54708      -689.996          49.000
R19  21067045.740   112694502.78306      1900.793          40.250    21067049.060    87651301.00207      1478.391          44.250
> 2021 01 01 00 14  0.0000000  0 20
G01  22737892.640   119488434.51907      3428.082          45.000    22737894.000    93107888.74706      2671.234          39.500
G07  22702305.720   119301417.01107       416.941          47.750    22702303.140    92962124.24206       324.887          41.500
G08  20829657.020   109460607.49008       789.539          50.500    20829657.460    85293993.66009       615.227          54.750
G10  22796337.940   119795575.13308       158.223          48.250    22796338.260    93347210.57908       123.289          52.500
G16  21811469.260   114620082.31408     -2438.906          49.500    21811466.720    89314355.56307     -1900.449          44.250
G20  23978681.180   126008828.63506     -1974.656          40.250    23978679.100    98188683.43705     -1538.699          35.500
G21  21098518.820   110873504.28008      1524.398          50.500    21098516.060    86394958.13507      1187.844          46.750
G22  25385046.740   133399332.65906      3494.023          38.000    25385042.900   103947552.28705      2722.617          35.000
G23  23968948.480   125957680.29807     -1636.660          42.250    23968946.560    98148841.80505     -1275.328          35.000
G26  24151006.040   126914422.76706     -3360.688          40.750    24151007.440    98894372.26808     -2618.723          48.750
G27  20939564.360   110038187.63208     -1230.871          50.750    20939563.900    85744060.33809      -959.125          54.750
G30  24388696.800   128163460.06606      1905.523          41.750    24388696.860    99867626.02005      1484.824          34.750
R02  23265111.420   124147087.63307      1849.355          44.250    23265116.820    96558876.45006      1438.387          40.000
R03  24248886.020   129806189.16606      3445.320          40.750    24248890.240   100960389.37206      2679.695          38.250
R09  22234676.000   118731919.67207      3593.008          46.000    22234679.240    92347059.01207      2794.559          43.250
R15  21147280.180   113004664.02108     -3773.051          49.750    21147285.160    87892540.62807     -2934.598          45.750
R16  19545301.000   104407496.20708        88.602          48.000    19545305.480    81205837.75707        68.910          46.000
R17  21966979.340   117549819.32107     -3039.262          47.000    21966983.040    91427686.26907     -2363.875          44.250
R18  19725334.760   105295221.41908      -899.215          51.000    19725339.820    81896349.73608      -699.395          49.000
R19  21056423.420   112637679.83106      1887.977          40.500    21056426.740    87607105.40907      1468.426          44.500
> 2021 01 01 00 14 30.0000000  0 20
G01  22718348.820   119385730.57607      3419.117          44.750    22718350.100    93027859.68006      2664.246          40.000
G07  22699977.600   119289181.57807       398.668          47.500    22699974.940    92952590.12807       310.645          42.000
G08  20825169.200   109437023.89208       782.711          50.750    20825169.580    85275616.82609       609.902          54.750
G10  22795486.140   119791099.29608       140.211          48.000    22795486.600    93343722.90508       109.250          52.500
G16  21825424.600   114693417.86908     -2449.969          49.500    21825422.000    89371500.15107     -1909.066          44.250
G20  23989997.140   126068294.34106     -1989.512          40.000    23989994.640    98235020.32805     -1550.270          32.000
G21  21089856.640   110827984.40608      1510.332          50.250    21089853.960    86359488.12007      1176.883          47.250
G22  25365084.220   133294432.11906      3498.531          37.750    25365081.600   103865811.78105      2726.133          34.750
G23  23978340.640   126007037.52706     -1653.418          41.500    23978338.640    98187301.98206     -1288.383          36.000
G26  24170205.760   127015317.96906     -3365.324          41.500    24170206.760    98972991.86708     -2622.336          48.000
G27  20946609.580   110075210.87308     -1237.418          50.750    20946609.300    85772909.60809      -964.223          55.000
G30  24377863.000   128106527.23507      1890.020          42.250    24377862.760    99823262.79105      1472.738          35.000
R02  23254764.340   124091873.38907      1831.723          43.000    23254769.660    96515932.05006      1424.668          39.250
R03  24229579.760   129702839.97106      3444.922          41.000    24229583.680   100880006.66806      2679.383          37.750
R09  22214526.520   118624323.20007      3580.246          46.000    22214529.920    92263372.88207      2784.637          44.000
R15  21168501.840   113118065.45908     -3786.922          50.000    21168506.700    87980741.74807     -2945.387          45.500
R16  19544877.680   104405234.88608        62.082          48.000    19544882.180    81204078.94107        48.281          46.000
R17  21984019.320   117641004.63307     -3039.836          46.750    21984023.060    91498608.19407     -2364.316          44.000
R18  19730420.060   105322367.16008      -910.441          50.750    19730425.120    81917463.08908      -708.125          49.000
R19  21045870.540   112581228.46906      1876.020          40.500    21045873.820    87563198.81307      1459.125          44.250
> 2021 01 01 00 15  0.0000000  0 20
G01  22698855.160   119283290.50407      3410.434          45.000    22698856.360    92948036.23606      2657.477          40.500
G07  22697755.920   119277506.13407       379.859          47.250    22697753.060    92943492.37806       295.992          41.000
G08  20820722.300   109413655.17508       775.461          50.750    20820722.660    85257407.43409       604.250          54.750
G10  22794738.420   119787170.22107       122.211          47.750    22794738.860    93340661.29108        95.227          52.750
G16  21839443.980   114767089.66108     -2461.199          49.500    21839441.260    89428906.74707     -1917.816          44.000
G20  24001398.180   126128207.41506     -2004.645          40.500    24001395.680    98281705.83005     -1562.063          33.250
G21  21081276.400   110782895.08508      1495.887          50.250    21081273.780    86324353.59607      1165.625          47.250
G22  25345101.300   133189422.65306      3502.234          38.000    25345098.520   103783986.34605      2729.016          32.250
G23  23987828.460   126056897.76407     -1670.262          42.000    23987826.820    98226154.13605     -1301.508          35.500
G26  24189433.940   127116361.71006     -3370.387          41.250    24189435.020    99051727.24708     -2626.273          48.000
G27  20953693.360   110112436.49808     -1244.016          50.750    20953693.160    85801916.59109      -969.367          54.750
G30  24367117.200   128050057.78506      1874.695          41.500    24367116.920    99779260.63705      1460.805          35.500
R02  23244519.840   124037207.09407      1813.273          44.250    23244525.080    96473413.85006      1410.320          39.000
R03  24210278.320   129599518.52606      3443.852          39.000    24210282.400   100799645.53605      2678.543          35.500
R09  22194451.320   118517122.06907      3567.105          46.750    22194454.740    92179994.25507      2774.414          44.500
R15  21189801.800   113231885.01508     -3800.676          49.750    21189806.380    88069268.08007     -2956.082          45.250
R16  19544604.660   104403776.46508        35.414          48.000    19544609.200    81202944.60507        27.539          45.750
R17  22001065.120   117732220.44407     -3040.883          47.500    22001068.920    91569553.83707     -2365.133          43.500
R18  19735569.920   105349857.82508      -922.012          50.750    19735574.940    81938844.72008      -717.125          49.000
R19  21035386.920   112525148.98106      1862.949          40.500    21035390.360    87519581.46307      1448.961          44.000
> 2021 01 01 00 15 30.0000000  0 20
G01  22679411.800   119181114.97607      3401.535          45.250    22679412.940    92868418.92306      2650.543          40.000
G07  22695640.540   119266389.38007       361.363          47.500    22695637.680    92934829.96207       281.582          42.000
G08  20816316.220   109390500.71908       768.359          50.750    20816316.540    85239365.00109       598.719          54.750
G10  22794094.660   119783787.34708       103.828          48.000    22794094.940    93338025.27908        80.906          52.500
G16  21853526.960   114841096.35708     -2472.398          49.500    21853524.380    89486574.29607     -1926.547          44.250
G20  24012883.880   126188564.90806     -2019.320          40.500    24012881.580    98328737.66905     -1573.496          33.500
G21  21072777.960   110738235.38208      1481.660          50.500    21072775.280    86289553.84607      1154.539          47.250
G22  25325098.200   133084305.67406      3505.691          39.000    25325094.820   103702077.16905      2731.715          33.250
G23  23997411.800   126107258.35307     -1686.605          42.500    23997410.540    98265396.13306     -1314.238          38.000
G26  24208689.800   127217551.33507     -3375.293          43.000    24208691.000    99130576.27708     -2630.098          48.000
G27  20960815.400   110149862.94508     -1250.715          50.750    20960815.240    85831080.06009      -974.582          54.750
G30  24356459.720   127994052.22606      1859.277          41.500    24356459.280    99735619.91706      1448.785          36.000
R02  23234378.380   123983090.94007      1794.898          44.000    23234383.960    96431323.52106      1396.031          39.250
R03  24190982.220   129496227.62806      3442.500          41.500    24190986.640   100719308.22506      2677.500          38.750
R09  22174450.820   118410319.51307      3553.551          46.750    22174453.920    92096925.58007      2763.867          43.500
R15  21211178.900   113346117.86808     -3814.402          50.000    21211183.340    88158115.85207     -2966.762          45.250
R16  19544481.800   104403120.30508         8.719          48.250    19544486.320    81202434.23807         6.777          45.750
R17  22018115.980   117823463.52707     -3041.559          47.500    22018119.580    91640520.67107     -2365.656          43.500
R18  19740783.720   105377689.91608      -933.281          51.000    19740788.800    81960491.90408      -725.887          49.000
R19  21024972.680   112469439.92906      1851.086          41.000    21024976.100    87476252.21907      1439.730          44.500
> 2021 01 01 00 16  0.0000000  0 20
G01  22660018.640   119079203.87407      3392.586          45.000    22660020.020    92789007.66606      2643.570          40.500
G07  22693631.060   119255829.30507       342.746          47.250    22693628.060    92926601.33006       267.070          41.250
G08  20811950.560   109367558.23008       761.062          51.000    20811950.720    85221487.73009       593.031          54.500
G10  22793554.640   119780949.31308        85.410          48.000    22793554.860    93335813.81308        66.551          52.250
G16  21867672.920   114915434.52508     -2483.570          49.500    21867670.480    89544500.12507     -1935.254          43.750
G20  24024453.440   126249363.19606     -2034.016          40.500    24024450.780    98376112.93805     -1584.949          33.000
G21  21064360.680   110694003.29608      1467.258          50.250    21064358.200    86255087.30207      1143.316          46.750
G22  25305075.180   132979081.49206      3509.328          40.250    25305070.960   103620084.33105      2734.543          30.250
G23  24007089.560   126158115.81406     -1703.605          41.750    24007088.220    98305025.34206     -1327.484          36.750
G26  24227972.940   127318883.34606     -3380.289          41.750    24227973.620    99209536.27307     -2633.996          47.250
G27  20967975.240   110187487.90308     -1257.594          50.750    20967975.020    85860398.21209      -979.945          54.750
G30  24345890.080   127938510.21406      1843.547          39.250    24345890.060    99692340.46605      1436.531          34.250
R02  23224340.440   123929526.30407      1776.141          44.000    23224346.080    96389662.16306      1381.441          39.750
R03  24171692.580   129392969.62506      3441.648          38.500    24171697.400   100638996.50806      2676.840          37.500
R09  22154524.620   118303917.16307      3540.215          45.500    22154527.920    92014168.20907      2753.500          43.500
R15  21232632.320   113460758.40208     -3828.098          49.500    21232636.820    88247280.71007     -2977.414          45.750
R16  19544508.880   104403265.10308       -18.254          48.000    19544513.440    81202546.84807       -14.203          46.000
R17  22035171.420   117914730.44407     -3042.699          46.750    22035174.800    91711506.05607     -2366.543          44.000
R18  19746060.860   105405859.41308      -944.754          50.750    19746065.860    81982401.50408      -734.812          49.000
R19  21014627.060   112414099.10106      1838.563          40.250    21014630.780    87433209.37807      1429.992          44.250
> 2021 01 01 00 16 30.0000000  0 20
G01  22640677.060   118977564.38807      3383.602          45.000    22640678.680    92709808.07106      2636.570          39.750
G07  22691728.420   119245831.55807       323.922          47.500    22691725.660    92918810.85106       252.402          41.250
G08  20807626.200   109344833.28908       753.996          51.000    20807626.320    85203779.98409       587.531          54.500
G10  22793119.320   119778662.03508        67.051          48.250    22793119.700    93334031.52308        52.246          52.500
G16  21881882.980   114990108.37208     -2494.703          49.750    21881880.400    89602687.53007     -1943.930          44.250
G20  24036107.520   126310605.70006     -2048.969          41.250    24036105.060    98423834.36405     -1596.602          33.750
G21  21056025.980   110650204.29108      1452.852          50.500    21056023.440    86220958.22007      1132.094          47.000
G22  25285033.120   132873757.85606      3512.598          39.250    25285027.840   103538014.07803      2737.090          23.250
G23  24016862.600   126209473.94806     -1720.020          41.500    24016861.260    98345044.66305     -1340.277          35.000
G26  24247284.020   127420361.44207     -3384.969          42.250    24247284.180    99288610.11208     -2637.637          48.000
G27  20975173.780   110225316.28408     -1264.238          51.000    20975173.520    85889874.87409      -985.125          54.500
G30  24335410.160   127883438.69806      1828.227          41.500    24335410.100    99649427.58205      1424.590          34.750
R02  23214407.300   123876521.55807      1757.578          44.500    23214413.180    96348436.26006      1367.004          39.500
R03  24152411.040   129289754.14906      3439.805          40.500    24152415.420   100558717.76506      2675.402          38.250
R09  22134675.680   118197924.96007      3526.332          47.000    22134678.720    91931729.82907      2742.699          44.250
R15  21254162.140   113575808.56108     -3841.676          49.500    21254166.900    88336764.16707     -2987.973          45.500
R16  19544687.100   104404216.99408       -44.938          48.000    19544691.640    81203287.19807       -34.957          46.000
R17  22052231.760   118006025.01107     -3043.543          45.750    22052235.260    91782512.94507     -2367.199          43.000
R18  19751401.820   105434369.58308      -955.922          50.750    19751406.920    82004576.08508      -743.496          49.000
R19  21004351.420   112359131.70306      1826.324          39.750    21004355.060    87390456.98907      1420.473          44.250
> 2021 01 01 00 17  0.0000000  0 20
G01  22621386.680   118876193.75007      3374.234          45.000    22621388.600    92630817.97606      2629.270          41.000
G07  22689932.020   119236391.63007       305.266          47.250    22689929.360    92911455.06306       237.867          41.750
G08  20803342.300   109322321.22908       746.660          50.750    20803342.460    85186238.12009       581.809          54.750
G10  22792788.180   119776921.47508        48.867          48.000    22792788.440    93332675.23908        38.074          52.500
G16  21896155.900   115065112.63608     -2505.777          49.250    21896153.260    89661132.39707     -1952.559          44.250
G20  24047844.780   126372285.99506     -2063.414          40.750    24047842.100    98471896.93205     -1607.859          34.500
G21  21047772.920   110606833.85608      1438.434          50.500    21047770.220    86187163.09507      1120.855          47.000
G22  25264971.000   132768332.87706      3515.871          38.000    25264966.500   103455864.84205      2739.648          34.250
G23  24026729.920   126261326.66207     -1736.809          42.750    24026728.680    98385449.34505     -1353.359          34.500
G26  24266621.140   127521979.58106     -3389.668          41.000    24266621.540    99367793.05107     -2641.305          47.750
G27  20982410.100   110263343.19408     -1270.996          50.750    20982409.720    85919506.22509      -990.387          54.750
G30  24325019.480   127828834.74706      1811.957          41.250    24325019.440    99606879.07906      1411.914          36.750
R02  23204579.000   123824075.75707      1738.777          44.500    23204585.060    96307645.08706      1352.383          39.750
R03  24133137.580   129186580.65006      3438.574          39.250    24133142.160   100478471.75806      2674.316          36.500
R09  22114903.720   118092341.97807      3512.496          46.750    22114906.680    91849609.71907      2731.941          44.250
R15  21275767.140   113691259.52308     -3854.992          49.000    21275771.900    88426559.34107     -2998.332          45.000
R16  19545015.560   104405971.48107       -71.992          47.750    19545020.040    81204651.78807       -55.996          45.750
R17  22069296.080   118097341.05807     -3044.207          46.000    22069300.120    91853536.53707     -2367.719          43.750
R18  19756805.240   105463213.80308      -967.059          50.750    19756810.320    82027010.47308      -752.156          48.750
R19  20994144.560   112304532.51906      1813.910          40.500    20994148.340    87347990.96907      1410.816          44.000
> 2021 01 01 00 17 30.0000000  0 20
G01  22602148.520   118775097.15707      3365.578          45.250    22602150.560    92552041.40506      2622.523          40.500
G07  22688242.120   119227512.42007       286.910          47.000    22688239.700    92904536.17506       223.562          41.500
G08  20799099.600   109300025.57208       739.898          51.000    20799099.760    85168864.87409       576.543          54.750
G10  22792561.820   119775731.64308        30.879          48.250    22792562.040    93331748.09708        24.059          52.250
G16  21910492.080   115140449.60208     -2516.465          49.500    21910489.420    89719836.51807     -1960.883          43.750
G20  24059665.840   126434405.69906     -2077.879          40.750    24059663.400    98520301.88705     -1619.129          34.250
G21  21039602.000   110563895.44708      1424.422          50.500    21039599.240    86153704.60707      1109.934          47.000
G22  25244890.480   132662811.72306      3519.457          38.750    25244886.600   103373640.69505      2742.449          31.250
G23  24036691.720   126313675.84407     -1752.902          42.250    24036690.300    98426240.92306     -1365.902          37.750
G26  24285985.160   127623739.57206     -3394.031          41.000    24285985.980    99447086.51807     -2644.699          47.750
G27  20989684.740   110301571.72808     -1277.406          50.750    20989684.280    85949294.68609      -995.387          54.750
G30  24314718.600   127774703.41507      1796.781          42.000    24314718.700    99564698.81006      1400.086          37.500
R02  23194856.620   123772195.86607      1720.125          43.750    23194862.780    96267294.07206      1337.875          39.250
R03  24113872.980   129083457.18306      3436.633          39.750    24113877.820   100398264.61106      2672.938          37.250
R09  22095209.240   117987175.71807      3498.840          45.500    22095212.520    91767813.76407      2721.320          43.500
R15  21297447.180   113807111.22208     -3868.008          49.500    21297451.960    88516666.20607     -3008.449          45.250
R16  19545494.980   104408532.24208       -98.520          48.000    19545499.460    81206643.48107       -76.629          45.750
R17  22086365.100   118188680.31007     -3044.625          46.250    22086369.120    91924578.18207     -2368.043          43.500
R18  19762271.580   105492393.38808      -977.879          50.750    19762276.680    82049705.70508      -760.578          49.000
R19  20984007.500   112250304.81506      1801.891          40.250    20984011.000    87305813.88107      1401.465          44.250
> 2021 01 01 00 18  0.0000000  0 20
G01  22582962.560   118674273.74707      3356.156          45.000    22582964.580    92473477.70106      2615.184          40.250
G07  22686658.700   119219191.11907       268.070          47.000    22686656.180    92898052.04607       208.883          42.000
G08  20794897.680   109277944.07608       732.527          51.000    20794897.780    85151658.51709       570.801          54.750
G10  22792439.840   119775090.31608        12.219          48.000    22792440.020    93331248.36308         9.516          52.750
G16  21924890.920   115216115.31808     -2527.492          49.500    21924888.140    89778796.81207     -1969.477          44.000
G20  24071569.700   126496960.12806     -2092.223          41.250    24071567.220    98569045.60005     -1630.313          32.000
G21  21031512.720   110521386.35108      1409.879          50.250    21031510.060    86120580.64707      1098.605          47.750
G22  25224792.320   132557194.64806      3522.051          40.500    25224788.980   103291341.71005      2744.453          35.750
G23  24046747.160   126366517.22806     -1769.563          41.500    24046745.600    98467416.03406     -1378.883          38.000
G26  24305375.660   127725637.14606     -3399.082          40.500    24305376.580    99526487.19008     -2648.641          48.500
G27  20996997.160   110339998.85708     -1284.094          50.500    20996996.700    85979237.91009     -1000.594          55.000
G30  24304507.620   127721043.54606      1781.289          41.250    24304507.400    99522885.94605      1388.016          35.500
R02  23185240.240   123720881.68407      1701.156          43.750    23185246.400    96227383.05606      1323.121          39.500
R03  24094618.200   128980385.05806      3435.047          39.500    24094623.280   100318097.43106      2671.703          38.250
R09  22075593.360   117882427.87207      3484.559          47.250    22075596.180    91686343.20607      2710.207          43.750
R15  21319201.240   113923357.36708     -3881.305          49.500    21319206.000    88607079.85707     -3018.797          45.250
R16  19546124.960   104411897.37608      -125.629          48.000    19546129.440    81209260.80107       -97.715          46.000
R17  22103437.480   118280038.51307     -3045.355          46.250    22103441.780    91995634.56707     -2368.613          43.750
R18  19767799.840   105521903.71208      -989.160          50.750    19767805.000    82072658.17908      -769.352          49.250
R19  20973939.080   112196445.14606      1789.340          40.000    20973942.340    87263923.03507      1391.703          44.500
> 2021 01 01 00 18 30.0000000  0 20
G01  22563828.940   118573725.61907      3346.781          45.500    22563830.780    92395128.51306      2607.879          39.750
G07  22685181.480   119211428.12507       249.492          47.250    22685178.900    92892002.94006       194.406          41.000
G08  20790736.380   109256076.60108       725.152          50.750    20790736.520    85134618.92109       565.055          54.750
G10  22792422.440   119774998.32108        -6.215          48.000    22792422.440    93331176.67508        -4.848          52.250
G16  21939352.080   115292109.47708     -2538.738          49.250    21939349.360    89838013.02707     -1978.238          43.750
G20  24083555.980   126559948.07806     -2106.641          40.750    24083553.140    98618127.12405     -1641.543          31.500
G21  21023505.320   110479307.12008      1395.465          50.250    21023502.760    86087791.64307      1087.371          47.250
G22  25204676.200   132451484.16106      3525.277          39.750    25204673.080   103208969.99204      2746.969          27.250
G23  24056896.020   126419849.52407     -1786.008          42.250    24056894.400    98508973.66106     -1391.699          37.500
G26  24324791.620   127827671.10606     -3403.332          40.000    24324792.560    99605994.16507     -2651.945          47.750
G27  21004347.360   110378624.51608     -1291.023          50.750    21004346.920    86009335.83409     -1005.996          54.750
G30  24294386.640   127667857.09307      1764.770          42.000    24294386.240    99481441.93405      1375.141          34.750
R02  23175731.000   123670137.48207      1681.934          44.250    23175736.520    96187915.37406      1308.168          39.250
R03  24075374.180   128877369.02206      3432.934          41.000    24075378.780   100237973.84806      2670.059          38.250
R09  22056056.900   117778102.42307      3470.363          47.000    22056059.740    91605201.17607      2699.168          45.000
R15  21341028.400   114039994.32508     -3894.461          49.500    21341033.140    88697797.48507     -3029.027          45.500
R16  19546905.580   104416067.28908      -152.527          48.250    19546910.080    81212504.05207      -118.637          46.000
R17  22120513.400   118371414.74807     -3046.324          46.000    22120517.760    92066704.95407     -2369.367          43.500
R18  19773389.620   105551742.60908     -1000.270          50.750    19773394.940    82095866.21008      -777.992          49.250
R19  20963939.560   112142953.84906      1776.902          40.750    20963942.700    87222318.71007      1382.035          44.000
> 2021 01 01 00 19  0.0000000  0 20
G01  22544748.320   118473455.15507      3337.906          45.750    22544749.980    92316995.68106      2600.961          40.500
G07  22683810.480   119204223.57207       230.988          47.250    22683807.900    92886389.00006       179.988          41.250
G08  20786615.980   109234424.21808       718.273          51.000    20786616.200    85117746.94009       559.691          54.500
G10  22792509.520   119775456.62608       -24.242          48.000    22792509.680    93331533.79008       -18.891          52.250
G16  21953875.420   115368431.13908     -2549.324          49.250    21953872.920    89897484.44007     -1986.492          43.500
G20  24095624.240   126623367.66506     -2121.164          40.250    24095621.780    98667545.00205     -1652.859          35.000
G21  21015579.760   110437658.08908      1381.094          50.500    21015577.220    86055337.87607      1076.176          47.000
G22  25184543.080   132345683.28106      3528.121          39.750    25184539.320   103126527.83406      2749.188          36.500
G23  24067138.220   126473671.64707     -1802.207          42.750    24067136.440    98550912.99606     -1404.316          37.250
G26  24344233.440   127929840.33606     -3407.961          41.500    24344234.660    99685606.51507     -2655.555          46.250
G27  21011735.400   110417448.86708     -1297.227          51.000    21011734.980    86039588.56909     -1010.824          54.500
G30  24284355.980   127615146.00507      1749.148          42.500    24284355.860    99440368.37306      1362.969          36.750
R02  23166329.020   123619966.46507      1663.000          45.250    23166334.320    96148893.50306      1293.441          39.250
R03  24056141.320   128774413.69006      3430.891          41.250    24056145.920   100157897.48106      2668.465          38.000
R09  22036599.720   117674204.23407      3456.250          45.500    22036603.280    91524391.52107      2688.195          45.000
R15  21362928.060   114157018.98208     -3907.066          49.500    21362932.660    88788816.66707     -3038.832          45.500
R16  19547837.020   104421042.33508      -178.996          48.000    19547841.440    81216373.52407      -139.223          46.000
R17  22137592.380   118462807.53807     -3046.496          45.750    22137596.600    92137788.25707     -2369.500          44.000
R18  19779040.740   105581908.69808     -1010.816          50.750    19779046.120    82119328.71808      -786.191          49.000
R19  20954008.760   112089831.06806      1764.855          40.750    20954011.900    87181000.99507      1372.664          44.500
> 2021 01 01 00 19 30.0000000  0 20
G01  22525720.940   118373464.83107      3328.355          46.000    22525722.440    92239081.13506      2593.523          40.750
G07  22682545.980   119197578.26607       212.301          47.500    22682543.400    92881210.83806       165.430          41.000
G08  20782536.760   109212987.67008       711.016          51.000    20782536.900    85101043.12209       554.035          54.500
G10  22792701.620   119776466.42908       -42.754          48.000    22792701.760    93332320.65508       -33.316          52.500
G16  21968461.380   115445080.74508     -2560.418          49.500    21968458.880    89957211.40007     -1995.137          43.250
G20  24107774.480   126687218.27906     -2135.336          40.750    24107771.780    98717298.72206     -1663.898          36.000
G21  21007736.220   110396440.11108      1366.945          50.500    21007733.640    86023219.98707      1065.152          47.000
G22  25164393.240   132239795.43306      3531.055          40.500    25164389.360   103044017.89805      2751.477          30.750
G23  24077473.240   126527982.72807     -1818.254          42.250    24077471.240    98593233.29805     -1416.820          32.750
G26  24363701.500   128032143.99206     -3412.184          41.500    24363702.580    99765323.64607     -2658.844          47.750
G27  21019161.340   110456472.40908     -1303.965          50.750    21019160.980    86069996.52809     -1016.082          54.750
G30  24274416.200   127562912.71006      1732.953          41.000    24274415.920    99399667.11105      1350.352          34.000
R02  23157035.380   123570372.84707      1643.398          45.000    23157040.520    96110320.68106      1278.199          39.250
R03  24036920.440   128671524.13406      3429.141          41.750    24036925.440   100077872.30606      2667.105          38.000
R09  22017223.760   117570737.78207      3441.863          46.750    22017227.240    91443917.61207      2677.000          44.000
R15  21384899.620   114274428.20308     -3919.887          49.500    21384904.200    88880134.93607     -3048.805          45.000
R16  19548919.340   104426823.93708      -206.051          48.000    19548923.720    81220870.31007      -160.266          45.750
R17  22154674.420   118554216.47907     -3047.133          46.500    22154678.540    92208884.08907     -2369.992          43.000
R18  19784752.940   105612400.74808     -1021.699          51.000    19784758.300    82143044.75708      -794.660          49.000
R19  20944146.740   112037077.00206      1752.695          40.250    20944150.180    87139970.07207      1363.207          44.250
> 2021 01 01 00 20  0.0000000  0 20
G01  22506746.780   118273754.11407      3319.031          45.750    22506747.900    92161384.50306      2586.258          39.750
G07  22681387.440   119191489.60407       193.625          47.500    22681384.820    92876466.42006       150.871          41.750
G08  20778497.980   109191764.58108       703.770          50.500    20778498.240    85084505.65409       548.391          55.000
G10  22792998.360   119778025.82108       -61.137          48.000    22792998.520    93333535.75708       -47.645          52.500
G16  21983109.020   115522054.36608     -2571.184          49.250    21983106.500    90017190.83007     -2003.523          43.500
G20  24120006.080   126751495.35606     -2149.742          41.000    24120003.740    98767384.76605     -1675.129          33.500
G21  20999974.260   110355650.85608      1352.395          50.250    20999971.760    85991436.16707      1053.809          47.250
G22  25144226.680   132133820.52706      3533.902          39.000    25144222.920   102961440.14005      2753.695          30.750
G23  24087900.580   126582778.78507     -1834.586          42.250    24087898.560    98635931.52705     -1429.551          35.000
G26  24383194.340   128134578.21806     -3416.746          41.500    24383195.360    99845142.48607     -2662.398          46.750
G27  21026624.600   110495692.38808     -1310.523          50.750    21026624.320    86100557.55509     -1021.191          54.750
G30  24264567.240   127511156.32307      1717.145          42.000    24264567.320    99359337.45706      1338.035          36.250
R02  23147850.020   123521357.53907      1624.164          45.500    23147855.080    96072197.68206      1263.238          39.500
R03  24017712.800   128568702.54307      3426.066          42.500    24017717.140    99997899.95106      2664.715          36.750
R09  21997929.200   117467704.95207      3427.172          47.000    21997932.260    91363780.91707      2665.574          44.000
R15  21406941.900   114392215.96408     -3932.570          49.500    21406946.440    88971747.63007     -3058.668          44.750
R16  19550152.180   104433409.80308      -232.937          48.000    19550156.580    81225992.64107      -181.176          45.750
R17  22171758.780   118645637.47407     -3047.563          46.500    22171762.600    92279989.32607     -2370.332          43.500
R18  19790525.360   105643214.22508     -1032.641          50.750    19790530.660    82167010.79408      -803.164          49.000
R19  20934353.280   111984688.84606      1740.117          40.500    20934356.840    87099223.74107      1353.426          44.500
> 2021 01 01 00 20 30.0000000  0 20
G01  22487826.580   118174327.70807      3309.844          45.500    22487827.500    92083909.38506      2579.098          40.000
G07  22680335.440   119185960.34707       175.004          47.750    22680332.760    92872157.90406       136.363          41.250
G08  20774500.640   109170758.25508       696.766          51.000    20774500.880    85068137.07809       542.930          54.500
G10  22793400.340   119780138.13008       -79.559          48.250    22793400.560    93335181.71908       -61.996          52.250
G16  21997818.680   115599354.07208     -2581.957          49.250    21997816.080    90077424.36307     -2011.918          44.000
G20  24132318.980   126816200.10306     -2163.828          40.750    24132315.880    98817804.07005     -1686.102          34.000
G21  20992294.420   110315293.10108      1338.199          50.750    20992291.820    85959988.57307      1042.750          47.500
G22  25124044.600   132027763.95106      3536.684          40.000    25124041.300   102878798.77005      2755.859          32.250
G23  24098420.480   126638061.13006     -1850.762          41.500    24098418.900    98679008.65606     -1442.156          36.250
G26  24402711.980   128237144.40806     -3420.871          40.500    24402713.020    99925064.17007     -2665.617          47.500
G27  21034125.780   110535111.50308     -1317.141          50.500    21034125.580    86131273.75209     -1026.348          54.750
G30  24254809.920   127459881.30506      1701.336          41.250    24254810.000    99319382.87705      1325.715          34.000
R02  23138773.980   123472926.25907      1604.688          43.750    23138778.940    96034528.90706      1248.090          40.500
R03  23998518.820   128465955.90706      3423.918          41.250    23998523.140    99917985.94806      2663.047          38.500
R09  21978716.800   117365112.70307      3412.586          46.000    21978720.120    91283986.95107      2654.230          45.500
R15  21429054.840   114510381.55608     -3944.930          49.250    21429059.780    89063654.17707     -3068.281          45.000
R16  19551536.160   104440802.90908      -259.605          48.000    19551540.580    81231742.82807      -201.914          45.750
R17  22188845.680   118737072.33107     -3047.973          46.750    22188849.420    92351105.32007     -2370.645          43.500
R18  19796358.200   105674350.11508     -1043.121          50.750    19796363.320    82191227.60208      -811.316          49.000
R19  20924628.460   111932669.32006      1728.113          40.750    20924632.280    87058764.13607      1344.086          44.250
> 2021 01 01 00 21  0.0000000  0 20
G01  22468960.520   118075185.79407      3299.965          46.250    22468961.360    92006655.95606      2571.359          40.250
G07  22679389.340   119180988.46907       156.395          47.500    22679386.560    92868283.70506       121.863          41.500
G08  20770544.200   109149966.85908       689.371          50.750    20770544.480    85051935.98109       537.168          54.750
G10  22793907.320   119782802.15208       -98.012          48.250    22793907.480    93337257.57408       -76.375          52.500
G16  22012589.900   115676977.22608     -2592.941          49.250    22012587.320    90137909.92507     -2020.477          43.250
G20  24144712.540   126881329.14006     -2178.316          41.000    24144709.640    98868553.95004     -1697.395          28.250
G21  20984696.460   110275365.10808      1323.703          50.750    20984693.720    85928875.84907      1031.453          47.500
G22  25103847.320   131921626.90306      3539.129          40.750    25103843.440   102796094.61606      2757.758          36.750
G23  24109032.180   126693826.49407     -1867.266          42.500    24109030.500    98722462.19105     -1455.012          35.000
G26  24422254.320   128339839.28007     -3425.281          42.000    24422255.200   100005086.13307     -2669.055          46.750
G27  21041664.540   110574727.80908     -1323.906          50.750    21041664.360    86162143.60109     -1031.617          54.750
G30  24245144.080   127409087.53307      1685.938          42.500    24245144.380    99279803.32006      1313.715          36.250
R02  23129807.520   123425081.41207      1584.938          44.250    23129812.960    95997316.28206      1232.730          40.500
R03  23979339.540   128363287.13606      3420.676          40.000    23979343.840    99838132.45806      2660.531          38.750
R09  21959587.200   117262963.36907      3397.484          46.500    21959591.220    91204537.50707      2642.488          45.250
R15  21451237.480   114628919.49708     -3957.605          49.250    21451242.540    89155850.34307     -3078.137          44.500
R16  19553070.980   104449001.56507      -286.820          47.750    19553075.400    81238119.55007      -223.086          46.000
R17  22205934.700   118828517.72407     -3048.430          45.500    22205938.420    92422229.54807     -2371.000          43.250
R18  19802250.600   105705804.45408     -1053.840          50.500    19802255.860    82215692.08908      -819.652          49.000
R19  20914972.420   111881016.09806      1715.746          41.000    20914976.260    87018589.42807      1334.469          44.500
> 2021 01 01 00 21 30.0000000  0 20
G01  22450148.480   117976328.46807      3289.941          46.000    22450149.460    91929624.31706      2563.590          40.750
G07  22678548.820   119176572.10607       137.516          47.750    22678546.220    92864842.36906       107.152          40.500
G08  20766628.140   109129388.76108       681.891          51.000    20766628.620    85035901.10309       531.340          54.750
G10  22794519.000   119786016.54908      -116.844          48.250    22794519.140    93339762.30108       -91.051          52.250
G16  22027422.000   115754920.84208     -2603.973          49.500    22027419.520    90198645.20507     -2029.074          43.500
G20  24157186.280   126946878.53906     -2192.625          40.750    24157183.820    98919631.41005     -1708.543          30.500
G21  20977179.960   110235865.35808      1309.074          50.750    20977177.180    85898096.82707      1020.055          47.500
G22  25083635.200   131815410.07506      3541.387          40.750    25083630.980   102713328.32605      2759.523          32.500
G23  24119735.220   126750071.46007     -1883.367          42.000    24119732.940    98766289.42705     -1467.563          33.250
G26  24441820.740   128442659.57506     -3429.949          41.250    24441821.260   100085205.84107     -2672.691          46.500
G27  21049240.460   110614539.32208     -1330.934          51.000    21049240.200    86193165.55709     -1037.094          54.500
G30  24235569.860   127358774.83806      1668.563          41.250    24235569.960    99240598.62705      1300.176          35.000
R02  23120951.600   123377823.80607      1565.055          44.500    23120957.020    95960560.37406      1217.262          39.500
R03  23960175.120   128260698.70906      3417.582          40.000    23960179.260    99758341.46306      2658.121          38.000
R09  21940541.440   117161259.34207      3382.137          46.750    21940545.100    91125434.37307      2630.547          44.250
R15  21473488.900   114747824.46208     -3970.098          49.250    21473494.100    89248331.96107     -3087.859          45.000
R16  19554756.260   104458004.17208      -314.062          48.000    19554760.700    81245121.56307      -244.273          45.750
R17  22223024.640   118919970.64607     -3049.086          46.000    22223028.560    92493359.60007     -2371.516          43.500
R18  19808202.040   105737573.82908     -1064.844          50.750    19808207.360    82240401.60508      -828.211          49.000
R19  20905384.780   111829727.31906      1702.813          41.000    20905388.280    86978698.15607      1324.410          44.500
> 2021 01 01 00 22  0.0000000  0 20
G01  22431391.960   117877762.42707      3280.824          46.000    22431392.920    91852819.61006      2556.488          40.500
G07  22677814.860   119172715.96107       119.340          47.000    22677812.480    92861837.58706        92.992          41.250
G08  20762754.000   109109029.30508       674.969          51.000    20762754.340    85020036.58609       525.945          54.750
G10  22795236.420   119789786.67708      -134.906          48.000    22795236.600    93342700.06308      -105.125          52.500
G16  22042315.800   115833188.57808     -2614.230          49.000    22042313.340    90259633.04307     -2037.066          43.500
G20  24169740.500   127012851.37406     -2206.008          41.000    24169738.000    98971038.80705     -1718.973          33.750
G21  20969745.940   110196798.96408      1295.113          50.500    20969743.100    85867655.49007      1009.180          47.750
G22  25063409.180   131709120.71606      3544.066          39.750    25063404.820   102630505.55105      2761.613          31.250
G23  24130530.320   126806799.39906     -1899.070          41.500    24130528.020    98810493.02005     -1479.801          35.250
G26  24461410.980   128545608.78906     -3433.691          40.500    24461412.000   100165425.96807     -2675.609          46.750
G27  21056854.360   110654550.72908     -1336.973          50.750    21056854.080    86224343.27909     -1041.801          54.750
G30  24226088.400   127308949.62906      1652.793          41.250    24226088.780    99201773.79506      1287.891          36.750
R02  23112207.000   123331161.32607      1545.559          44.750    23112212.000    95924267.33806      1202.102          39.250
R03  23941027.420   128158200.22506      3415.012          40.000    23941031.920    99678620.43506      2656.117          38.000
R09  21921580.640   117060009.74907      3367.406          46.250    21921583.880    91046684.65407      2619.094          44.250
R15  21495809.320   114867097.46608     -3981.699          49.000    21495814.400    89341099.84507     -3096.883          44.750
R16  19556593.060   104467816.38607      -340.523          47.750    19556597.620    81252753.27507      -264.855          45.750
R17  22240116.800   119011434.63207     -3048.695          46.000    22240120.900    92564498.21707     -2371.211          43.750
R18  19814213.060   105769661.01608     -1074.852          50.750    19814218.440    82265358.30908      -836.000          49.000
R19  20895865.840   111778807.24806      1691.164          41.250    20895869.120    86939093.65907      1315.348          44.500
> 2021 01 01 00 22 30.0000000  0 20
G01  22412690.220   117779485.52107      3270.898          46.250    22412691.480    91776240.25306      2548.754          40.750
G07  22677186.940   119169416.02207       100.531          47.500    22677184.540    92859266.18906        78.332          41.750
G08  20758920.620   109088884.65508       667.766          50.750    20758920.900    85004339.45009       520.332          54.750
G10  22796058.980   119794108.86708      -153.352          48.250    22796059.000    93346068.00608      -119.500          52.500
G16  22057270.680   115911776.18608     -2625.141          49.250    22057268.000    90320870.12907     -2045.563          42.500
G20  24182374.200   127079241.96006     -2220.434          40.500    24182371.580    99022771.74005     -1730.211          35.500
G21  20962393.480   110158161.50208      1280.621          50.750    20962390.640    85837548.37707       997.883          47.500
G22  25043168.520   131602756.84006      3546.828          39.750    25043163.640   102547624.63005      2763.762          33.000
G23  24141415.960   126864004.61706     -1914.758          41.000    24141414.080    98855068.53505     -1492.020          33.750
G26  24481024.740   128648681.38306     -3437.848          39.250    24481026.140   100245742.24307     -2678.848          46.000
G27  21064505.500   110694757.85908     -1343.840          50.750    21064505.200    86255673.51009     -1047.148          54.750
G30  24216699.440   127259609.45506      1636.797          41.250    24216699.700    99163326.92606      1275.426          37.500
R02  23103573.960   123285093.13307      1525.293          44.750    23103579.020    95888436.53206      1186.340          39.000
R03  23921896.560   128055791.86206      3411.988          40.000    23921901.000    99598969.50106      2653.766          38.500
R09  21902704.700   116959214.56707      3352.051          46.500    21902708.560    90968288.42207      2607.152          45.250
R15  21518197.280   114986730.82208     -3993.988          49.250    21518202.020    89434148.00307     -3106.434          44.750
R16  19558580.660   104478433.65207      -367.547          47.750    19558585.140    81261011.13207      -285.875          45.750
R17  22257210.120   119102904.33107     -3049.363          46.000    22257214.100    92635641.30507     -2371.730          42.750
R18  19820282.540   105802060.15308     -1085.402          50.750    19820287.920    82290557.64108      -844.207          48.750
R19  20886415.120   111728251.72106      1678.633          41.000    20886418.320    86899772.69907      1305.602          44.500
> 2021 01 01 00 23  0.0000000  0 20
G01  22394044.020   117681499.99507      3261.406          45.500    22394045.340    91699887.93506      2541.355          41.000
G07  22676664.900   119166672.33107        82.461          47.250    22676662.420    92857128.23806        64.254          41.500
G08  20755128.180   109068955.05108       660.879          51.000    20755128.420    84988809.89009       514.965          54.750
G10  22796986.680   119798983.93207      -171.492          47.750    22796986.660    93349866.75308      -133.633          52.750
G16  22072286.200   115990682.99208     -2635.352          49.000    22072283.460    90382355.95107     -2053.523          43.250
G20  24195086.980   127146048.70306     -2233.824          40.750    24195083.900    99074828.95005     -1740.645          34.750
G21  20955122.800   110119953.82908      1266.648          50.500    20955119.820    85807776.17607       987.000          47.500
G22  25022914.560   131496322.34206      3549.035          39.750    25022909.940   102464688.66405      2765.477          32.000
G23  24152392.380   126921685.88106     -1930.484          41.250    24152390.640    98900014.96606     -1504.273          36.000
G26  24500662.180   128751876.12006     -3442.020          40.250    24500663.040   100326153.72407     -2682.098          46.750
G27  21072193.980   110735160.82308     -1349.895          50.750    21072193.640    86287156.33609     -1051.871          54.750
G30  24207403.180   127210756.22007      1620.684          42.250    24207403.060    99125259.48506      1262.871          37.750
R02  23095052.780   123239623.02807      1506.008          45.000    23095058.080    95853070.89606      1171.336          39.750
R03  23902783.540   127953478.58906      3408.848          41.000    23902788.120    99519392.53806      2651.320          38.750
R09  21883915.160   116858878.28107      3336.934          47.250    21883918.940    90890249.09207      2595.391          45.500
R15  21540651.900   115106721.40208     -4005.457          48.750    21540656.760    89527473.99007     -3115.359          45.250
R16  19560719.040   104489856.56908      -393.941          48.000    19560723.600    81269895.61207      -306.402          46.250
R17  22274304.460   119194378.78607     -3048.863          45.000    22274308.380    92706788.11007     -2371.344          43.750
R18  19826410.100   105834769.30508     -1095.215          50.750    19826415.380    82315998.09308      -851.836          49.250
R19  20877032.480   111678060.76306      1667.121          40.500    20877035.900    86860735.29607      1296.645          45.250
> 2021 01 01 00 23 30.0000000  0 20
G01  22375453.720   117583807.66407      3251.164          46.000    22375455.180    91623764.08106      2533.375          41.000
G07  22676248.620   119164484.37107        63.285          47.250    22676246.080    92855423.32607        49.309          42.000
G08  20751377.000   109049241.49008       653.254          51.000    20751377.060    84973448.66709       509.023          54.500
G10  22798019.560   119804412.22908      -190.457          48.250    22798019.620    93354096.59708      -148.406          52.000
G16  22087362.160   116069907.55808     -2646.375          49.250    22087359.420    90444089.37807     -2062.109          42.500
G20  24207878.820   127213269.50306     -2248.074          41.250    24207876.140    99127208.80905     -1751.750          35.500
G21  20947933.940   110082175.81008      1251.895          50.750    20947930.900    85778338.75907       975.500          47.750
G22  25002647.480   131389819.63206      3550.477          40.250    25002643.180   102381699.62605      2766.605          33.500
G23  24163459.000   126979841.58507     -1946.652          42.000    24163457.240    98945331.08705     -1516.875          32.000
G26  24520322.420   128855191.69906     -3446.219          40.750    24520323.460   100406659.32907     -2685.367          47.500
G27  21079919.720   110775759.49308     -1356.766          51.000    21079919.300    86318791.65209     -1057.223          54.500
G30  24198199.280   127162391.46706      1603.953          41.750    24198199.480    99087572.69705      1249.836          34.750
R02  23086644.340   123194754.37607      1485.352          44.000    23086649.940    95818173.06206      1155.270          40.250
R03  23883689.080   127851264.86706      3405.234          41.250    23883693.940    99439893.02606      2648.410          38.750
R09  21865212.200   116759005.14707      3321.066          46.750    21865215.880    90812570.00107      2583.051          44.750
R15  21563172.660   115227065.26408     -4017.590          48.500    21563177.480    89621074.77007     -3124.793          44.750
R16  19563008.280   104502085.18007      -421.320          47.750    19563012.860    81279406.73907      -327.699          46.000
R17  22291399.000   119285856.75807     -3049.676          45.750    22291403.480    92777937.62507     -2371.969          43.250
R18  19832595.420   105867786.95508     -1105.996          50.500    19832600.660    82341678.49008      -860.223          49.000
R19  20867717.960   111628233.77106      1654.715          41.000    20867721.220    86821980.97907      1287.000          45.000
> 2021 01 01 00 24  0.0000000  0 20
G01  22356919.520   117486410.18207      3241.645          46.750    22356920.980    91547869.99506      2525.957          40.750
G07  22675937.860   119162851.78607        45.301          47.250    22675935.440    92854151.16606        35.297          41.250
G08  20747666.640   109029743.76608       646.359          50.750    20747666.800    84958255.63209       503.656          54.750
G10  22799157.940   119810393.93608      -208.430          48.250    22799157.940    93358757.67108      -162.414          52.000
G16  22102498.400   116149448.89608     -2656.547          49.000    22102495.580    90506069.63607     -2070.039          42.750
G20  24220749.040   127280902.46706     -2261.594          40.250    24220746.360    99179909.80504     -1762.281          29.000
G21  20940826.720   110044826.95608      1237.824          50.750    20940823.620    85749235.75007       964.535          47.500
G22  24982367.920   131283250.99406      3553.695          39.000    24982364.440   102298659.17806      2769.109          37.750
G23  24174615.680   127038469.85007     -1961.855          42.250    24174613.860    98991015.48206     -1528.723          36.000
G26  24540005.480   128958626.29906     -3449.590          40.750    24540006.760   100487257.69607     -2687.996          46.000
G27  21087682.640   110816553.54308     -1363.035          50.750    21087682.140    86350579.21509     -1062.109          54.750
G30  24189089.060   127114516.48307      1587.672          42.000    24189089.360    99050267.47406      1237.148          36.250
R02  23078349.020   123150489.28207      1465.379          45.000    23078354.680    95783744.68506      1139.738          39.750
R03  23864614.320   127749155.17506      3401.961          41.500    23864618.920    99360474.36806      2646.043          37.750
R09  21846596.620   116659599.08907      3305.699          46.750    21846600.080    90735254.16407      2571.098          44.500
R15  21585758.620   115347758.61508     -4028.832          48.500    21585763.780    89714947.36807     -3133.535          44.250
R16  19565448.280   104515119.07508      -447.789          48.000    19565452.780    81289544.20107      -348.285          45.750
R17  22308494.200   119377336.81907     -3049.363          45.750    22308498.480    92849088.79007     -2371.730          43.000
R18  19838838.040   105901110.87208     -1115.773          50.750    19838843.280    82367597.08708      -867.828          48.750
R19  20858471.100   111578770.48706      1642.918          40.750    20858474.660    86783509.55507      1277.824          45.000
> 2021 01 01 00 24 30.0000000  0 20
G01  22338441.900   117389309.29007      3231.773          45.750    22338443.460    91472207.02707      2518.266          42.250
G07  22675732.720   119161774.14407        26.605          47.250    22675730.460    92853311.43606        20.727          41.250
G08  20743997.460   109010462.07108       639.102          51.000    20743997.600    84943230.93709       498.000          54.750
G10  22800401.700   119816929.27408      -227.152          48.000    22800401.640    93363850.13008      -177.000          52.500
G16  22117694.580   116229305.67708     -2667.199          49.000    22117691.760    90568295.69007     -2078.340          42.750
G20  24233697.120   127348945.90906     -2275.023          40.000    24233694.220    99232930.68405     -1772.746          32.250
G21  20933801.120   110007907.16608      1223.422          50.500    20933798.080    85720467.08807       953.316          47.750
G22  24962076.660   131176619.15906      3555.898          39.000    24962073.000   102215569.51505      2770.828          30.500
G23  24185861.960   127097568.93007     -1977.309          42.000    24185859.740    99037066.71705     -1540.762          34.500
G26  24559711.020   129062178.43906     -3453.855          41.500    24559712.500   100567947.62807     -2691.316          47.500
G27  21095482.660   110857542.64608     -1369.453          50.750    21095482.120    86382518.77009     -1067.109          54.750
G30  24180072.560   127067132.65307      1571.332          42.250    24180072.340    99013345.00305      1224.410          35.500
R02  23070167.520   123106831.21107      1445.230          45.000    23070173.080    95749788.41206      1124.063          40.000
R03  23845559.700   127647153.53406      3398.355          40.750    23845563.800    99281139.77106      2643.160          37.750
R09  21828069.300   116560664.06907      3290.008          47.250    21828072.660    90658304.70507      2558.895          45.000
R15  21608409.220   115468797.90008     -4040.426          48.500    21608414.320    89809089.00907     -3142.559          44.250
R16  19568039.100   104528958.21508      -474.695          48.000    19568043.540    81300307.96607      -369.211          45.750
R17  22325589.340   119468817.75507     -3049.414          45.500    22325593.380    92920240.59307     -2371.770          42.250
R18  19845137.660   105934738.74908     -1125.965          50.750    19845142.960    82393752.10508      -875.754          49.000
R19  20849292.180   111529670.37206      1630.594          40.500    20849295.900    86745320.58307      1268.234          45.000
> 2021 01 01 00 25  0.0000000  0 20
G01  22320020.780   117292505.12307      3221.410          46.500    22320022.120    91396775.22506      2510.191          41.750
G07  22675632.940   119161249.68607         7.727          47.500    22675630.680    92852902.75806         6.016          40.750
G08  20740369.140   108991395.12608       631.582          50.750    20740369.260    84928373.58109       492.141          54.750
G10  22801750.220   119824016.84808      -245.805          48.000    22801750.480    93369372.91708      -191.535          52.500
G16  22132950.440   116309475.17908     -2677.906          49.250    22132947.500    90630765.42807     -2086.684          42.500
G20  24246722.920   127417396.33206     -2288.598          39.750    24246720.040    99286268.68206     -1783.328          36.250
G21  20926856.840   109971414.82008      1208.848          50.750    20926853.760    85692031.49407       941.961          47.750
G22  24941773.460   131069925.30106      3557.129          40.500    24941769.620   102132431.51805      2771.793          34.250
G23  24197197.120   127157135.51406     -1993.551          41.500    24197194.800    99083482.23505     -1553.422          35.750
G26  24579438.480   129165844.84206     -3457.789          41.250    24579439.420   100648726.62707     -2694.387          46.500
G27  21103319.380   110898725.02208     -1376.305          50.750    21103318.880    86414608.93109     -1072.449          54.750
G30  24171149.260   127020239.78807      1554.195          43.000    24171148.760    98976805.13306      1211.063          37.250
R02  23062100.080   123063781.73607      1424.520          44.250    23062105.700    95716305.48306      1107.957          40.250
R03  23826525.620   127545262.99106      3393.922          40.750    23826530.020    99201891.62006      2639.551          38.750
R09  21809630.740   116462202.52207      3273.637          47.500    21809634.020    90581723.51307      2546.160          45.000
R15  21631123.780   115590177.39208     -4051.926          48.750    21631128.820    89903495.26407     -3151.500          44.250
R16  19570780.240   104543600.65508      -501.871          48.000    19570784.760    81311696.52007      -390.348          45.750
R17  22342684.560   119560296.48307     -3049.617          45.750    22342688.320    92991390.71307     -2371.930          42.750
R18  19851493.680   105968667.33708     -1136.309          50.750    19851498.940    82420141.00508      -883.797          48.750
R19  20840180.740   111480931.09006      1618.426          40.500    20840184.700    86707412.26307      1258.777          44.750
> 2021 01 01 00 25 30.0000000  0 20
G01  22301657.080   117196003.04607      3211.781          46.750    22301658.360    91321578.84706      2502.688          41.750
G07  22675639.080   119161281.69207       -10.086          47.000    22675636.680    92852927.69307        -7.863          42.250
G08  20736782.120   108972545.95308       624.789          51.000    20736782.420    84913685.91909       486.844          54.750
G10  22803204.580   119831660.58908      -263.922          48.000    22803205.020    93375329.07108      -205.652          52.250
G16  22148266.260   116389960.03308     -2687.879          49.250    22148263.360    90693480.89707     -2094.453          42.750
G20  24259826.020   127486254.91506     -2302.070          40.000    24259824.100    99339924.73005     -1793.816          33.250
G21  20919994.660   109935353.88908      1195.074          50.750    20919991.620    85663932.08408       931.227          48.000
G22  24921459.740   130963175.69806      3559.672          40.750    24921455.860   102049249.99305      2773.766          32.000
G23  24208621.560   127217171.42507     -2008.617          42.000    24208619.380    99130263.46706     -1565.156          36.750
G26  24599187.840   129269627.64606     -3461.027          40.500    24599188.620   100729596.34707     -2696.910          47.500
G27  21111193.440   110940104.10608     -1382.273          50.500    21111193.100    86446852.36109     -1077.102          54.750
G30  24162320.200   126973842.95907      1538.508          42.500    24162320.080    98940651.75305      1198.836          35.500
R02  23054147.840   123021346.89707      1404.355          44.500    23054153.360    95683300.63506      1092.273          40.000
R03  23807514.080   127443491.81006      3390.539          40.750    23807518.100    99122736.27306      2637.086          37.750
R09  21791282.260   116364222.15307      3257.949          46.750    21791285.540    90505516.56707      2533.961          44.750
R15  21653902.040   115711897.09008     -4062.777          48.500    21653906.820    89998166.13207     -3159.938          44.000
R16  19573672.340   104559049.78707      -528.180          47.750    19573676.840    81323712.49507      -410.809          45.750
R17  22359779.520   119651775.39907     -3049.125          45.750    22359784.080    93062540.92507     -2371.547          43.250
R18  19857906.300   106002898.03208     -1145.801          50.750    19857911.460    82446764.86608      -891.184          49.000
R19  20831137.500   111432555.94506      1606.762          40.250    20831141.320    86669787.15607      1249.699          44.750
> 2021 01 01 00 26  0.0000000  0 20
G01  22283350.800   117099802.60707      3201.629          46.500    22283352.040    91246617.50207      2494.777          42.000
G07  22675750.500   119161867.38107       -28.797          47.250    22675748.220    92853384.07406       -22.441          41.000
G08  20733236.540   108953913.46508       617.398          51.000    20733236.800    84899167.09009       481.086          54.750
G10  22804764.620   119839858.46807      -282.449          47.750    22804764.960    93381717.03508      -220.094          52.500
G16  22163641.560   116470757.54308     -2698.504          49.000    22163638.540    90756439.99607     -2102.730          42.500
G20  24273006.320   127555517.53306     -2315.363          40.750    24273004.340    99393895.63005     -1804.176          32.500
G21  20913214.060   109899721.37808      1180.703          50.750    20913210.960    85636166.50707       920.027          47.750
G22  24901134.880   130856370.07206      3561.285          39.750    24901131.560   101966024.90906      2775.031          36.750
G23  24220134.520   127277672.71406     -2024.770          41.500    24220132.760    99177407.31606     -1577.746          36.750
G26  24618958.320   129373523.12306     -3464.879          40.750    24618959.660   100810553.82107     -2699.910          46.500
G27  21119104.500   110981677.45908     -1388.980          50.500    21119104.260    86479247.17509     -1082.328          54.750
G30  24153585.500   126927941.30707      1521.695          43.000    24153585.100    98904884.17705      1185.730          35.000
R02  23046310.980   122979527.54007      1383.766          44.500    23046316.600    95650774.45106      1076.258          40.000
R03  23788524.880   127341842.00906      3385.914          41.250    23788528.820    99043675.35506      2633.488          38.500
R09  21773024.060   116266725.05607      3241.805          47.250    21773027.360    90429685.49607      2521.402          44.500
R15  21676743.000   115833950.99408     -4073.883          49.000    21676747.540    90093096.94407     -3168.574          43.750
R16  19576715.020   104575303.11708      -555.211          48.000    19576719.520    81336353.96207      -431.832          45.500
R17  22376874.140   119743251.16307     -3049.125          46.250    22376878.520    93133688.73907     -2371.547          42.500
R18  19864374.740   106037427.00608     -1155.891          50.750    19864380.060    82473620.73908      -899.027          48.750
R19  20822162.120   111384542.53406      1594.445          41.000    20822165.700    86632443.39007      1240.121          45.250
> 2021 01 01 00 26 30.0000000  0 20
G01  22265102.160   117003904.69707      3191.449          46.750    22265103.060    91171891.87506      2486.840          41.250
G07  22675966.980   119163005.25207       -47.305          47.250    22675964.660    92854270.70606       -36.859          41.250
G08  20729731.840   108935496.46808       610.242          50.750    20729732.200    84884816.19109       475.508          54.750
G10  22806429.820   119848609.73108      -300.992          48.000    22806430.220    93388536.20108      -234.543          52.000
G16  22179075.880   116551865.50008     -2708.848          49.000    22179072.820    90819640.98907     -2110.793          42.000
G20  24286262.760   127625181.53106     -2328.621          40.500    24286260.680    99448179.20405     -1814.516          31.000
G21  20906514.840   109864516.53708      1166.246          50.750    20906511.660    85608734.17108       908.758          48.000
G22  24880800.480   130749510.56206      3562.773          40.500    24880797.200   101882757.80605      2776.188          33.250
G23  24231735.500   127338636.70106     -2040.121          41.250    24231733.940    99224911.74405     -1589.703          35.250
G26  24638749.940   129477528.76706     -3468.859          40.750    24638750.980   100891597.16507     -2703.008          44.750
G27  21127052.400   111023443.93708     -1395.621          50.750    21127052.140    86511792.47709     -1087.496          54.750
G30  24144944.760   126882535.18107      1504.934          42.750    24144944.480    98869502.81006      1172.672          36.250
R02  23038589.780   122938326.16407      1362.770          44.500    23038595.620    95618728.95106      1059.930          40.250
R03  23769559.200   127240317.31906      3381.625          40.750    23769563.340    98964711.69706      2630.152          38.500
R09  21754857.080   116169714.02007      3225.246          47.000    21754860.160    90354232.46007      2508.523          45.000
R15  21699645.580   115956334.53508     -4085.055          48.500    21699650.140    90188284.13607     -3177.270          44.250
R16  19579908.000   104592359.26507      -581.988          47.750    19579912.460    81349619.84807      -452.660          45.750
R17  22393967.540   119834721.48207     -3049.109          45.000    22393971.740    93204832.29807     -2371.535          42.750
R18  19870898.420   106072250.92508     -1165.766          50.750    19870903.700    82500706.00708      -906.707          49.000
R19  20813253.880   111336889.15506      1582.266          40.500    20813257.500    86595379.66907      1230.652          45.000
> 2021 01 01 00 27  0.0000000  0 20
G01  22246911.480   116908311.97307      3181.539          47.000    22246912.460    91097404.07906      2479.121          41.750
G07  22676288.800   119164695.99107       -65.477          47.250    22676286.520    92855588.14906       -51.020          41.750
G08  20726268.500   108917296.41208       603.289          50.750    20726268.880    84870634.33709       470.094          54.750
G10  22808200.560   119857915.54808      -319.277          48.000    22808200.900    93395787.48608      -248.789          52.000
G16  22194569.040   116633283.21808     -2718.922          48.750    22194566.140    90883083.36407     -2118.672          42.000
G20  24299595.720   127695245.79106     -2342.008          40.500    24299593.580    99502774.70305     -1824.949          33.000
G21  20899897.100   109829740.11008      1152.145          50.750    20899893.860    85581635.66307       897.773          47.500
G22  24860456.460   130642600.66806      3564.582          40.750    24860452.800   101799451.39805      2777.594          35.000
G23  24243424.440   127400062.59006     -2055.086          41.250    24243422.920    99272776.04805     -1601.367          35.750
G26  24658562.020   129581644.02606     -3471.793          39.000    24658563.260   100972725.90007     -2705.297          46.500
G27  21135037.240   111065404.39908     -1401.797          50.500    21135036.940    86544488.92909     -1092.309          54.750
G30  24136399.000   126837627.00907      1488.723          42.000    24136398.880    98834509.41305      1160.039          34.750
R02  23030985.060   122897746.18007      1342.281          45.000    23030990.660    95587166.75006      1043.992          40.000
R03  23750618.000   127138922.97706      3377.773          40.750    23750622.240    98885849.45606      2627.156          39.750
R09  21736781.840   116073194.01307      3209.297          47.250    21736785.140    90279161.35207      2496.121          45.250
R15  21722609.000   116079044.83408     -4095.672          48.500    21722613.840    90283725.47007     -3185.527          44.000
R16  19583251.400   104610219.18508      -608.617          48.000    19583255.920    81363510.88707      -473.371          46.000
R17  22411060.120   119926186.18007     -3048.520          46.000    22411064.020    93275971.47407     -2371.074          43.250
R18  19877477.340   106107369.16608     -1175.387          50.750    19877482.580    82528020.19308      -914.195          49.000
R19  20804412.980   111289596.38706      1570.516          40.500    20804416.500    86558596.40707      1221.508          45.000
> 2021 01 01 00 27 30.0000000  0 20
G01  22228778.940   116813025.04507      3171.594          46.500    22228780.040    91023154.54506      2471.371          41.500
G07  22676715.520   119166938.00707       -83.656          47.500    22676712.940    92857335.17206       -65.191          40.250
G08  20722846.300   108899312.51108       596.199          51.000    20722846.580    84856620.90609       464.570          54.750
G10  22810076.760   119867774.91407      -337.691          47.750    22810077.080    93403470.10508      -263.137          52.500
G16  22210120.780   116715008.93008     -2728.965          48.750    22210118.020    90946765.72107     -2126.469          42.250
G20  24313004.260   127765706.97506     -2354.676          41.250    24313002.020    99557679.56705     -1834.813          34.250
G21  20893360.640   109795390.85708      1138.086          50.750    20893357.400    85554870.02807       886.820          47.750
G22  24840102.840   130535642.02706      3566.395          40.250    24840098.500   101716107.04605      2779.008          35.500
G23  24255200.680   127461947.40106     -2070.336          41.750    24255199.080    99320998.00005     -1613.250          35.250
G26  24678394.720   129685866.16706     -3475.691          40.000    24678396.240   101053937.93507     -2708.336          44.750
G27  21143058.740   111107557.49008     -1408.246          50.500    21143058.420    86577335.48309     -1097.340          54.750
G30  24127948.000   126793216.95607      1472.184          42.500    24127947.720    98799904.19405      1147.152          35.000
R02  23023497.080   122857788.94207      1321.820          44.750    23023502.680    95556088.90206      1028.082          41.000
R03  23731701.480   127037662.50707      3373.031          42.500    23731706.000    98807091.32806      2623.465          39.500
R09  21718799.300   115977168.34407      3192.789          47.750    21718802.740    90204474.72607      2483.281          45.500
R15  21745632.600   116202076.92908     -4106.273          48.250    21745637.540    90379417.08407     -3193.773          44.250
R16  19586744.940   104628881.21908      -635.320          48.000    19586749.480    81378025.78807      -494.141          46.250
R17  22428151.060   120017642.96307     -3048.113          46.000    22428155.300    93347104.47407     -2370.758          43.750
R18  19884110.640   106142778.42308     -1184.973          50.750    19884115.900    82555560.72808      -921.648          49.250
R19  20795639.340   111242662.52706      1558.566          41.000    20795642.580    86522092.31107      1212.219          45.250
> 2021 01 01 00 28  0.0000000  0 20
G01  22210705.160   116718047.79407      3160.844          47.000    22210706.320    90949146.31806      2462.996          41.250
G07  22677247.320   119169732.50907      -102.230          47.250    22677244.740    92859512.69607       -79.664          42.000
G08  20719465.540   108881546.70008       588.687          51.000    20719465.740    84842777.42109       458.719          54.750
G10  22812058.720   119878190.05208      -356.312          48.000    22812059.120    93411585.81208      -277.645          52.250
G16  22225731.540   116797043.72508     -2739.480          48.750    22225728.680    91010688.94606     -2134.660          41.750
G20  24326488.300   127836565.54006     -2368.184          40.500    24326486.180    99612894.00605     -1845.336          32.500
G21  20886905.800   109761470.67008      1123.680          50.750    20886902.660    85528438.73208       875.590          48.250
G22  24819741.020   130428639.33206      3567.871          41.250    24819736.480   101632728.34305      2780.156          33.000
G23  24267064.520   127524291.42406     -2085.430          41.750    24267062.480    99369577.74305     -1625.016          35.000
G26  24698247.940   129790195.81306     -3479.207          40.500    24698249.280   101135233.72407     -2711.074          46.000
G27  21151117.140   111149905.11508     -1414.602          50.500    21151116.880    86610333.62209     -1102.289          54.750
G30  24119592.540   126749308.50707      1455.359          42.500    24119592.740    98765689.79106      1134.043          37.250
R02  23016126.880   122818460.40207      1300.797          44.000    23016132.600    95525500.07106      1011.730          40.000
R03  23712811.220   126936542.63806      3368.582          41.500    23712815.980    98728442.56606      2619.973          38.750
R09  21700910.560   115881643.00608      3175.973          48.000    21700913.920    90130177.24707      2470.195          44.750
R15  21768716.320   116325429.25208     -4116.828          48.750    21768721.100    90475357.75707     -3201.980          43.500
R16  19590388.960   104648347.05108      -661.957          48.000    19590393.460    81393165.86907      -514.859          45.500
R17  22445240.840   120109092.68607     -3048.027          45.250    22445245.200    93418232.03607     -2370.691          42.250
R18  19890798.600   106178479.08208     -1194.727          50.500    19890803.820    82583327.89908      -929.234          48.750
R19  20786932.940   111196089.44406      1546.809          41.250    20786936.080    86485868.79707      1203.070          44.500
> 2021 01 01 00 28 30.0000000  0 20
G01  22192690.180   116623379.43607      3150.219          46.250    22192691.380    90875378.78907      2454.715          42.500
G07  22677883.620   119173076.82907      -120.871          47.000    22677881.180    92862118.63507       -94.188          42.000
G08  20716126.020   108863997.28008       581.004          50.750    20716126.240    84829102.54709       452.730          54.750
G10  22814146.020   119889158.64408      -375.105          48.000    22814146.440    93420132.76208      -292.289          52.500
G16  22241400.320   116879383.34708     -2749.863          48.500    22241397.340    91074849.67807     -2142.750          42.500
G20  24340047.100   127907817.19406     -2381.691          39.750    24340044.860    99668414.79805     -1855.859          35.000
G21  20880532.160   109727977.10508      1109.055          50.750    20880529.020    85502339.85608       864.199          48.250
G22  24799370.560   130321592.91906      3568.277          39.500    24799366.420   101549315.61705      2780.480          35.500
G23  24279014.920   127587090.40306     -2101.242          41.250    24279012.800    99418512.00906     -1637.332          36.250
G26  24718121.100   129894628.89106     -3483.141          40.500    24718122.260   101216610.14207     -2714.137          45.500
G27  21159212.120   111192444.73508     -1421.297          50.250    21159211.900    86643481.36509     -1107.508          55.000
G30  24111332.440   126705900.42707      1438.109          42.750    24111332.280    98731865.30506      1120.602          38.500
R02  23008874.320   122779760.37607      1279.059          44.750    23008880.220    95495400.07006       994.824          40.500
R03  23693947.660   126835565.27706      3363.332          41.500    23693952.420    98649904.60806      2615.922          39.000
R09  21683115.740   115786619.23007      3158.781          47.750    21683118.700    90056269.87407      2456.828          45.000
R15  21791858.840   116449095.75808     -4127.609          48.500    21791863.460    90571542.82007     -3210.367          43.500
R16  19594183.020   104668613.82208      -689.191          48.000    19594187.600    81408928.90007      -536.043          45.750
R17  22462328.300   120200531.69807     -3048.160          45.500    22462332.680    93489351.23207     -2370.797          42.750
R18  19897540.300   106214466.62308     -1204.648          50.750    19897545.480    82611318.21108      -936.953          48.750
R19  20778293.260   111149873.88006      1534.016          41.000    20778296.700    86449923.36707      1193.125          45.000
> 2021 01 01 00 29  0.0000000  0 20
G01  22174734.460   116529022.04507      3139.879          46.250    22174735.720    90801853.56507      2446.660          42.250
G07  22678624.600   119176970.86007      -139.000          47.500    22678622.280    92865152.93106      -108.316          41.250
G08  20712827.640   108846664.22908       574.156          51.000    20712827.960    84815596.27109       447.391          54.750
G10  22816338.880   119900681.08108      -393.238          48.250    22816339.020    93429111.29308      -306.422          52.250
G16  22257126.800   116962027.29008     -2759.918          48.750    22257123.920    91139247.54607     -2150.590          42.000
G20  24353680.260   127979460.01506     -2394.766          40.250    24353677.800    99724240.37705     -1866.047          33.500
G21  20874239.740   109694909.89708      1095.125          51.000    20874236.500    85476573.19608       853.340          48.500
G22  24778992.460   130214505.60906      3570.059          41.000    24778988.880   101465870.99906      2781.859          36.250
G23  24291051.620   127650342.85107     -2115.914          42.250    24291049.560    99467799.67105     -1648.770          31.000
G26  24738013.840   129999164.16406     -3486.039          40.250    24738015.140   101298066.16407     -2716.398          47.000
G27  21167343.640   111235176.45008     -1427.641          50.500    21167343.500    86676778.79309     -1112.449          54.750
G30  24103167.620   126662994.33907      1421.832          42.250    24103167.540    98698432.00206      1107.918          37.500
R02  23001740.280   122741691.54807      1258.273          44.750    23001745.820    95465791.00006       978.656          40.000
R03  23675111.760   126734735.28006      3358.684          41.500    23675116.520    98571481.29806      2612.305          38.500
R09  21665415.660   115692101.69707      3142.129          47.750    21665418.620    89982756.22907      2443.875          45.500
R15  21815059.500   116573072.58808     -4137.691          48.500    21815064.020    90667969.25007     -3218.207          43.500
R16  19598126.860   104689680.72508      -715.535          48.000    19598131.380    81425314.26107      -556.527          45.750
R17  22479413.780   120291959.44507     -3047.277          45.750    22479417.820    93560461.67107     -2370.105          42.500
R18  19904335.380   106250739.52308     -1213.828          50.500    19904340.680    82639530.47008      -944.090          49.000
R19  20769720.560   111104015.80406      1522.520          41.000    20769724.160    86414256.00007      1184.184          45.500
> 2021 01 01 00 29 30.0000000  0 20
G01  22156838.540   116434979.07007      3129.656          46.750    22156839.940    90728573.34407      2438.688          42.000
G07  22679470.540   119181415.55107      -157.371          47.500    22679467.980    92868616.31806      -122.629          41.250
G08  20709570.980   108829550.19708       566.863          51.000    20709571.220    84802260.65909       441.711          54.750
G10  22818637.380   119912759.16308      -411.883          48.000    22818637.320    93438522.80008      -320.949          52.250
G16  22272911.520   117044976.86908     -2770.020          48.250    22272908.820    91203883.57507     -2158.461          42.000
G20  24367387.680   128051493.55606     -2407.398          39.000    24367385.380    99780370.35705     -1875.898          34.750
G21  20868028.660   109662270.67208      1080.703          50.750    20868025.480    85451140.03808       842.102          48.250
G22  24758607.460   130107381.79306      3571.574          40.750    24758603.600   101382397.93805      2783.039          31.750
G23  24303174.460   127714048.64406     -2131.211          41.250    24303172.520    99517440.53905     -1660.684          35.250
G26  24757925.880   130103801.85006     -3489.719          41.000    24757927.100   101379601.99307     -2719.266          45.250
G27  21175512.060   111278101.89208     -1434.090          50.250    21175511.900    86710227.17509     -1117.477          55.000
G30  24095098.840   126620593.31907      1404.902          42.500    24095099.100    98665392.25606      1094.730          36.500
R02  22994725.600   122704259.08707      1237.078          44.750    22994730.960    95436676.86906       962.172          40.000
R03  23656304.680   126634059.01906      3353.234          41.000    23656309.240    98493177.55106      2608.070          39.000
R09  21647811.300   115598096.20307      3124.926          47.500    21647814.540    89909640.86607      2430.496          45.250
R15  21838317.860   116697357.92908     -4148.027          48.500    21838322.640    90764635.60307     -3226.246          43.500
R16  19602220.780   104711549.70308      -742.477          48.000    19602225.220    81442323.44807      -577.484          45.500
R17  22496497.200   120383376.37307     -3047.074          45.000    22496501.080    93631563.70107     -2369.949          42.000
R18  19911183.940   106287297.58508     -1223.414          50.750    19911189.320    82667964.50808      -951.547          48.750
R19  20761215.140   111058516.13506      1510.500          41.250    20761218.620    86378867.38107      1174.832          45.000
> 2021 01 01 00 30  0.0000000  0 20
G01  22139002.300   116341250.56507      3119.297          46.250    22139004.000    90655538.19806      2430.621          41.750
G07  22680420.820   119186408.51307      -175.199          47.500    22680418.160    92872506.90706      -136.523          41.250
G08  20706355.720   108812653.48408       559.836          50.750    20706355.780    84789094.39009       436.230          54.750
G10  22821041.300   119925391.27008      -430.000          48.000    22821041.240    93448366.00408      -335.070          52.250
G16  22288753.760   117128228.49408     -2779.738          48.500    22288751.120    91268754.95507     -2166.035          42.000
G20  24381168.600   128123913.95906     -2419.699          39.750    24381166.880    99836801.79105     -1885.488          31.750
G21  20861898.700   109630057.71908      1066.895          50.750    20861895.560    85426039.04408       831.348          48.250
G22  24738215.740   130000222.74106      3572.320          41.250    24738211.720   101298897.40906      2783.625          36.000
G23  24315382.820   127778204.23806     -2145.906          41.750    24315380.780    99567431.91506     -1672.133          37.500
G26  24777856.860   130208538.77406     -3492.488          40.500    24777857.780   101461215.18007     -2721.418          47.500
G27  21183717.080   111321219.20808     -1440.223          50.500    21183716.880    86743825.07009     -1122.254          54.750
G30  24087126.220   126578696.87807      1388.391          42.500    24087126.360    98632745.65906      1081.859          36.500
R02  22987830.100   122667463.19407      1216.125          44.750    22987835.180    95408057.86406       945.871          40.500
R03  23637526.680   126533539.34006      3348.309          40.250    23637531.180    98414995.57706      2604.250          38.500
R09  21630303.580   115504605.03308      3107.875          48.250    21630306.820    89836925.51407      2417.234          45.500
R15  21861632.960   116821946.22308     -4157.645          48.500    21861637.420    90861537.61907     -3233.723          43.250
R16  19606464.320   104734217.94508      -768.660          48.000    19606468.800    81459954.29407      -597.852          45.500
R17  22513577.960   120474779.66307     -3046.328          45.500    22513582.280    93702655.11907     -2369.367          42.500
R18  19918085.220   106324137.10508     -1232.500          50.750    19918090.660    82696617.46608      -958.613          48.750
R19  20752776.240   111013372.73206      1499.113          41.750    20752779.380    86343755.84707      1165.973          44.500
> 2021 01 01 00 30 30.0000000  0 20
G01  22121226.680   116247838.83407      3108.168          46.500    22121228.400    90582749.86007      2421.949          42.000
G07  22681475.340   119191950.00307      -194.324          47.500    22681472.760    92876824.95506      -151.426          41.250
G08  20703181.860   108795975.21608       551.914          51.000    20703182.020    84776098.34209       430.062          54.750
G10  22823550.720   119938578.01708      -448.922          48.000    22823550.600    93458641.40108      -349.812          52.250
G16  22304653.340   117211781.79008     -2790.434          48.500    22304650.720    91333861.40707     -2174.367          42.250
G20  24395023.140   128196720.22106     -2433.770          39.750    24395021.060    99893533.97805     -1896.449          33.500
G21  20855849.860   109598271.28708      1052.129          50.750    20855846.760    85401270.39708       819.836          48.000
G22  24717817.720   129893031.42906      3573.039          41.250    24717813.560   101215371.74206      2784.188          36.000
G23  24327676.480   127842808.41206     -2161.316          41.250    24327674.100    99617772.85006     -1684.145          37.750
G26  24797806.400   130313373.90706     -3496.164          40.500    24797807.680   101542904.83107     -2724.293          47.500
G27  21191958.740   111364528.89308     -1447.238          50.250    21191958.460    86777572.87009     -1127.723          54.750
G30  24079249.720   126537306.88906      1370.691          41.250    24079250.020    98600493.71705      1068.066          34.250
R02  22981054.600   122631307.69707      1194.133          45.500    22981059.960    95379936.96606       928.770          40.500
R03  23618778.480   126433181.20907      3342.094          42.750    23618783.520    98336939.28006      2599.402          39.000
R09  21612892.960   115411632.77907      3090.070          47.750    21612896.100    89764613.75207      2403.383          45.250
R15  21885004.040   116946834.35708     -4168.191          48.500    21885008.740    90958672.81207     -3241.930          43.750
R16  19610857.520   104757685.78108      -795.891          48.250    19610862.060    81478207.03007      -619.031          45.750
R17  22530656.040   120566168.95407     -3046.387          45.250    22530660.800    93773735.64407     -2369.414          42.000
R18  19925039.000   106361257.11108     -1242.238          50.500    19925044.420    82725488.57208      -966.187          48.750
R19  20744403.780   110968586.28606      1486.625          41.250    20744406.840    86308921.94507      1156.266          44.500
> 2021 01 01 00 31  0.0000000  0 20
G01  22103511.520   116154744.79807      3097.711          47.000    22103513.280    90510209.10406      2413.801          41.750
G07  22682634.080   119198038.79707      -212.113          47.500    22682631.500    92881569.46606      -165.285          41.500
G08  20700049.620   108779514.71108       544.965          51.000    20700049.760    84763271.97709       424.645          54.500
G10  22826165.500   119952318.67308      -467.156          48.500    22826165.260    93469348.40908      -364.023          52.000
G16  22320610.320   117295635.29508     -2800.172          48.750    22320607.480    91399201.79206     -2181.957          41.250
G20  24408950.620   128269909.46706     -2446.609          39.500    24408948.460    99950564.53905     -1906.457          35.500
G21  20849882.080   109566910.64308      1038.219          50.750    20849879.060    85376833.53908       809.000          48.250
G22  24697414.400   129785810.07906      3573.977          41.000    24697410.100   101131822.70005      2784.918          32.750
G23  24340054.940   127907858.54906     -2176.059          41.000    24340052.780    99668461.26805     -1695.633          32.500
G26  24817774.160   130418304.99406     -3499.324          38.500    24817775.440   101624669.32307     -2726.750          46.750
G27  21200236.860   111408030.09008     -1453.266          50.750    21200236.480    86811469.88809     -1132.418          54.500
G30  24071469.980   126496423.82007      1354.223          42.250    24071470.100    98568636.78806      1055.238          39.750
R02  22974399.460   122595794.61007      1172.938          45.500    22974405.160    95352315.67206       912.281          41.000
R03  23600061.960   126332988.71606      3336.523          41.500    23600066.740    98259011.74806      2595.070          38.750
R09  21595580.000   115319182.66408      3072.793          48.250    21595583.200    89692708.12407      2389.949          45.750
R15  21908430.340   117072017.94608     -4177.852          48.250    21908435.160    91056037.80707     -3249.441          43.500
R16  19615400.180   104781951.71408      -822.332          48.000    19615404.820    81497080.51907      -639.594          46.000
R17  22547731.440   120657542.33407     -3045.492          45.750    22547735.540    93844803.78206     -2368.719          41.750
R18  19932044.760   106398654.70808     -1251.246          50.500    19932050.220    82754575.59108      -973.195          48.750
R19  20736097.700   110924155.17406      1475.215          41.000    20736100.940    86274364.40507      1147.387          45.250
> 2021 01 01 00 31 30.0000000  0 20
G01  22085857.500   116061972.07607      3086.984          46.750    22085859.200    90437918.71707      2405.441          42.000
G07  22683897.100   119204675.84107      -230.477          47.500    22683894.380    92886741.18306      -179.594          40.500
G08  20696959.220   108763274.12308       537.734          51.000    20696959.260    84750616.96309       419.012          54.750
G10  22828885.960   119966615.15208      -485.945          48.000    22828885.740    93480488.53408      -378.664          52.750
G16  22336624.420   117379789.43808     -2810.199          48.500    22336621.540    91464776.44106     -2189.770          41.750
G20  24422950.760   128343481.47206     -2458.520          40.250    24422948.840   100007893.35105     -1915.730          31.500
G21  20843995.560   109535977.21108      1024.023          50.750    20843992.580    85352729.57108       797.937          48.250
G22  24677006.080   129678563.66506      3575.289          41.500    24677001.720   101048254.11005      2785.941          34.000
G23  24352518.380   127973354.67006     -2190.547          41.750    24352516.360    99719497.21305     -1706.922          35.750
G26  24837759.400   130523332.50606     -3502.727          39.000    24837761.540   101706508.85407     -2729.406          47.500
G27  21208551.760   111451724.57708     -1459.781          50.500    21208551.220    86845517.52809     -1137.496          54.750
G30  24063787.220   126456050.79606      1337.148          41.750    24063787.360    98537177.30706      1041.934          36.500
R02  22967865.480   122560928.52107      1151.461          45.000    22967871.600    95325197.62406       895.578          40.750
R03  23581377.380   126232968.18807      3331.184          42.250    23581382.140    98181218.03306      2590.879          39.000
R09  21578365.860   115227260.58907      3055.277          47.750    21578369.040    89621213.17507      2376.324          45.250
R15  21931911.720   117197495.17508     -4187.520          48.000    21931916.900    91153631.19907     -3256.965          44.000
R16  19620092.440   104807016.71608      -848.809          48.250    19620097.000    81516575.50807      -660.187          45.750
R17  22564804.080   120748900.78907     -3044.820          45.750    22564807.880    93915860.29606     -2368.199          41.750
R18  19939102.680   106436330.00108     -1260.496          50.500    19939108.020    82783878.59708      -980.391          48.750
R19  20727858.260   110880080.60906      1463.281          41.500    20727861.840    86240084.19207      1138.109          45.250
> 2021 01 01 00 32  0.0000000  0 20
G01  22068264.040   115969517.12007      3076.852          47.000    22068265.660    90365875.92507      2397.547          42.250
G07  22685263.180   119211855.09707      -248.047          47.500    22685260.480    92892335.40206      -193.289          41.000
G08  20693909.380   108747248.29108       530.937          50.500    20693909.660    84738129.31009       413.719          55.000
G10  22831711.200   119981462.11708      -503.574          48.250    22831711.040    93492057.60808      -392.395          52.250
G16  22352694.260   117464237.41707     -2819.242          47.750    22352691.460    91530580.05306     -2196.816          41.500
G20  24437022.880   128417429.08006     -2470.664          39.750    24437020.520   100065514.85405     -1925.191          31.000
G21  20838189.280   109505465.46908      1010.391          50.500    20838186.380    85328954.19808       787.316          48.250
G22  24656592.260   129571288.69006      3576.418          41.000    24656587.860   100964663.27005      2786.820          34.250
G23  24365065.360   128039289.64006     -2205.094          41.500    24365063.480    99770875.09706     -1718.258          36.500
G26  24857762.460   130628449.43006     -3504.949          38.500    24857764.300   101788418.14607     -2731.133          46.250
G27  21216902.320   111495606.94808     -1465.652          50.500    21216901.760    86879711.56309     -1142.070          54.500
G30  24056200.780   126416183.72406      1320.574          41.250    24056201.040    98506112.05905      1029.023          35.500
R02  22961452.220   122526706.47307      1130.387          44.000    22961458.420    95298580.47106       879.187          40.500
R03  23562724.720   126133118.94506      3325.938          41.750    23562729.560    98103557.55206      2586.746          39.000
R09  21561250.400   115135865.25208      3038.031          48.500    21561253.540    89550127.92307      2362.910          45.750
R15  21955446.220   117323256.89608     -4196.379          48.000    21955451.580    91251445.85007     -3263.852          43.500
R16  19624933.180   104832875.03508      -874.859          48.250    19624937.780    81536687.51107      -680.449          45.750
R17  22581872.640   120840237.85707     -3043.891          45.250    22581876.820    93986900.20506     -2367.473          41.500
R18  19946211.240   106474275.66208     -1268.977          50.500    19946216.540    82813391.87908      -986.984          48.750
R19  20719684.520   110836356.71306      1451.816          41.500    20719688.260    86206076.72107      1129.191          45.250
> 2021 01 01 00 32 30.0000000  0 20
G01  22050732.220   115877385.69407      3065.457          47.250    22050733.760    90294085.25307      2388.668          42.750
G07  22686733.180   119219580.18007      -266.633          47.000    22686730.360    92898354.93706      -207.770          41.250
G08  20690901.460   108731442.04508       523.168          50.750    20690901.820    84725812.75709       407.664          54.750
G10  22834641.840   119996863.71707      -522.582          47.750    22834641.820    93504058.87708      -407.207          52.500
G16  22368820.800   117548982.49108     -2829.789          48.250    22368817.780    91596615.16906     -2205.035          41.750
G20  24451166.480   128491754.15306     -2483.879          39.750    24451163.640   100123430.46005     -1935.492          33.000
G21  20832464.020   109475379.27908       995.812          50.500    20832461.120    85305510.42008       775.953          48.500
G22  24636174.400   129463992.54506      3576.914          40.500    24636170.080   100881055.93305      2787.215          34.750
G23  24377696.400   128105665.54606     -2220.039          41.250    24377694.220    99822596.57805     -1729.902          35.500
G26  24877782.740   130733658.49006     -3508.574          38.500    24877784.640   101870399.17807     -2733.957          45.000
G27  21225289.420   111539681.26708     -1472.289          50.250    21225288.900    86914055.16309     -1147.242          55.000
G30  24048711.740   126376827.92507      1303.395          42.750    24048711.640    98475445.18806      1015.629          37.250
R02  22955160.960   122493135.22407      1108.090          44.750    22955166.980    95272469.53306       861.844          40.750
R03  23544105.720   126033449.77107      3319.305          42.000    23544110.320    98026037.10706      2581.680          39.000
R09  21544235.040   115045004.98207      3019.742          47.750    21544238.440    89479458.83007      2348.688          45.750
R15  21979034.180   117449303.57007     -4206.188          47.500    21979039.320    91349482.15007     -3271.484          43.500
R16  19629923.080   104859529.96908      -901.828          48.000    19629927.640    81557419.11807      -701.426          45.750
R17  22598937.760   120931556.52107     -3043.750          45.750    22598941.660    94057925.82807     -2367.363          42.000
R18  19953370.800   106512494.15208     -1278.457          50.500    19953376.080    82843117.36408      -994.355          48.750
R19  20711577.080   110792987.39706      1439.848          41.250    20711580.520    86172345.02907      1119.879          44.750
> 2021 01 01 00 33  0.0000000  0 20
G01  22033261.960   115785577.98107      3054.992          47.250    22033263.200    90222546.81307      2380.500          42.750
G07  22688306.560   119227848.82407      -284.672          46.750    22688303.940    92904798.01507      -221.824          42.000
G08  20687935.360   108715854.53608       516.078          50.750    20687935.540    84713666.63709       402.137          54.750
G10  22837677.760   120012818.28607      -540.953          47.500    22837677.840    93516491.03108      -421.523          52.500
G16  22385003.300   117634022.22107     -2839.531          47.750    22385000.380    91662879.87507     -2212.625          42.250
G20  24465381.140   128566453.06806     -2496.414          39.000    24465379.040   100181637.35804     -1945.258          27.750
G21  20826819.500   109445717.02408       981.812          50.500    20826816.640    85282396.97708       765.043          48.750
G22  24615752.820   129356676.68306      3577.730          41.250    24615748.160   100797433.19605      2787.844          34.500
G23  24390410.500   128172479.09906     -2234.699          41.250    24390408.360    99874659.08605     -1741.328          34.750
G26  24897820.220   130838956.54706     -3511.734          38.000    24897821.800   101952449.59607     -2736.418          43.750
G27  21233712.680   111583945.80508     -1478.465          50.250    21233712.220    86948547.00309     -1152.055          54.750
G30  24041319.900   126337983.02407      1286.340          42.250    24041319.580    98445176.44406      1002.344          37.750
R02  22948991.760   122460215.80207      1086.594          44.500    22948997.860    95246865.53806       845.129          41.250
R03  23525521.220   125933963.79907      3313.375          42.250    23525525.360    97948659.10306      2577.066          39.250
R09  21527320.440   114954682.16507      3001.922          47.750    21527323.700    89409207.74207      2334.824          45.750
R15  22002674.380   117575629.76208     -4215.313          48.000    22002679.620    91447735.83807     -3278.578          43.250
R16  19635061.660   104886979.26008      -928.008          48.000    19635066.140    81578768.55107      -721.789          45.750
R17  22615999.140   121022854.56907     -3042.770          45.250    22616002.540    94128935.35006     -2366.602          41.750
R18  19960580.840   106550981.93108     -1287.250          50.250    19960586.160    82873052.29108     -1001.199          48.750
R19  20703535.420   110749970.35306      1428.090          40.750    20703538.680    86138887.33107      1110.734          45.000
